$GNGGA,183334.000,4910.428618,N,12304.403706,W,2,35,0.43,0.663,M,-16.816,M,,*45
$GNGLL,4910.428618,N,12304.403706,W,183334.000,A,D*51
$GNGSA,A,3,28,02,21,31,32,03,10,17,25,04,12,19,0.75,0.43,0.62,1*04
$GNGSA,A,3,65,81,88,75,74,,,,,,,,0.75,0.43,0.62,2*08
$GNGSA,A,3,06,04,11,36,09,10,19,21,12,34,,,0.75,0.43,0.62,3*02
$GNGSA,A,3,32,41,25,23,29,20,40,27,,,,,0.75,0.43,0.62,4*0F
$GPGSV,4,1,13,28,58,106,42,02,54,248,43,21,49,218,43,31,42,163,42,1*6B
$GPGSV,4,2,13,32,39,064,43,03,37,298,40,44,33,171,40,10,15,112,38,1*61
$GPGSV,4,3,13,17,13,314,36,25,12,065,33,04,11,244,30,12,06,030,32,1*63
$GPGSV,4,4,13,19,05,338,36,1*56
$GLGSV,2,1,07,65,69,005,35,81,45,296,34,66,37,278,,88,36,219,32,1*76
$GLGSV,2,2,07,75,29,108,35,74,28,046,34,72,22,069,,1*4F
$GAGSV,3,1,10,06,76,244,43,04,75,059,43,11,54,200,37,36,51,294,40,7*72
$GAGSV,3,2,10,09,51,244,40,10,31,175,37,19,16,061,25,21,11,057,33,7*72
$GAGSV,3,3,10,12,11,164,29,34,08,326,33,7*71
$GBGSV,3,1,12,58,81,091,,32,76,312,36,41,41,082,30,25,32,070,30,1*75
$GBGSV,3,2,12,30,29,241,,23,28,131,33,29,25,303,29,20,22,275,29,1*7D
$GBGSV,3,3,12,40,15,306,22,27,07,196,24,07,04,315,15,24,04,025,25,1*78
$GNRMC,183334.000,A,4910.428618,N,12304.403706,W,0.01,0.00,091024,,,D,V*13
$GNVTG,0.00,T,,M,0.01,N,0.02,K,D*25
$GNGGA,183335.000,4910.428594,N,12304.403772,W,2,35,0.43,0.748,M,-16.816,M,,*48
$GNGLL,4910.428594,N,12304.403772,W,183335.000,A,D*54
$GNGSA,A,3,28,02,21,31,32,03,10,17,25,04,12,19,0.75,0.43,0.62,1*04
$GNGSA,A,3,65,81,88,75,74,,,,,,,,0.75,0.43,0.62,2*08
$GNGSA,A,3,06,04,11,36,09,10,19,21,12,34,,,0.75,0.43,0.62,3*02
$GNGSA,A,3,32,41,25,23,29,20,40,27,,,,,0.75,0.43,0.62,4*0F
$GPGSV,4,1,13,28,58,106,42,02,54,248,43,21,49,218,43,31,42,163,42,1*6B
$GPGSV,4,2,13,32,39,064,43,03,37,298,40,44,33,171,39,10,15,112,38,1*6F
$GPGSV,4,3,13,17,13,314,36,25,12,065,33,04,11,244,30,12,06,030,32,1*63
$GPGSV,4,4,13,19,05,338,36,1*56
$GLGSV,2,1,07,65,69,005,35,81,45,296,33,66,37,278,,88,36,219,32,1*71
$GLGSV,2,2,07,75,29,108,35,74,28,046,34,72,22,069,,1*4F
$GAGSV,3,1,10,06,76,244,43,04,75,059,43,11,53,199,37,36,51,294,40,7*76
$GAGSV,3,2,10,09,51,244,40,10,31,175,37,19,16,061,25,21,11,057,33,7*72
$GAGSV,3,3,10,12,11,164,29,34,08,326,33,7*71
$GBGSV,3,1,12,58,81,091,,32,76,312,36,41,41,082,31,25,32,070,30,1*74
$GBGSV,3,2,12,30,29,241,,23,28,131,33,29,25,303,30,20,22,275,30,1*7D
$GBGSV,3,3,12,40,15,306,21,27,07,196,24,07,04,315,16,24,04,025,26,1*7B
$GNRMC,183335.000,A,4910.428594,N,12304.403772,W,0.01,0.00,091024,,,D,V*16
$GNVTG,0.00,T,,M,0.01,N,0.02,K,D*25
$GNGGA,183336.000,4910.428576,N,12304.403820,W,2,35,0.43,0.888,M,-16.817,M,,*4D
$GNGLL,4910.428576,N,12304.403820,W,183336.000,A,D*53
$GNGSA,A,3,28,02,21,31,32,03,10,17,25,04,12,19,0.76,0.43,0.63,1*06
$GNGSA,A,3,65,81,88,75,74,,,,,,,,0.76,0.43,0.63,2*0A
$GNGSA,A,3,06,04,11,36,09,10,19,21,12,34,,,0.76,0.43,0.63,3*00
$GNGSA,A,3,32,41,25,30,23,29,20,27,,,,,0.76,0.43,0.63,4*0A
$GPGSV,4,1,13,28,58,106,42,02,54,248,43,21,49,218,43,31,42,163,42,1*6B
$GPGSV,4,2,13,32,39,064,43,03,37,298,40,44,33,171,39,10,15,112,38,1*6F
$GPGSV,4,3,13,17,13,314,36,25,12,065,33,04,11,244,30,12,06,030,32,1*63
$GPGSV,4,4,13,19,05,338,36,1*56
$GLGSV,2,1,07,65,69,005,35,81,45,296,34,66,37,278,,88,36,219,33,1*77
$GLGSV,2,2,07,75,29,108,35,74,28,046,34,72,22,069,,1*4F
$GAGSV,3,1,10,06,76,244,43,04,75,059,43,11,53,199,37,36,51,294,40,7*76
$GAGSV,3,2,10,09,51,244,40,10,31,175,37,19,16,061,25,21,11,057,33,7*72
$GAGSV,3,3,10,12,10,164,29,34,08,326,33,7*70
$GBGSV,3,1,12,58,81,091,,32,76,312,36,41,41,082,31,25,32,070,30,1*74
$GBGSV,3,2,12,30,29,241,30,23,28,131,33,29,25,303,30,20,22,275,30,1*7E
$GBGSV,3,3,12,40,15,306,,27,07,196,23,07,04,315,16,24,04,025,25,1*7C
$GNRMC,183336.000,A,4910.428576,N,12304.403820,W,0.01,0.00,091024,,,D,V*11
$GNVTG,0.00,T,,M,0.01,N,0.02,K,D*25
$GNGGA,183337.000,4910.428570,N,12304.403904,W,2,35,0.43,0.939,M,-16.816,M,,*47
$GNGLL,4910.428570,N,12304.403904,W,183337.000,A,D*53
$GNGSA,A,3,28,02,21,31,32,03,10,17,25,04,12,19,0.76,0.43,0.63,1*06
$GNGSA,A,3,65,81,88,75,74,,,,,,,,0.76,0.43,0.63,2*0A
$GNGSA,A,3,06,04,11,36,09,10,19,21,12,34,,,0.76,0.43,0.63,3*00
$GNGSA,A,3,32,41,25,30,23,29,20,27,,,,,0.76,0.43,0.63,4*0A
$GPGSV,4,1,13,28,58,106,42,02,54,248,43,21,49,218,43,31,42,163,42,1*6B
$GPGSV,4,2,13,32,39,064,43,03,37,298,40,44,33,171,39,10,15,112,38,1*6F
$GPGSV,4,3,13,17,13,314,36,25,12,065,33,04,11,244,30,12,06,030,32,1*63
$GPGSV,4,4,13,19,05,338,36,1*56
$GLGSV,2,1,07,65,69,005,35,81,45,296,34,66,37,278,,88,36,219,33,1*77
$GLGSV,2,2,07,75,29,108,35,74,28,046,33,72,22,069,,1*48
$GAGSV,3,1,10,06,76,244,43,04,75,059,43,11,53,199,37,36,51,294,40,7*76
$GAGSV,3,2,10,09,51,244,40,10,31,175,37,19,16,061,25,21,11,057,33,7*72
$GAGSV,3,3,10,12,10,164,29,34,08,326,33,7*70
$GBGSV,3,1,12,58,81,091,,32,76,312,36,41,41,082,31,25,32,070,30,1*74
$GBGSV,3,2,12,30,29,241,30,23,28,131,33,29,25,303,30,20,22,275,30,1*7E
$GBGSV,3,3,12,40,15,306,,27,07,196,24,07,04,315,16,24,04,025,25,1*7B
$GNRMC,183337.000,A,4910.428570,N,12304.403904,W,0.02,0.00,091024,,,D,V*12
$GNVTG,0.00,T,,M,0.02,N,0.03,K,D*27
$GNGGA,183338.000,4910.428558,N,12304.403934,W,2,36,0.42,1.035,M,-16.816,M,,*47
$GNGLL,4910.428558,N,12304.403934,W,183338.000,A,D*55
$GNGSA,A,3,28,02,21,31,32,03,10,17,25,04,12,19,0.75,0.42,0.62,1*05
$GNGSA,A,3,65,81,88,75,74,,,,,,,,0.75,0.42,0.62,2*09
$GNGSA,A,3,06,04,11,36,09,10,19,21,12,34,,,0.75,0.42,0.62,3*03
$GNGSA,A,3,32,41,25,30,23,29,20,40,27,,,,0.75,0.42,0.62,4*0D
$GPGSV,4,1,13,28,58,106,42,02,54,248,43,21,49,218,43,31,42,163,42,1*6B
$GPGSV,4,2,13,32,39,064,43,03,37,298,40,44,33,171,39,10,15,112,38,1*6F
$GPGSV,4,3,13,17,13,314,36,25,12,065,33,04,11,244,30,12,06,030,32,1*63
$GPGSV,4,4,13,19,05,338,36,1*56
$GLGSV,2,1,07,65,69,005,35,81,45,296,34,66,37,278,,88,36,219,33,1*77
$GLGSV,2,2,07,75,29,108,35,74,28,046,33,72,22,069,,1*48
$GAGSV,3,1,10,06,76,244,43,04,75,059,43,11,53,199,37,36,51,294,40,7*76
$GAGSV,3,2,10,09,51,244,40,10,31,175,37,19,16,061,25,21,11,057,33,7*72
$GAGSV,3,3,10,12,10,164,29,34,08,326,33,7*70
$GBGSV,3,1,12,58,81,091,,32,76,312,36,41,41,082,31,25,32,070,30,1*74
$GBGSV,3,2,12,30,29,241,29,23,28,131,33,29,25,303,30,20,22,275,30,1*76
$GBGSV,3,3,12,40,15,306,23,27,07,196,24,07,04,315,16,24,04,025,25,1*7A
$GNRMC,183338.000,A,4910.428558,N,12304.403934,W,0.02,0.00,091024,,,D,V*14
$GNVTG,0.00,T,,M,0.02,N,0.03,K,D*27
$GNGGA,183339.000,4910.428558,N,12304.403910,W,2,36,0.42,1.128,M,-16.816,M,,*4D
$GNGLL,4910.428558,N,12304.403910,W,183339.000,A,D*52
$GNGSA,A,3,28,02,21,31,32,03,10,17,25,04,12,19,0.75,0.42,0.62,1*05
$GNGSA,A,3,65,81,88,75,74,,,,,,,,0.75,0.42,0.62,2*09
$GNGSA,A,3,06,04,11,36,09,10,19,21,12,34,,,0.75,0.42,0.62,3*03
$GNGSA,A,3,32,41,25,30,23,29,20,40,27,,,,0.75,0.42,0.62,4*0D
$GPGSV,4,1,13,28,58,106,42,02,54,248,43,21,49,218,43,31,42,163,42,1*6B
$GPGSV,4,2,13,32,39,064,43,03,37,298,40,44,33,171,39,10,15,112,38,1*6F
$GPGSV,4,3,13,17,13,314,36,25,12,065,33,04,11,244,30,12,06,030,32,1*63
$GPGSV,4,4,13,19,05,338,36,1*56
$GLGSV,2,1,07,65,69,005,35,81,45,296,34,66,37,278,,88,36,219,33,1*77
$GLGSV,2,2,07,75,29,108,35,74,28,046,33,72,22,069,,1*48
$GAGSV,3,1,10,06,76,244,43,04,75,059,43,11,53,199,37,36,51,294,40,7*76
$GAGSV,3,2,10,09,51,244,40,10,31,175,37,19,16,061,25,21,11,057,33,7*72
$GAGSV,3,3,10,12,10,164,29,34,08,326,33,7*70
$GBGSV,3,1,12,58,81,091,,32,76,312,37,41,41,082,31,25,32,070,31,1*74
$GBGSV,3,2,12,30,29,241,30,23,28,131,34,29,25,303,31,20,22,275,30,1*78
$GBGSV,3,3,12,40,15,306,23,27,07,196,25,07,04,315,16,24,04,025,25,1*7B
$GNRMC,183339.000,A,4910.428558,N,12304.403910,W,0.02,0.00,091024,,,D,V*13
$GNVTG,0.00,T,,M,0.02,N,0.03,K,D*27
$GNGGA,183340.000,4910.428624,N,12304.403886,W,2,35,0.43,1.172,M,-16.816,M,,*48
$GNGLL,4910.428624,N,12304.403886,W,183340.000,A,D*5A
$GNGSA,A,3,28,02,21,31,32,03,10,17,25,04,12,19,0.76,0.43,0.63,1*06
$GNGSA,A,3,65,81,88,75,74,,,,,,,,0.76,0.43,0.63,2*0A
$GNGSA,A,3,06,04,11,36,09,10,19,21,12,34,,,0.76,0.43,0.63,3*00
$GNGSA,A,3,32,41,25,30,23,29,20,27,,,,,0.76,0.43,0.63,4*0A
$GPGSV,4,1,13,28,58,106,42,02,54,248,43,21,49,218,43,31,42,163,42,1*6B
$GPGSV,4,2,13,32,39,064,43,03,37,298,40,44,33,171,38,10,15,112,38,1*6E
$GPGSV,4,3,13,17,13,314,36,25,12,065,32,04,11,244,30,12,06,030,31,1*61
$GPGSV,4,4,13,19,05,338,36,1*56
$GLGSV,2,1,07,65,69,005,35,81,45,296,34,66,37,278,,88,36,219,33,1*77
$GLGSV,2,2,07,75,29,108,35,74,28,046,33,72,22,069,,1*48
$GAGSV,3,1,10,06,76,244,43,04,75,059,43,11,53,199,37,36,51,294,40,7*76
$GAGSV,3,2,10,09,51,244,40,10,31,175,37,19,16,061,25,21,11,057,33,7*72
$GAGSV,3,3,10,12,10,164,29,34,08,326,33,7*70
$GBGSV,3,1,12,58,81,091,,32,76,312,37,41,41,082,31,25,32,070,31,1*74
$GBGSV,3,2,12,30,29,241,31,23,28,131,34,29,25,303,31,20,22,275,30,1*79
$GBGSV,3,3,12,40,15,306,,27,07,196,24,07,04,315,16,24,04,025,26,1*78
$GNRMC,183340.000,A,4910.428624,N,12304.403886,W,0.02,0.00,091024,,,D,V*1B
$GNVTG,0.00,T,,M,0.02,N,0.03,K,D*27
$GNGGA,183341.000,4910.428696,N,12304.403904,W,2,35,0.43,1.273,M,-16.817,M,,*48
$GNGLL,4910.428696,N,12304.403904,W,183341.000,A,D*59
$GNGSA,A,3,28,02,21,31,32,03,10,17,25,04,12,19,0.76,0.43,0.63,1*06
$GNGSA,A,3,65,81,88,75,74,,,,,,,,0.76,0.43,0.63,2*0A
$GNGSA,A,3,06,04,11,36,09,10,19,21,12,34,,,0.76,0.43,0.63,3*00
$GNGSA,A,3,32,41,25,30,23,29,20,27,,,,,0.76,0.43,0.63,4*0A
$GPGSV,4,1,13,28,58,106,42,02,54,248,43,21,49,218,43,31,42,163,42,1*6B
$GPGSV,4,2,13,32,39,064,43,03,37,298,40,44,33,171,38,10,15,112,38,1*6E
$GPGSV,4,3,13,17,13,314,36,25,12,065,31,04,11,244,30,12,06,030,31,1*62
$GPGSV,4,4,13,19,05,338,36,1*56
$GLGSV,2,1,07,65,69,005,35,81,45,296,34,66,37,278,,88,36,219,33,1*77
$GLGSV,2,2,07,75,29,108,35,74,28,046,33,72,22,069,,1*48
$GAGSV,3,1,10,06,76,244,43,04,75,059,43,11,53,199,37,36,51,294,40,7*76
$GAGSV,3,2,10,09,51,244,40,10,31,175,37,19,16,061,25,21,11,057,33,7*72
$GAGSV,3,3,10,12,10,164,29,34,08,326,33,7*70
$GBGSV,3,1,12,58,81,091,,32,76,312,37,41,41,082,31,25,32,070,31,1*74
$GBGSV,3,2,12,30,29,241,31,23,28,131,34,29,25,303,31,20,22,275,30,1*79
$GBGSV,3,3,12,40,15,306,,27,07,196,26,07,04,315,16,24,04,025,25,1*79
$GNRMC,183341.000,A,4910.428696,N,12304.403904,W,0.01,0.00,091024,,,D,V*1B
$GNVTG,0.00,T,,M,0.01,N,0.03,K,D*24
$GNGGA,183342.000,4910.428756,N,12304.403898,W,2,35,0.43,1.323,M,-16.816,M,,*47
$GNGLL,4910.428756,N,12304.403898,W,183342.000,A,D*53
$GNGSA,A,3,28,02,21,31,32,03,10,17,25,04,12,19,0.76,0.43,0.63,1*06
$GNGSA,A,3,65,81,88,75,74,,,,,,,,0.76,0.43,0.63,2*0A
$GNGSA,A,3,06,04,11,36,09,10,19,21,12,34,,,0.76,0.43,0.63,3*00
$GNGSA,A,3,32,41,25,30,23,29,20,27,,,,,0.76,0.43,0.63,4*0A
$GPGSV,4,1,13,28,58,106,42,02,54,248,43,21,49,218,43,31,42,163,42,1*6B
$GPGSV,4,2,13,32,39,064,43,03,37,298,40,44,33,171,38,10,15,112,38,1*6E
$GPGSV,4,3,13,17,13,314,36,25,12,065,31,04,11,244,30,12,06,030,31,1*62
$GPGSV,4,4,13,19,05,338,36,1*56
$GLGSV,2,1,07,65,69,005,35,81,45,296,33,66,37,278,,88,36,219,33,1*70
$GLGSV,2,2,07,75,29,108,35,74,28,046,33,72,22,069,,1*48
$GAGSV,3,1,10,06,76,244,43,04,75,059,43,11,53,199,37,36,51,294,40,7*76
$GAGSV,3,2,10,09,51,244,40,10,31,175,37,19,16,061,25,21,11,057,33,7*72
$GAGSV,3,3,10,12,10,164,29,34,08,326,33,7*70
$GBGSV,3,1,12,58,81,091,,32,76,312,37,41,41,082,31,25,32,070,31,1*74
$GBGSV,3,2,12,30,29,241,30,23,28,131,34,29,25,303,31,20,22,275,30,1*78
$GBGSV,3,3,12,40,15,306,,27,07,196,25,07,04,315,16,24,04,025,25,1*7A
$GNRMC,183342.000,A,4910.428756,N,12304.403898,W,0.01,0.00,091024,,,D,V*11
$GNVTG,0.00,T,,M,0.01,N,0.03,K,D*24
$GNGGA,183343.000,4910.428804,N,12304.403868,W,2,35,0.43,1.380,M,-16.817,M,,*49
$GNGLL,4910.428804,N,12304.403868,W,183343.000,A,D*55
$GNGSA,A,3,28,02,21,31,32,03,10,17,25,04,12,19,0.76,0.43,0.63,1*06
$GNGSA,A,3,65,81,88,75,74,,,,,,,,0.76,0.43,0.63,2*0A
$GNGSA,A,3,06,04,11,36,09,10,19,21,12,34,,,0.76,0.43,0.63,3*00
$GNGSA,A,3,32,41,25,30,23,29,20,27,,,,,0.76,0.43,0.63,4*0A
$GPGSV,4,1,13,28,58,106,42,02,54,248,43,21,49,218,43,31,42,163,42,1*6B
$GPGSV,4,2,13,32,39,064,43,03,37,298,40,44,33,171,38,10,15,112,38,1*6E
$GPGSV,4,3,13,17,13,314,36,25,12,065,31,04,11,244,30,12,06,030,31,1*62
$GPGSV,4,4,13,19,05,338,36,1*56
$GLGSV,2,1,07,65,69,005,35,81,45,296,33,66,37,278,,88,36,219,33,1*70
$GLGSV,2,2,07,75,29,108,35,74,28,046,34,72,22,069,,1*4F
$GAGSV,3,1,10,06,76,244,43,04,75,059,43,11,53,199,37,36,51,294,40,7*76
$GAGSV,3,2,10,09,51,244,40,10,31,175,37,19,16,062,25,21,11,057,33,7*71
$GAGSV,3,3,10,12,10,164,29,34,08,326,33,7*70
$GBGSV,3,1,12,58,81,091,,32,76,312,37,41,41,082,31,25,32,070,31,1*74
$GBGSV,3,2,12,30,29,241,28,23,28,131,33,29,25,303,30,20,22,275,30,1*77
$GBGSV,3,3,12,40,15,306,,27,07,196,22,07,04,315,16,24,04,025,26,1*7E
$GNRMC,183343.000,A,4910.428804,N,12304.403868,W,0.02,0.00,091024,,,D,V*14
$GNVTG,0.00,T,,M,0.02,N,0.03,K,D*27
$PAIR010,0,1,2335,326041*3F
$GNGGA,183344.000,4910.428846,N,12304.403820,W,2,35,0.43,1.427,M,-16.817,M,,*4E
$GNGLL,4910.428846,N,12304.403820,W,183344.000,A,D*58
$GNGSA,A,3,28,02,21,31,32,03,10,17,25,04,12,19,0.76,0.43,0.63,1*06
$GNGSA,A,3,65,81,88,75,74,,,,,,,,0.76,0.43,0.63,2*0A
$GNGSA,A,3,06,04,11,36,09,10,19,21,12,34,,,0.76,0.43,0.63,3*00
$GNGSA,A,3,32,41,25,30,23,29,20,27,,,,,0.76,0.43,0.63,4*0A
$GPGSV,4,1,13,28,58,106,42,02,54,248,43,21,49,218,43,31,42,163,42,1*6B
$GPGSV,4,2,13,32,39,064,43,03,37,298,40,44,33,171,38,10,15,112,38,1*6E
$GPGSV,4,3,13,17,13,314,36,25,12,065,30,04,11,244,31,12,06,030,31,1*62
$GPGSV,4,4,13,19,05,338,36,1*56
$GLGSV,2,1,07,65,69,005,35,81,45,296,33,66,37,278,,88,36,219,33,1*70
$GLGSV,2,2,07,75,29,108,35,74,28,046,34,72,22,069,,1*4F
$GAGSV,3,1,10,06,76,244,43,04,75,059,43,11,53,199,37,36,51,294,40,7*76
$GAGSV,3,2,10,09,51,244,40,10,31,175,37,19,16,062,25,21,11,057,33,7*71
$GAGSV,3,3,10,12,10,164,29,34,08,326,33,7*70
$GBGSV,3,1,12,58,81,091,,32,76,312,37,41,41,082,31,25,32,070,32,1*77
$GBGSV,3,2,12,30,29,241,30,23,28,131,34,29,25,303,30,20,22,275,30,1*79
$GBGSV,3,3,12,40,15,306,,27,07,196,25,07,04,315,16,24,04,025,27,1*78
$GNRMC,183344.000,A,4910.428846,N,12304.403820,W,0.01,0.00,091024,,,D,V*1A
$GNVTG,0.00,T,,M,0.01,N,0.03,K,D*24
$GNGGA,183345.000,4910.428870,N,12304.403736,W,2,35,0.43,1.473,M,-16.816,M,,*42
$GNGLL,4910.428870,N,12304.403736,W,183345.000,A,D*54
$GNGSA,A,3,28,02,21,31,32,03,10,17,25,04,12,19,0.76,0.43,0.63,1*06
$GNGSA,A,3,65,81,88,75,74,,,,,,,,0.76,0.43,0.63,2*0A
$GNGSA,A,3,06,04,11,36,09,10,19,21,12,34,,,0.76,0.43,0.63,3*00
$GNGSA,A,3,32,41,25,30,23,29,20,27,,,,,0.76,0.43,0.63,4*0A
$GPGSV,4,1,13,28,58,106,42,02,54,248,43,21,49,218,43,31,42,163,42,1*6B
$GPGSV,4,2,13,32,39,064,43,03,37,298,40,44,33,171,38,10,15,112,38,1*6E
$GPGSV,4,3,13,17,13,314,36,25,12,065,29,04,11,244,31,12,06,030,31,1*6A
$GPGSV,4,4,13,19,05,338,36,1*56
$GLGSV,2,1,07,65,69,005,35,81,45,296,32,66,37,278,,88,36,219,33,1*71
$GLGSV,2,2,07,75,29,108,35,74,28,046,34,72,22,069,,1*4F
$GAGSV,3,1,10,06,76,244,43,04,75,059,43,11,53,199,37,36,51,294,40,7*76
$GAGSV,3,2,10,09,51,244,40,10,31,175,37,19,16,062,25,21,12,056,33,7*73
$GAGSV,3,3,10,12,10,164,29,34,08,326,33,7*70
$GBGSV,3,1,12,58,81,091,,32,76,312,37,41,41,082,32,25,32,070,32,1*74
$GBGSV,3,2,12,30,29,241,30,23,28,131,34,29,25,303,30,20,22,275,30,1*79
$GBGSV,3,3,12,40,15,306,,27,07,196,25,07,04,315,16,24,04,025,27,1*78
$GNRMC,183345.000,A,4910.428870,N,12304.403736,W,0.01,0.00,091024,,,D,V*16
$GNVTG,0.00,T,,M,0.01,N,0.02,K,D*25
$GNGGA,183346.000,4910.428888,N,12304.403718,W,2,35,0.43,1.471,M,-16.816,M,,*48
$GNGLL,4910.428888,N,12304.403718,W,183346.000,A,D*5C
$GNGSA,A,3,28,02,21,31,32,03,10,17,25,04,12,19,0.76,0.43,0.63,1*06
$GNGSA,A,3,65,81,88,75,74,,,,,,,,0.76,0.43,0.63,2*0A
$GNGSA,A,3,06,04,11,36,09,10,19,21,12,34,,,0.76,0.43,0.63,3*00
$GNGSA,A,3,32,41,25,30,23,29,20,27,,,,,0.76,0.43,0.63,4*0A
$GPGSV,4,1,13,28,58,106,42,02,54,248,43,21,49,218,43,31,42,163,42,1*6B
$GPGSV,4,2,13,32,39,064,43,03,37,298,40,44,33,171,39,10,15,112,38,1*6F
$GPGSV,4,3,13,17,13,314,36,25,12,065,29,04,11,244,31,12,06,030,31,1*6A
$GPGSV,4,4,13,19,05,338,36,1*56
$GLGSV,2,1,07,65,69,005,35,81,45,296,32,66,37,278,,88,36,219,33,1*71
$GLGSV,2,2,07,75,29,108,35,74,28,046,34,72,22,069,,1*4F
$GAGSV,3,1,10,06,76,244,43,04,75,059,43,11,53,199,37,36,51,294,40,7*76
$GAGSV,3,2,10,09,51,244,40,10,31,175,37,19,16,062,25,21,12,056,33,7*73
$GAGSV,3,3,10,12,10,164,29,34,08,326,33,7*70
$GBGSV,3,1,12,58,81,091,,32,76,312,36,41,41,082,30,25,32,070,31,1*74
$GBGSV,3,2,12,30,29,241,25,23,28,131,33,29,25,303,29,20,22,275,29,1*7A
$GBGSV,3,3,12,40,15,306,,27,07,196,20,07,04,315,16,24,04,025,26,1*7C
$GNRMC,183346.000,A,4910.428888,N,12304.403718,W,0.01,0.00,091024,,,D,V*1E
$GNVTG,0.00,T,,M,0.01,N,0.02,K,D*25
$GNGGA,183347.000,4910.428924,N,12304.403718,W,2,35,0.43,1.436,M,-16.816,M,,*4D
$GNGLL,4910.428924,N,12304.403718,W,183347.000,A,D*5A
$GNGSA,A,3,28,02,21,31,32,03,10,17,25,04,12,19,0.76,0.43,0.63,1*06
$GNGSA,A,3,65,81,88,75,74,,,,,,,,0.76,0.43,0.63,2*0A
$GNGSA,A,3,06,04,11,36,09,10,19,21,12,34,,,0.76,0.43,0.63,3*00
$GNGSA,A,3,32,41,25,30,23,29,20,27,,,,,0.76,0.43,0.63,4*0A
$GPGSV,4,1,13,28,58,106,42,02,54,248,43,21,49,218,43,31,42,163,42,1*6B
$GPGSV,4,2,13,32,39,064,43,03,37,298,40,44,33,171,39,10,15,112,38,1*6F
$GPGSV,4,3,13,17,13,314,36,25,12,065,29,04,11,244,31,12,06,030,31,1*6A
$GPGSV,4,4,13,19,05,338,36,1*56
$GLGSV,2,1,07,65,69,005,34,81,45,296,32,66,37,278,,88,36,219,32,1*71
$GLGSV,2,2,07,75,29,108,35,74,28,046,34,72,22,069,,1*4F
$GAGSV,3,1,10,06,76,244,43,04,75,059,43,11,53,199,37,36,51,294,40,7*76
$GAGSV,3,2,10,09,51,244,40,10,31,175,37,19,16,062,25,21,12,056,33,7*73
$GAGSV,3,3,10,12,10,164,29,34,08,326,33,7*70
$GBGSV,3,1,12,58,81,091,,32,76,312,36,41,41,082,29,25,32,070,30,1*7D
$GBGSV,3,2,12,30,29,241,26,23,28,131,32,29,25,303,28,20,22,275,28,1*78
$GBGSV,3,3,12,40,15,306,,27,07,196,20,07,04,315,15,24,04,025,24,1*7D
$GNRMC,183347.000,A,4910.428924,N,12304.403718,W,0.01,0.00,091024,,,D,V*18
$GNVTG,0.00,T,,M,0.01,N,0.02,K,D*25
$GNGGA,183348.000,4910.428924,N,12304.403700,W,2,36,0.42,1.383,M,-16.816,M,,*40
$GNGLL,4910.428924,N,12304.403700,W,183348.000,A,D*5C
$GNGSA,A,3,28,02,21,31,32,03,10,17,25,04,12,19,0.75,0.42,0.62,1*05
$GNGSA,A,3,65,81,88,75,74,,,,,,,,0.75,0.42,0.62,2*09
$GNGSA,A,3,06,04,11,36,09,10,19,21,12,34,,,0.75,0.42,0.62,3*03
$GNGSA,A,3,32,41,25,30,23,29,20,40,27,,,,0.75,0.42,0.62,4*0D
$GPGSV,4,1,13,28,58,106,42,02,54,248,43,21,49,218,43,31,42,163,42,1*6B
$GPGSV,4,2,13,32,39,064,44,03,37,298,40,44,33,171,39,10,15,112,38,1*68
$GPGSV,4,3,13,17,13,314,36,25,12,065,29,04,11,244,31,12,06,030,31,1*6A
$GPGSV,4,4,13,19,05,338,36,1*56
$GLGSV,2,1,07,65,69,005,35,81,45,296,33,66,37,278,,88,36,219,33,1*70
$GLGSV,2,2,07,75,29,108,35,74,28,046,34,72,22,069,,1*4F
$GAGSV,3,1,10,06,76,244,43,04,75,059,43,11,53,199,37,36,51,294,40,7*76
$GAGSV,3,2,10,09,51,244,40,10,31,175,37,19,16,062,25,21,12,056,33,7*73
$GAGSV,3,3,10,12,10,164,29,34,08,326,33,7*70
$GBGSV,3,1,12,58,81,091,,32,76,312,36,41,41,082,29,25,32,070,30,1*7D
$GBGSV,3,2,12,30,29,241,28,23,28,131,32,29,25,303,28,20,22,275,28,1*76
$GBGSV,3,3,12,40,15,306,23,27,07,196,20,07,04,315,15,24,04,025,24,1*7C
$GNRMC,183348.000,A,4910.428924,N,12304.403700,W,0.01,0.00,091024,,,D,V*1E
$GNVTG,0.00,T,,M,0.01,N,0.01,K,D*26
$GNGGA,183349.000,4910.428948,N,12304.403694,W,2,36,0.42,1.359,M,-16.817,M,,*41
$GNGLL,4910.428948,N,12304.403694,W,183349.000,A,D*5B
$GNGSA,A,3,28,02,21,31,32,03,10,17,25,04,12,19,0.75,0.42,0.62,1*05
$GNGSA,A,3,65,81,88,75,74,,,,,,,,0.75,0.42,0.62,2*09
$GNGSA,A,3,06,04,11,36,09,10,19,21,12,34,,,0.75,0.42,0.62,3*03
$GNGSA,A,3,32,41,25,30,23,29,20,40,27,,,,0.75,0.42,0.62,4*0D
$GPGSV,4,1,13,28,58,106,42,02,54,248,43,21,49,218,43,31,42,163,42,1*6B
$GPGSV,4,2,13,32,39,064,44,03,37,298,40,44,33,171,38,10,15,112,38,1*69
$GPGSV,4,3,13,17,13,314,36,25,12,065,29,04,11,244,31,12,06,030,31,1*6A
$GPGSV,4,4,13,19,05,338,36,1*56
$GLGSV,2,1,06,65,69,005,35,81,45,296,32,66,37,278,,88,36,219,33,1*70
$GLGSV,2,2,06,75,29,108,35,74,28,046,34,1*74
$GAGSV,3,1,10,06,76,244,43,04,75,059,43,11,53,199,37,36,51,294,40,7*76
$GAGSV,3,2,10,09,51,244,40,10,31,175,37,19,16,062,25,21,12,056,33,7*73
$GAGSV,3,3,10,12,10,164,29,34,08,326,33,7*70
$GBGSV,3,1,12,58,81,091,,32,76,312,36,41,41,082,30,25,32,070,30,1*75
$GBGSV,3,2,12,30,29,241,29,23,28,131,32,29,25,303,29,20,22,275,28,1*76
$GBGSV,3,3,12,40,15,306,23,27,07,196,23,07,04,315,16,24,04,025,26,1*7E
$GNRMC,183349.000,A,4910.428948,N,12304.403694,W,0.01,0.00,091024,,,D,V*19
$GNVTG,0.00,T,,M,0.01,N,0.01,K,D*26
$GNGGA,183350.000,4910.428972,N,12304.403682,W,2,36,0.42,1.308,M,-16.816,M,,*42
$GNGLL,4910.428972,N,12304.403682,W,183350.000,A,D*5D
$GNGSA,A,3,28,02,21,31,32,03,10,17,25,04,12,19,0.75,0.42,0.62,1*05
$GNGSA,A,3,65,81,88,75,74,,,,,,,,0.75,0.42,0.62,2*09
$GNGSA,A,3,06,04,11,36,09,10,19,21,12,34,,,0.75,0.42,0.62,3*03
$GNGSA,A,3,32,41,25,30,23,29,20,40,27,,,,0.75,0.42,0.62,4*0D
$GPGSV,4,1,13,28,58,106,42,02,54,248,43,21,49,218,43,31,42,163,43,1*6A
$GPGSV,4,2,13,32,39,064,44,03,37,298,40,44,33,171,38,10,15,112,38,1*69
$GPGSV,4,3,13,17,13,314,36,25,12,065,29,04,11,244,32,12,06,030,32,1*6A
$GPGSV,4,4,13,19,05,338,36,1*56
$GLGSV,2,1,07,65,69,005,35,81,45,296,32,66,37,278,,88,36,219,33,1*71
$GLGSV,2,2,07,75,29,108,35,74,28,046,34,72,22,069,,1*4F
$GAGSV,3,1,10,06,76,244,43,04,75,059,43,11,53,199,37,36,51,294,40,7*76
$GAGSV,3,2,10,09,51,244,40,10,31,175,37,19,16,062,25,21,12,056,33,7*73
$GAGSV,3,3,10,12,10,164,29,34,08,326,33,7*70
$GBGSV,3,1,12,58,81,091,,32,76,312,36,41,41,082,30,25,32,070,30,1*75
$GBGSV,3,2,12,30,29,241,29,23,28,131,32,29,25,303,28,20,22,275,28,1*77
$GBGSV,3,3,12,40,15,306,24,27,07,196,21,07,04,315,16,24,04,025,27,1*7A
$GNRMC,183350.000,A,4910.428972,N,12304.403682,W,0.01,0.00,091024,,,D,V*1F
$GNVTG,0.00,T,,M,0.01,N,0.02,K,D*25
$GNGGA,183351.000,4910.428996,N,12304.403676,W,2,36,0.42,1.297,M,-16.816,M,,*45
$GNGLL,4910.428996,N,12304.403676,W,183351.000,A,D*5D
$GNGSA,A,3,28,02,21,31,32,03,10,17,25,04,12,19,0.75,0.42,0.62,1*05
$GNGSA,A,3,65,81,88,75,74,,,,,,,,0.75,0.42,0.62,2*09
$GNGSA,A,3,06,04,11,36,09,10,19,21,12,34,,,0.75,0.42,0.62,3*03
$GNGSA,A,3,32,41,25,30,23,29,20,40,27,,,,0.75,0.42,0.62,4*0D
$GPGSV,4,1,13,28,58,106,42,02,54,248,43,21,49,218,43,31,42,163,43,1*6A
$GPGSV,4,2,13,32,39,064,44,03,37,298,40,44,33,171,39,10,15,112,38,1*68
$GPGSV,4,3,13,17,13,314,36,25,12,065,29,04,11,244,32,12,06,030,32,1*6A
$GPGSV,4,4,13,19,05,338,36,1*56
$GLGSV,2,1,07,65,69,005,35,81,45,296,32,66,37,278,,88,36,219,33,1*71
$GLGSV,2,2,07,75,29,108,35,74,28,046,34,72,22,069,,1*4F
$GAGSV,3,1,10,06,76,244,43,04,75,059,43,11,53,199,37,36,51,294,40,7*76
$GAGSV,3,2,10,09,51,244,40,10,31,175,37,19,16,062,25,21,12,056,33,7*73
$GAGSV,3,3,10,12,10,164,29,34,08,326,33,7*70
$GBGSV,3,1,12,58,81,091,,32,76,312,36,41,41,082,31,25,32,070,30,1*74
$GBGSV,3,2,12,30,29,241,29,23,28,131,32,29,25,303,29,20,22,275,28,1*76
$GBGSV,3,3,12,40,15,306,23,27,07,196,22,07,04,315,16,24,04,025,26,1*7F
$GNRMC,183351.000,A,4910.428996,N,12304.403676,W,0.01,0.00,091024,,,D,V*1F
$GNVTG,0.00,T,,M,0.01,N,0.01,K,D*26
$GNGGA,183352.000,4910.429020,N,12304.403664,W,2,36,0.42,1.320,M,-16.816,M,,*4D
$GNGLL,4910.429020,N,12304.403664,W,183352.000,A,D*58
$GNGSA,A,3,28,02,21,31,32,03,10,17,25,04,12,19,0.75,0.42,0.62,1*05
$GNGSA,A,3,65,81,88,75,74,,,,,,,,0.75,0.42,0.62,2*09
$GNGSA,A,3,06,04,11,36,09,10,19,21,12,34,,,0.75,0.42,0.62,3*03
$GNGSA,A,3,32,41,25,30,23,29,20,40,27,,,,0.75,0.42,0.62,4*0D
$GPGSV,4,1,13,28,58,106,41,02,54,248,43,21,49,218,42,31,42,163,43,1*68
$GPGSV,4,2,13,32,39,064,44,03,37,298,40,44,33,171,39,10,15,112,38,1*68
$GPGSV,4,3,13,17,13,314,36,25,12,065,29,04,11,244,32,12,06,030,32,1*6A
$GPGSV,4,4,13,19,05,338,36,1*56
$GLGSV,2,1,07,65,69,005,34,81,45,296,32,66,37,278,,88,36,219,32,1*71
$GLGSV,2,2,07,75,29,108,35,74,28,046,34,72,22,069,,1*4F
$GAGSV,3,1,10,06,76,244,43,04,75,059,43,11,53,199,37,36,51,294,40,7*76
$GAGSV,3,2,10,09,51,244,39,10,31,175,37,19,16,062,25,21,12,056,33,7*7D
$GAGSV,3,3,10,12,10,164,29,34,08,326,33,7*70
$GBGSV,3,1,12,58,81,091,,32,76,312,36,41,41,082,31,25,32,070,30,1*74
$GBGSV,3,2,12,30,29,241,30,23,28,131,33,29,25,303,29,20,22,275,28,1*7F
$GBGSV,3,3,12,40,15,306,23,27,07,196,22,07,04,315,16,24,04,025,28,1*71
$GNRMC,183352.000,A,4910.429020,N,12304.403664,W,0.01,0.00,091024,,,D,V*1A
$GNVTG,0.00,T,,M,0.01,N,0.01,K,D*26
$GNGGA,183353.000,4910.429032,N,12304.403694,W,2,36,0.42,1.328,M,-16.817,M,,*49
$GNGLL,4910.429032,N,12304.403694,W,183353.000,A,D*55
$GNGSA,A,3,28,02,21,31,32,03,10,17,25,04,12,19,0.75,0.42,0.62,1*05
$GNGSA,A,3,65,81,88,75,74,,,,,,,,0.75,0.42,0.62,2*09
$GNGSA,A,3,06,04,11,36,09,10,19,21,12,34,,,0.75,0.42,0.62,3*03
$GNGSA,A,3,32,41,25,30,23,29,20,40,27,,,,0.75,0.42,0.62,4*0D
$GPGSV,4,1,13,28,58,106,41,02,54,248,43,21,49,218,42,31,42,163,43,1*68
$GPGSV,4,2,13,32,39,064,44,03,37,298,40,44,33,171,39,10,15,112,38,1*68
$GPGSV,4,3,13,17,13,314,36,25,12,065,29,04,11,244,32,12,06,030,32,1*6A
$GPGSV,4,4,13,19,05,338,36,1*56
$GLGSV,2,1,07,65,69,005,34,81,45,296,32,66,37,278,,88,36,219,32,1*71
$GLGSV,2,2,07,75,29,108,35,74,28,046,33,72,22,069,,1*48
$GAGSV,3,1,10,06,76,244,43,04,75,059,43,11,53,199,37,36,51,294,40,7*76
$GAGSV,3,2,10,09,51,244,39,10,31,175,37,19,16,062,25,21,12,056,33,7*7D
$GAGSV,3,3,10,12,10,164,29,34,08,326,33,7*70
$GBGSV,3,1,12,58,81,091,,32,76,312,36,41,41,082,31,25,32,070,30,1*74
$GBGSV,3,2,12,30,29,241,30,23,28,131,33,29,25,303,29,20,22,275,28,1*7F
$GBGSV,3,3,12,40,15,306,22,27,07,196,23,07,04,315,16,24,04,025,27,1*7E
$GNRMC,183353.000,A,4910.429032,N,12304.403694,W,0.01,0.00,091024,,,D,V*17
$GNVTG,0.00,T,,M,0.01,N,0.02,K,D*25
$GNGGA,183354.000,4910.429092,N,12304.403808,W,2,36,0.42,1.310,M,-16.816,M,,*45
$GNGLL,4910.429092,N,12304.403808,W,183354.000,A,D*53
$GNGSA,A,3,28,02,21,31,32,03,10,17,25,04,12,19,0.75,0.42,0.62,1*05
$GNGSA,A,3,65,81,88,75,74,,,,,,,,0.75,0.42,0.62,2*09
$GNGSA,A,3,06,04,11,36,09,10,19,21,12,34,,,0.75,0.42,0.62,3*03
$GNGSA,A,3,32,41,25,30,23,29,20,40,27,,,,0.75,0.42,0.62,4*0D
$GPGSV,4,1,13,28,58,106,41,02,54,248,43,21,49,218,42,31,42,163,43,1*68
$GPGSV,4,2,13,32,39,064,44,03,37,298,40,44,33,171,39,10,15,112,38,1*68
$GPGSV,4,3,13,17,13,314,36,25,12,065,30,04,11,244,32,12,06,030,32,1*62
$GPGSV,4,4,13,19,05,338,36,1*56
$GLGSV,2,1,07,65,69,005,34,81,45,296,32,66,37,278,,88,36,219,32,1*71
$GLGSV,2,2,07,75,29,108,35,74,28,046,33,72,22,069,,1*48
$GAGSV,3,1,10,06,76,244,43,04,75,059,43,11,53,199,37,36,51,294,40,7*76
$GAGSV,3,2,10,09,51,244,39,10,31,175,37,19,16,062,25,21,12,056,33,7*7D
$GAGSV,3,3,10,12,10,164,29,34,08,326,32,7*71
$GBGSV,3,1,12,58,81,091,,32,76,312,37,41,41,082,32,25,32,070,31,1*77
$GBGSV,3,2,12,30,29,241,30,23,28,131,34,29,25,303,30,20,22,275,28,1*70
$GBGSV,3,3,12,40,15,306,23,27,07,196,24,07,04,315,16,24,04,025,30,1*7E
$GNRMC,183354.000,A,4910.429092,N,12304.403808,W,0.01,0.00,091024,,,D,V*11
$GNVTG,0.00,T,,M,0.01,N,0.02,K,D*25
$GNGGA,183355.000,4910.429164,N,12304.403952,W,2,35,0.43,1.252,M,-16.816,M,,*47
$GNGLL,4910.429164,N,12304.403952,W,183355.000,A,D*54
$GNGSA,A,3,28,02,21,31,32,03,10,17,25,04,12,19,0.76,0.43,0.63,1*06
$GNGSA,A,3,65,81,88,75,74,,,,,,,,0.76,0.43,0.63,2*0A
$GNGSA,A,3,06,04,11,36,09,10,19,21,12,34,,,0.76,0.43,0.63,3*00
$GNGSA,A,3,32,41,25,30,23,29,20,27,,,,,0.76,0.43,0.63,4*0A
$GPGSV,4,1,13,28,58,106,41,02,54,248,43,21,49,218,42,31,42,163,43,1*68
$GPGSV,4,2,13,32,39,064,44,03,37,298,40,44,33,171,39,10,15,112,38,1*68
$GPGSV,4,3,13,17,13,314,36,25,12,065,30,04,11,244,32,12,06,030,32,1*62
$GPGSV,4,4,13,19,05,338,36,1*56
$GLGSV,2,1,07,65,69,005,34,81,45,296,31,66,37,278,,88,36,219,32,1*72
$GLGSV,2,2,07,75,29,108,35,74,28,046,33,72,22,069,,1*48
$GAGSV,3,1,10,06,76,244,43,04,75,059,43,11,53,199,37,36,51,294,40,7*76
$GAGSV,3,2,10,09,51,244,39,10,31,175,37,19,16,062,25,21,12,056,33,7*7D
$GAGSV,3,3,10,12,10,164,29,34,08,326,32,7*71
$GBGSV,3,1,12,58,81,091,,32,76,312,37,41,41,082,32,25,32,070,32,1*74
$GBGSV,3,2,12,30,29,241,30,23,28,131,34,29,25,303,30,20,22,275,29,1*71
$GBGSV,3,3,12,40,15,306,,27,07,196,24,07,04,315,16,24,04,025,28,1*76
$GNRMC,183355.000,A,4910.429164,N,12304.403952,W,0.01,0.00,091024,,,D,V*16
$GNVTG,0.00,T,,M,0.01,N,0.03,K,D*24
$GNGGA,183356.000,4910.429266,N,12304.404030,W,2,35,0.43,1.238,M,-16.816,M,,*43
$GNGLL,4910.429266,N,12304.404030,W,183356.000,A,D*5C
$GNGSA,A,3,28,02,21,31,32,03,10,17,25,04,12,19,0.76,0.43,0.63,1*06
$GNGSA,A,3,65,81,88,75,74,,,,,,,,0.76,0.43,0.63,2*0A
$GNGSA,A,3,06,04,11,36,09,10,19,21,12,34,,,0.76,0.43,0.63,3*00
$GNGSA,A,3,32,41,25,30,23,29,20,27,,,,,0.76,0.43,0.63,4*0A
$GPGSV,4,1,13,28,58,106,41,02,54,248,43,21,49,218,42,31,42,163,43,1*68
$GPGSV,4,2,13,32,39,064,44,03,37,298,40,44,33,171,38,10,15,112,38,1*69
$GPGSV,4,3,13,17,13,314,36,25,12,065,30,04,11,244,32,12,06,030,32,1*62
$GPGSV,4,4,13,19,05,338,36,1*56
$GLGSV,2,1,07,65,69,005,34,81,45,296,31,66,37,278,,88,36,219,32,1*72
$GLGSV,2,2,07,75,29,108,35,74,28,046,33,72,22,069,,1*48
$GAGSV,3,1,10,06,76,244,43,04,75,059,43,11,53,199,37,36,51,294,40,7*76
$GAGSV,3,2,10,09,51,244,39,10,31,175,37,19,16,062,25,21,12,056,33,7*7D
$GAGSV,3,3,10,12,10,164,29,34,08,326,32,7*71
$GBGSV,3,1,12,58,81,091,,32,76,312,37,41,41,082,32,25,32,070,32,1*74
$GBGSV,3,2,12,30,29,241,31,23,28,131,34,29,25,303,30,20,22,275,29,1*70
$GBGSV,3,3,12,40,15,306,,27,07,196,23,07,04,315,16,24,04,025,29,1*70
$GNRMC,183356.000,A,4910.429266,N,12304.404030,W,0.02,0.00,091024,,,D,V*1D
$GNVTG,0.00,T,,M,0.02,N,0.04,K,D*20
$GNGGA,183357.000,4910.429374,N,12304.404078,W,2,35,0.43,1.234,M,-16.816,M,,*40
$GNGLL,4910.429374,N,12304.404078,W,183357.000,A,D*53
$GNGSA,A,3,28,02,21,31,32,03,10,17,25,04,12,19,0.76,0.43,0.63,1*06
$GNGSA,A,3,65,81,88,75,74,,,,,,,,0.76,0.43,0.63,2*0A
$GNGSA,A,3,06,04,11,36,09,10,19,21,12,34,,,0.76,0.43,0.63,3*00
$GNGSA,A,3,32,41,25,30,23,29,20,27,,,,,0.76,0.43,0.63,4*0A
$GPGSV,4,1,13,28,58,106,41,02,54,248,43,21,49,218,42,31,42,163,43,1*68
$GPGSV,4,2,13,32,39,064,44,03,37,298,40,44,33,171,38,10,15,112,38,1*69
$GPGSV,4,3,13,17,13,314,36,25,12,065,30,04,11,244,32,12,06,030,32,1*62
$GPGSV,4,4,13,19,05,338,36,1*56
$GLGSV,2,1,07,65,69,005,34,81,45,296,31,66,37,278,,88,36,219,32,1*72
$GLGSV,2,2,07,75,29,108,35,74,28,046,33,72,22,069,,1*48
$GAGSV,3,1,10,06,76,244,43,04,75,059,43,11,53,199,37,36,51,294,40,7*76
$GAGSV,3,2,10,09,51,244,39,10,31,175,37,19,16,062,25,21,12,056,33,7*7D
$GAGSV,3,3,10,12,10,164,29,34,08,326,32,7*71
$GBGSV,3,1,12,58,81,091,,32,76,312,38,41,41,082,32,25,32,070,32,1*7B
$GBGSV,3,2,12,30,29,241,31,23,28,131,34,29,25,303,30,20,22,275,30,1*78
$GBGSV,3,3,12,40,15,306,,27,07,196,23,07,04,315,16,24,04,025,29,1*70
$GNRMC,183357.000,A,4910.429374,N,12304.404078,W,0.02,0.00,091024,,,D,V*12
$GNVTG,0.00,T,,M,0.02,N,0.04,K,D*20
$GNGGA,183358.000,4910.429464,N,12304.404120,W,2,35,0.43,1.168,M,-16.816,M,,*4F
$GNGLL,4910.429464,N,12304.404120,W,183358.000,A,D*56
$GNGSA,A,3,28,02,21,31,32,03,10,17,25,04,12,19,0.76,0.43,0.63,1*06
$GNGSA,A,3,65,81,88,75,74,,,,,,,,0.76,0.43,0.63,2*0A
$GNGSA,A,3,06,04,11,36,09,10,19,21,12,34,,,0.76,0.43,0.63,3*00
$GNGSA,A,3,32,41,25,30,23,29,20,27,,,,,0.76,0.43,0.63,4*0A
$GPGSV,4,1,13,28,58,106,41,02,54,248,43,21,49,218,42,31,42,163,43,1*68
$GPGSV,4,2,13,32,39,064,44,03,37,298,40,44,33,171,39,10,15,112,38,1*68
$GPGSV,4,3,13,17,13,314,36,25,12,065,30,04,11,244,33,12,06,030,32,1*63
$GPGSV,4,4,13,19,05,338,36,1*56
$GLGSV,2,1,07,65,69,005,34,81,45,296,32,66,37,278,,88,36,219,32,1*71
$GLGSV,2,2,07,75,29,108,35,74,28,046,33,72,22,069,,1*48
$GAGSV,3,1,10,06,76,244,43,04,75,059,43,11,53,199,37,36,51,294,40,7*76
$GAGSV,3,2,10,09,51,244,39,10,31,175,37,19,16,062,25,21,12,056,33,7*7D
$GAGSV,3,3,10,12,10,164,30,34,08,326,31,7*7A
$GBGSV,3,1,12,58,81,091,,32,76,312,38,41,41,082,32,25,32,070,32,1*7B
$GBGSV,3,2,12,30,29,241,31,23,28,131,34,29,25,303,30,20,22,275,30,1*78
$GBGSV,3,3,12,40,15,306,,27,07,196,24,07,04,315,16,24,04,025,28,1*76
$GNRMC,183358.000,A,4910.429464,N,12304.404120,W,0.02,0.00,091024,,,D,V*17
$GNVTG,0.00,T,,M,0.02,N,0.04,K,D*20
$GNGGA,183359.000,4910.429524,N,12304.404156,W,2,35,0.43,1.077,M,-16.816,M,,*45
$GNGLL,4910.429524,N,12304.404156,W,183359.000,A,D*53
$GNGSA,A,3,28,02,21,31,32,03,10,17,25,04,12,19,0.76,0.43,0.63,1*06
$GNGSA,A,3,65,81,88,75,74,,,,,,,,0.76,0.43,0.63,2*0A
$GNGSA,A,3,06,04,11,36,09,10,19,21,12,34,,,0.76,0.43,0.63,3*00
$GNGSA,A,3,32,41,25,30,23,29,20,27,,,,,0.76,0.43,0.63,4*0A
$GPGSV,4,1,13,28,58,106,41,02,54,248,43,21,49,218,42,31,42,163,43,1*68
$GPGSV,4,2,13,32,39,064,44,03,37,298,40,44,33,171,39,10,15,112,38,1*68
$GPGSV,4,3,13,17,13,314,36,25,12,065,30,04,11,244,33,12,06,030,32,1*63
$GPGSV,4,4,13,19,05,338,36,1*56
$GLGSV,2,1,07,65,69,005,34,81,45,296,32,66,37,278,,88,36,219,32,1*71
$GLGSV,2,2,07,75,29,108,35,74,28,046,33,72,22,069,,1*48
$GAGSV,3,1,10,06,76,244,43,04,75,059,43,11,53,199,37,36,51,294,40,7*76
$GAGSV,3,2,10,09,51,244,39,10,31,175,37,19,16,062,25,21,12,056,33,7*7D
$GAGSV,3,3,10,12,10,164,30,34,08,326,31,7*7A
$GBGSV,3,1,12,58,81,091,,32,76,312,38,41,41,082,32,25,32,070,32,1*7B
$GBGSV,3,2,12,30,29,241,31,23,28,131,34,29,25,303,30,20,22,275,30,1*78
$GBGSV,3,3,12,40,15,306,,27,07,196,25,07,04,315,16,24,04,025,29,1*76
$GNRMC,183359.000,A,4910.429524,N,12304.404156,W,0.02,0.00,091024,,,D,V*12
$GNVTG,0.00,T,,M,0.02,N,0.03,K,D*27
$GNGGA,183400.000,4910.429548,N,12304.404186,W,2,35,0.43,1.012,M,-16.817,M,,*4B
$GNGLL,4910.429548,N,12304.404186,W,183400.000,A,D*5F
$GNGSA,A,3,28,02,21,31,32,03,10,17,25,04,12,19,0.76,0.43,0.63,1*06
$GNGSA,A,3,65,81,88,75,74,,,,,,,,0.76,0.43,0.63,2*0A
$GNGSA,A,3,06,04,11,36,09,10,19,21,12,34,,,0.76,0.43,0.63,3*00
$GNGSA,A,3,32,41,25,30,23,29,20,27,,,,,0.76,0.43,0.63,4*0A
$GPGSV,4,1,13,28,58,106,41,02,54,248,43,21,49,218,42,31,42,163,43,1*68
$GPGSV,4,2,13,32,39,064,44,03,37,298,40,44,33,171,39,10,15,112,38,1*68
$GPGSV,4,3,13,17,13,314,36,25,12,065,30,04,11,244,33,12,06,030,32,1*63
$GPGSV,4,4,13,19,05,338,36,1*56
$GLGSV,2,1,07,65,69,005,34,81,45,296,32,66,37,278,,88,36,219,32,1*71
$GLGSV,2,2,07,75,29,108,35,74,28,046,33,72,22,069,,1*48
$GAGSV,3,1,10,06,76,244,43,04,75,059,43,11,53,199,37,36,51,293,40,7*71
$GAGSV,3,2,10,09,51,244,39,10,31,175,37,19,16,062,25,21,12,056,33,7*7D
$GAGSV,3,3,10,12,10,164,30,34,08,326,31,7*7A
$GBGSV,3,1,12,58,81,091,,32,76,312,38,41,41,082,32,25,32,070,32,1*7B
$GBGSV,3,2,12,30,29,241,31,23,28,131,34,29,25,303,30,20,22,275,30,1*78
$GBGSV,3,3,12,40,15,306,,27,07,196,25,07,04,315,16,24,04,025,29,1*76
$GNRMC,183400.000,A,4910.429548,N,12304.404186,W,0.02,0.00,091024,,,D,V*1E
$GNVTG,0.00,T,,M,0.02,N,0.03,K,D*27
$GNGGA,183401.000,4910.429566,N,12304.404186,W,2,35,0.43,0.913,M,-16.816,M,,*4E
$GNGLL,4910.429566,N,12304.404186,W,183401.000,A,D*52
$GNGSA,A,3,28,02,21,31,32,03,10,17,25,04,12,19,0.76,0.43,0.63,1*06
$GNGSA,A,3,65,81,88,75,74,,,,,,,,0.76,0.43,0.63,2*0A
$GNGSA,A,3,06,04,11,36,09,10,19,21,12,34,,,0.76,0.43,0.63,3*00
$GNGSA,A,3,32,41,25,30,23,29,20,27,,,,,0.76,0.43,0.63,4*0A
$GPGSV,4,1,13,28,58,106,41,02,54,248,43,21,49,218,42,31,42,163,43,1*68
$GPGSV,4,2,13,32,39,064,44,03,37,298,40,44,33,171,39,10,15,112,38,1*68
$GPGSV,4,3,13,17,13,314,36,25,12,065,30,04,11,244,33,12,06,030,32,1*63
$GPGSV,4,4,13,19,05,338,36,1*56
$GLGSV,2,1,07,65,69,009,34,81,45,296,32,66,37,278,,88,36,219,32,1*7D
$GLGSV,2,2,07,75,29,108,35,74,28,046,33,72,22,069,,1*48
$GAGSV,3,1,10,06,76,244,43,04,75,059,42,11,53,199,37,36,51,293,40,7*70
$GAGSV,3,2,10,09,51,244,39,10,31,175,37,19,16,062,25,21,12,056,33,7*7D
$GAGSV,3,3,10,12,10,164,30,34,08,326,31,7*7A
$GBGSV,3,1,12,58,81,091,,32,76,312,37,41,41,082,32,25,32,070,31,1*77
$GBGSV,3,2,12,30,29,241,31,23,28,131,33,29,25,303,29,20,22,275,29,1*7F
$GBGSV,3,3,12,40,15,306,,27,07,196,23,07,04,315,16,24,04,025,28,1*71
$GNRMC,183401.000,A,4910.429566,N,12304.404186,W,0.01,0.00,091024,,,D,V*10
$GNVTG,0.00,T,,M,0.01,N,0.03,K,D*24
$GNGGA,183402.000,4910.429584,N,12304.404174,W,2,35,0.43,0.836,M,-16.817,M,,*4B
$GNGLL,4910.429584,N,12304.404174,W,183402.000,A,D*50
$GNGSA,A,3,28,02,21,31,32,03,10,17,25,04,12,19,0.76,0.43,0.63,1*06
$GNGSA,A,3,65,81,88,75,74,,,,,,,,0.76,0.43,0.63,2*0A
$GNGSA,A,3,06,04,11,36,09,10,19,21,12,34,,,0.76,0.43,0.63,3*00
$GNGSA,A,3,32,41,25,30,23,29,20,27,,,,,0.76,0.43,0.63,4*0A
$GPGSV,4,1,13,28,58,106,41,02,54,248,43,21,49,218,42,31,42,163,43,1*68
$GPGSV,4,2,13,32,39,064,44,03,37,298,40,44,33,171,39,10,15,112,38,1*68
$GPGSV,4,3,13,17,13,314,36,25,12,065,30,04,11,244,33,12,06,030,32,1*63
$GPGSV,4,4,13,19,05,338,36,1*56
$GLGSV,2,1,07,65,69,009,34,81,45,296,32,66,38,280,,88,36,219,32,1*75
$GLGSV,2,2,07,75,29,108,35,74,28,046,33,72,22,069,,1*48
$GAGSV,3,1,10,06,76,244,43,04,75,059,42,11,53,199,37,36,51,293,40,7*70
$GAGSV,3,2,10,09,51,244,39,10,31,175,37,19,16,062,25,21,12,056,33,7*7D
$GAGSV,3,3,10,12,10,164,30,34,08,326,31,7*7A
$GBGSV,3,1,12,58,81,091,,32,76,312,38,41,41,082,33,25,32,070,31,1*79
$GBGSV,3,2,12,30,29,241,31,23,28,131,34,29,25,303,29,20,22,275,29,1*78
$GBGSV,3,3,12,40,15,306,,27,07,196,25,07,04,315,16,24,04,025,28,1*77
$GNRMC,183402.000,A,4910.429584,N,12304.404174,W,0.01,0.00,091024,,,D,V*12
$GNVTG,0.00,T,,M,0.01,N,0.02,K,D*25
$GNGGA,183403.000,4910.429608,N,12304.404180,W,2,36,0.42,0.685,M,-16.816,M,,*43
$GNGLL,4910.429608,N,12304.404180,W,183403.000,A,D*5D
$GNGSA,A,3,28,02,21,31,32,03,10,17,25,04,12,19,0.75,0.42,0.62,1*05
$GNGSA,A,3,65,81,88,75,74,,,,,,,,0.75,0.42,0.62,2*09
$GNGSA,A,3,06,04,11,36,09,10,19,21,12,34,,,0.75,0.42,0.62,3*03
$GNGSA,A,3,32,41,25,30,23,29,20,40,27,,,,0.75,0.42,0.62,4*0D
$GPGSV,4,1,13,28,58,106,41,02,54,248,43,21,49,218,42,31,42,163,43,1*68
$GPGSV,4,2,13,32,39,064,44,03,37,298,40,44,33,171,39,10,15,112,38,1*68
$GPGSV,4,3,13,17,13,314,36,25,12,065,30,04,11,244,33,12,06,030,32,1*63
$GPGSV,4,4,13,19,05,338,36,1*56
$GLGSV,2,1,07,65,69,009,34,81,45,296,31,66,38,280,,88,36,219,33,1*77
$GLGSV,2,2,07,75,29,108,35,74,28,046,33,72,22,069,,1*48
$GAGSV,3,1,10,06,76,244,43,04,75,059,42,11,53,199,37,36,51,293,40,7*70
$GAGSV,3,2,10,09,51,244,39,10,31,175,37,19,16,062,25,21,12,056,33,7*7D
$GAGSV,3,3,10,12,10,164,30,34,08,326,31,7*7A
$GBGSV,3,1,12,58,81,091,,32,76,312,38,41,41,082,33,25,32,070,31,1*79
$GBGSV,3,2,12,30,29,241,31,23,28,131,34,29,25,303,29,20,22,275,29,1*78
$GBGSV,3,3,12,40,15,306,24,27,07,196,24,07,04,315,17,24,04,025,29,1*70
$GNRMC,183403.000,A,4910.429608,N,12304.404180,W,0.01,0.00,091024,,,D,V*1F
$GNVTG,0.00,T,,M,0.01,N,0.01,K,D*26
$GNGGA,183404.000,4910.429602,N,12304.404156,W,2,36,0.42,0.629,M,-16.816,M,,*43
$GNGLL,4910.429602,N,12304.404156,W,183404.000,A,D*5B
$GNGSA,A,3,28,02,21,31,32,03,10,17,25,04,12,19,0.75,0.42,0.62,1*05
$GNGSA,A,3,65,81,88,75,74,,,,,,,,0.75,0.42,0.62,2*09
$GNGSA,A,3,06,04,11,36,09,10,19,21,12,34,,,0.75,0.42,0.62,3*03
$GNGSA,A,3,32,41,25,30,23,29,20,40,27,,,,0.75,0.42,0.62,4*0D
$GPGSV,4,1,13,28,58,106,41,02,54,248,43,21,49,218,42,31,42,163,43,1*68
$GPGSV,4,2,13,32,39,064,44,03,37,298,40,44,33,171,39,10,15,112,38,1*68
$GPGSV,4,3,13,17,13,314,36,25,12,065,30,04,11,244,33,12,06,030,32,1*63
$GPGSV,4,4,13,19,05,338,36,1*56
$GLGSV,2,1,07,65,69,009,34,81,45,296,31,66,38,280,,88,36,219,33,1*77
$GLGSV,2,2,07,75,29,108,35,74,28,046,32,72,22,069,,1*49
$GAGSV,3,1,10,06,76,244,43,04,75,059,42,11,53,199,37,36,51,293,40,7*70
$GAGSV,3,2,10,09,51,244,39,10,31,175,37,19,16,062,25,21,12,056,33,7*7D
$GAGSV,3,3,10,12,10,164,30,34,08,326,31,7*7A
$GBGSV,3,1,12,58,81,091,,32,76,312,38,41,41,082,33,25,32,070,32,1*7A
$GBGSV,3,2,12,30,29,241,32,23,28,131,34,29,25,303,29,20,22,275,29,1*7B
$GBGSV,3,3,12,40,15,306,24,27,07,196,24,07,04,315,17,24,04,025,29,1*70
$GNRMC,183404.000,A,4910.429602,N,12304.404156,W,0.01,0.00,091024,,,D,V*19
$GNVTG,0.00,T,,M,0.01,N,0.01,K,D*26
$GNGGA,183405.000,4910.429584,N,12304.404180,W,2,36,0.42,0.509,M,-16.816,M,,*45
$GNGLL,4910.429584,N,12304.404180,W,183405.000,A,D*5C
$GNGSA,A,3,28,02,21,31,32,03,10,17,25,04,12,19,0.75,0.42,0.62,1*05
$GNGSA,A,3,65,81,88,75,74,,,,,,,,0.75,0.42,0.62,2*09
$GNGSA,A,3,06,04,11,36,09,10,19,21,12,34,,,0.75,0.42,0.62,3*03
$GNGSA,A,3,32,41,25,30,23,29,20,40,27,,,,0.75,0.42,0.62,4*0D
$GPGSV,4,1,13,28,58,106,41,02,54,248,43,21,49,218,42,31,42,163,43,1*68
$GPGSV,4,2,13,32,39,064,44,03,37,298,40,44,33,171,39,10,15,112,38,1*68
$GPGSV,4,3,13,17,13,314,36,25,12,065,30,04,11,244,33,12,06,030,32,1*63
$GPGSV,4,4,13,19,05,338,36,1*56
$GLGSV,2,1,07,65,69,009,34,81,45,296,32,66,38,280,,88,36,219,33,1*74
$GLGSV,2,2,07,75,29,108,35,74,28,046,32,72,22,069,,1*49
$GAGSV,3,1,10,06,76,244,43,04,75,059,42,11,53,199,37,36,51,293,40,7*70
$GAGSV,3,2,10,09,51,244,39,10,31,175,37,19,16,062,25,21,12,056,33,7*7D
$GAGSV,3,3,10,12,10,164,30,34,08,326,31,7*7A
$GBGSV,3,1,12,58,81,091,,32,76,312,38,41,41,082,33,25,32,070,32,1*7A
$GBGSV,3,2,12,30,29,241,32,23,28,131,34,29,25,303,29,20,22,275,29,1*7B
$GBGSV,3,3,12,40,15,306,24,27,07,196,23,07,04,315,17,24,04,025,29,1*77
$GNRMC,183405.000,A,4910.429584,N,12304.404180,W,0.01,0.00,091024,,,D,V*1E
$GNVTG,0.00,T,,M,0.01,N,0.01,K,D*26
$GNGGA,183406.000,4910.429560,N,12304.404210,W,2,35,0.43,0.391,M,-16.816,M,,*43
$GNGLL,4910.429560,N,12304.404210,W,183406.000,A,D*5F
$GNGSA,A,3,28,02,21,31,32,03,10,17,25,04,12,19,0.76,0.43,0.63,1*06
$GNGSA,A,3,65,81,88,75,74,,,,,,,,0.76,0.43,0.63,2*0A
$GNGSA,A,3,06,04,11,36,09,10,19,21,12,34,,,0.76,0.43,0.63,3*00
$GNGSA,A,3,32,41,25,30,23,29,20,27,,,,,0.76,0.43,0.63,4*0A
$GPGSV,4,1,13,28,58,106,41,02,54,248,43,21,49,218,42,31,42,163,43,1*68
$GPGSV,4,2,13,32,39,064,44,03,37,298,40,44,33,171,38,10,15,112,38,1*69
$GPGSV,4,3,13,17,13,314,36,25,12,065,30,04,11,244,33,12,06,030,32,1*63
$GPGSV,4,4,13,19,05,338,36,1*56
$GLGSV,2,1,07,65,69,009,34,81,45,296,31,66,38,280,,88,36,219,33,1*77
$GLGSV,2,2,07,75,29,108,35,74,28,046,33,72,22,069,,1*48
$GAGSV,3,1,10,06,76,244,43,04,75,059,42,11,53,199,37,36,51,293,40,7*70
$GAGSV,3,2,10,09,51,244,39,10,31,175,37,19,16,062,25,21,12,056,33,7*7D
$GAGSV,3,3,10,12,10,164,30,34,08,326,31,7*7A
$GBGSV,3,1,12,58,81,091,,32,76,312,38,41,41,082,33,25,32,070,32,1*7A
$GBGSV,3,2,12,30,29,241,32,23,28,131,34,29,25,303,29,20,22,275,29,1*7B
$GBGSV,3,3,12,40,15,306,,27,07,196,24,07,04,315,16,24,04,025,29,1*77
$GNRMC,183406.000,A,4910.429560,N,12304.404210,W,0.01,0.00,091024,,,D,V*1D
$GNVTG,0.00,T,,M,0.01,N,0.01,K,D*26
$GNGGA,183407.000,4910.429578,N,12304.404222,W,2,35,0.43,0.320,M,-16.816,M,,*40
$GNGLL,4910.429578,N,12304.404222,W,183407.000,A,D*56
$GNGSA,A,3,28,02,21,31,32,03,10,17,25,04,12,19,0.76,0.43,0.63,1*06
$GNGSA,A,3,65,81,88,75,74,,,,,,,,0.76,0.43,0.63,2*0A
$GNGSA,A,3,06,04,11,36,09,10,19,21,12,34,,,0.76,0.43,0.63,3*00
$GNGSA,A,3,32,41,25,30,23,29,20,27,,,,,0.76,0.43,0.63,4*0A
$GPGSV,4,1,13,28,58,106,41,02,54,248,43,21,49,218,42,31,42,163,43,1*68
$GPGSV,4,2,13,32,39,064,44,03,37,298,40,44,33,171,38,10,15,112,38,1*69
$GPGSV,4,3,13,17,13,314,36,25,12,065,31,04,11,244,33,12,06,030,32,1*62
$GPGSV,4,4,13,19,05,338,36,1*56
$GLGSV,2,1,07,65,69,009,34,81,45,296,31,66,38,280,,88,36,219,33,1*77
$GLGSV,2,2,07,75,29,108,35,74,28,046,33,72,22,069,,1*48
$GAGSV,3,1,10,06,76,244,43,04,75,059,42,11,53,199,37,36,51,293,40,7*70
$GAGSV,3,2,10,09,51,244,39,10,31,175,37,19,16,062,24,21,12,056,33,7*7C
$GAGSV,3,3,10,12,10,164,29,34,08,326,31,7*72
$GBGSV,3,1,12,58,81,091,,32,76,312,38,41,41,082,32,25,32,070,32,1*7B
$GBGSV,3,2,12,30,29,241,32,23,28,131,34,29,25,303,29,20,22,275,29,1*7B
$GBGSV,3,3,12,40,15,306,,27,07,196,22,07,04,315,16,24,04,025,28,1*70
$GNRMC,183407.000,A,4910.429578,N,12304.404222,W,0.01,0.00,091024,,,D,V*14
$GNVTG,0.00,T,,M,0.01,N,0.02,K,D*25
$GNGGA,183408.000,4910.429590,N,12304.404294,W,2,36,0.42,0.254,M,-16.816,M,,*44
$GNGLL,4910.429590,N,12304.404294,W,183408.000,A,D*52
$GNGSA,A,3,28,02,21,31,32,03,10,17,25,04,12,19,0.75,0.42,0.62,1*05
$GNGSA,A,3,65,81,88,75,74,,,,,,,,0.75,0.42,0.62,2*09
$GNGSA,A,3,06,04,11,36,09,10,19,21,12,34,,,0.75,0.42,0.62,3*03
$GNGSA,A,3,32,41,25,30,23,29,20,40,27,,,,0.75,0.42,0.62,4*0D
$GPGSV,4,1,13,28,58,106,41,02,54,248,43,21,49,218,42,31,42,163,43,1*68
$GPGSV,4,2,13,32,39,064,44,03,37,298,40,44,33,171,38,10,15,112,38,1*69
$GPGSV,4,3,13,17,13,314,36,25,12,065,32,04,11,244,33,12,06,030,32,1*61
$GPGSV,4,4,13,19,05,338,36,1*56
$GLGSV,2,1,07,65,69,009,34,81,45,296,31,66,38,280,,88,36,219,33,1*77
$GLGSV,2,2,07,75,29,108,35,74,28,046,33,72,21,070,,1*43
$GAGSV,3,1,10,06,76,244,43,04,75,059,42,11,53,199,37,36,51,293,40,7*70
$GAGSV,3,2,10,09,51,244,39,10,31,175,37,19,16,062,24,21,12,056,33,7*7C
$GAGSV,3,3,10,12,10,164,29,34,08,326,31,7*72
$GBGSV,3,1,12,32,76,312,38,41,41,082,32,25,32,070,32,30,29,241,32,1*79
$GBGSV,3,2,12,23,28,131,34,29,25,303,29,20,22,275,29,40,15,306,25,1*77
$GBGSV,3,3,12,27,07,196,23,31,06,343,,24,04,025,28,07,04,315,16,1*74
$GNRMC,183408.000,A,4910.429590,N,12304.404294,W,0.01,0.00,091024,,,D,V*10
$GNVTG,0.00,T,,M,0.01,N,0.02,K,D*25
$GNGGA,183409.000,4910.429566,N,12304.404396,W,2,36,0.42,0.301,M,-16.817,M,,*4F
$GNGLL,4910.429566,N,12304.404396,W,183409.000,A,D*59
$GNGSA,A,3,28,02,21,31,32,03,10,17,25,04,12,19,0.75,0.42,0.62,1*05
$GNGSA,A,3,65,81,88,75,74,,,,,,,,0.75,0.42,0.62,2*09
$GNGSA,A,3,06,04,11,36,09,10,19,21,12,34,,,0.75,0.42,0.62,3*03
$GNGSA,A,3,32,41,25,30,23,29,20,40,27,,,,0.75,0.42,0.62,4*0D
$GPGSV,4,1,13,28,58,106,41,02,54,248,43,21,49,218,42,31,42,163,43,1*68
$GPGSV,4,2,13,32,39,064,44,03,37,298,40,44,33,171,38,10,15,112,38,1*69
$GPGSV,4,3,13,17,13,314,36,25,12,065,32,04,11,244,33,12,06,030,32,1*61
$GPGSV,4,4,13,19,05,338,36,1*56
$GLGSV,2,1,07,65,69,009,34,81,45,296,31,66,38,280,,88,36,219,33,1*77
$GLGSV,2,2,07,75,29,108,35,74,28,046,33,72,21,070,,1*43
$GAGSV,3,1,10,06,76,244,43,04,75,059,42,11,53,199,37,36,51,293,40,7*70
$GAGSV,3,2,10,09,51,244,39,10,31,175,37,19,16,062,24,21,12,056,33,7*7C
$GAGSV,3,3,10,12,10,164,29,34,08,326,30,7*73
$GBGSV,3,1,12,32,76,312,38,41,41,082,32,25,32,070,32,30,29,241,32,1*79
$GBGSV,3,2,12,23,28,131,34,29,25,303,29,20,22,275,29,40,15,306,25,1*77
$GBGSV,3,3,12,27,07,196,25,31,06,343,,24,04,025,28,07,04,315,16,1*72
$GNRMC,183409.000,A,4910.429566,N,12304.404396,W,0.01,0.00,091024,,,D,V*1B
$GNVTG,0.00,T,,M,0.01,N,0.03,K,D*24
$GNGGA,183410.000,4910.429530,N,12304.404438,W,2,36,0.42,0.380,M,-16.816,M,,*4F
$GNGLL,4910.429530,N,12304.404438,W,183410.000,A,D*51
$GNGSA,A,3,28,02,21,31,32,03,10,17,25,04,12,19,0.75,0.42,0.62,1*05
$GNGSA,A,3,65,81,88,75,74,,,,,,,,0.75,0.42,0.62,2*09
$GNGSA,A,3,06,04,11,36,09,10,19,21,12,34,,,0.75,0.42,0.62,3*03
$GNGSA,A,3,32,41,25,30,23,29,20,40,27,,,,0.75,0.42,0.62,4*0D
$GPGSV,4,1,13,28,58,106,41,02,54,248,43,21,49,218,42,31,42,163,43,1*68
$GPGSV,4,2,13,32,39,064,44,03,37,298,40,44,33,171,38,10,15,112,38,1*69
$GPGSV,4,3,13,17,13,314,36,25,12,065,33,04,11,244,33,12,06,030,32,1*60
$GPGSV,4,4,13,19,05,338,36,1*56
$GLGSV,2,1,07,65,69,009,34,81,45,296,31,66,38,280,,88,36,219,32,1*76
$GLGSV,2,2,07,75,29,108,35,74,28,044,33,72,21,070,,1*41
$GAGSV,3,1,10,06,76,244,43,04,75,059,42,11,53,199,37,36,51,293,40,7*70
$GAGSV,3,2,10,09,51,244,39,10,31,175,37,19,16,062,24,21,12,056,33,7*7C
$GAGSV,3,3,10,12,10,164,29,34,08,326,30,7*73
$GBGSV,3,1,12,32,76,312,38,41,41,082,33,25,32,070,32,30,29,241,32,1*78
$GBGSV,3,2,12,23,28,131,34,29,25,303,29,20,22,275,30,40,15,306,27,1*7D
$GBGSV,3,3,12,27,07,196,25,31,06,343,,24,04,025,29,07,04,315,18,1*7D
$GNRMC,183410.000,A,4910.429530,N,12304.404438,W,0.01,0.00,091024,,,D,V*13
$GNVTG,0.00,T,,M,0.01,N,0.02,K,D*25
$GNGGA,183411.000,4910.429512,N,12304.404534,W,2,36,0.42,0.373,M,-16.816,M,,*4F
$GNGLL,4910.429512,N,12304.404534,W,183411.000,A,D*5D
$GNGSA,A,3,28,02,21,31,32,03,10,17,25,04,12,19,0.75,0.42,0.62,1*05
$GNGSA,A,3,65,81,88,75,74,,,,,,,,0.75,0.42,0.62,2*09
$GNGSA,A,3,06,04,11,36,09,10,19,21,12,34,,,0.75,0.42,0.62,3*03
$GNGSA,A,3,32,41,25,30,23,29,20,40,27,,,,0.75,0.42,0.62,4*0D
$GPGSV,4,1,13,28,58,106,40,02,54,248,42,21,49,218,41,31,42,163,42,1*6A
$GPGSV,4,2,13,32,39,064,44,03,37,298,40,44,33,171,37,10,15,112,38,1*66
$GPGSV,4,3,13,17,13,314,36,25,12,065,33,04,11,244,32,12,06,030,31,1*62
$GPGSV,4,4,13,19,05,338,36,1*56
$GLGSV,2,1,07,65,69,009,34,81,45,296,30,66,38,280,,88,36,219,32,1*77
$GLGSV,2,2,07,75,30,107,35,74,28,044,33,72,21,070,,1*46
$GAGSV,3,1,10,06,76,244,43,04,75,059,42,11,53,199,37,36,51,293,39,7*7E
$GAGSV,3,2,10,09,51,244,39,10,31,175,37,19,16,062,23,21,12,056,33,7*7B
$GAGSV,3,3,10,12,10,164,29,34,08,326,29,7*7B
$GBGSV,3,1,12,32,76,312,38,41,41,082,33,25,32,070,32,30,29,241,33,1*79
$GBGSV,3,2,12,23,28,131,34,29,25,303,30,20,22,275,31,40,15,306,26,1*75
$GBGSV,3,3,12,27,07,196,25,31,06,343,,24,04,025,29,07,04,315,16,1*73
$GNRMC,183411.000,A,4910.429512,N,12304.404534,W,0.02,0.00,091024,,,D,V*1C
$GNVTG,0.00,T,,M,0.02,N,0.03,K,D*27
$GNGGA,183412.000,4910.429518,N,12304.404570,W,2,36,0.42,0.368,M,-16.816,M,,*4C
$GNGLL,4910.429518,N,12304.404570,W,183412.000,A,D*54
$GNGSA,A,3,28,02,21,31,32,03,10,17,25,04,12,19,0.75,0.42,0.62,1*05
$GNGSA,A,3,65,81,88,75,74,,,,,,,,0.75,0.42,0.62,2*09
$GNGSA,A,3,06,04,11,36,09,10,19,21,12,34,,,0.75,0.42,0.62,3*03
$GNGSA,A,3,32,41,25,30,23,29,20,40,27,,,,0.75,0.42,0.62,4*0D
$GPGSV,4,1,13,28,58,106,40,02,54,248,42,21,49,218,41,31,42,163,42,1*6A
$GPGSV,4,2,13,32,39,064,44,03,37,298,40,44,33,171,37,10,15,112,38,1*66
$GPGSV,4,3,13,17,13,314,36,25,12,065,33,04,11,244,32,12,06,030,31,1*62
$GPGSV,4,4,13,19,05,338,36,1*56
$GLGSV,2,1,07,65,69,009,34,81,45,296,30,66,38,280,,88,36,219,32,1*77
$GLGSV,2,2,07,75,30,107,35,74,28,044,33,72,21,070,,1*46
$GAGSV,3,1,10,06,76,244,43,04,75,059,42,11,53,199,37,36,51,293,39,7*7E
$GAGSV,3,2,10,09,51,244,39,10,31,175,37,19,16,062,23,21,12,056,33,7*7B
$GAGSV,3,3,10,12,10,164,29,34,08,326,29,7*7B
$GBGSV,3,1,12,32,76,312,38,41,41,082,33,25,32,070,33,30,29,241,33,1*78
$GBGSV,3,2,12,23,28,131,34,29,25,303,30,20,22,275,31,40,15,306,27,1*74
$GBGSV,3,3,12,27,07,196,26,31,06,343,,24,04,025,29,07,04,315,17,1*71
$GNRMC,183412.000,A,4910.429518,N,12304.404570,W,0.01,0.00,091024,,,D,V*16
$GNVTG,0.00,T,,M,0.01,N,0.03,K,D*24
$GNGGA,183413.000,4910.429554,N,12304.404606,W,2,36,0.42,0.338,M,-16.816,M,,*42
$GNGLL,4910.429554,N,12304.404606,W,183413.000,A,D*5F
$GNGSA,A,3,28,02,21,31,32,03,10,17,25,04,12,19,0.75,0.42,0.62,1*05
$GNGSA,A,3,65,81,88,75,74,,,,,,,,0.75,0.42,0.62,2*09
$GNGSA,A,3,06,04,11,36,09,10,19,21,12,34,,,0.75,0.42,0.62,3*03
$GNGSA,A,3,32,41,25,30,23,29,20,40,27,,,,0.75,0.42,0.62,4*0D
$GPGSV,4,1,13,28,58,106,40,02,54,248,42,21,49,218,41,31,42,163,42,1*6A
$GPGSV,4,2,13,32,39,064,44,03,37,298,40,44,33,171,37,10,15,112,38,1*66
$GPGSV,4,3,13,17,13,314,36,25,12,065,33,04,11,244,32,12,06,030,31,1*62
$GPGSV,4,4,13,19,05,338,36,1*56
$GLGSV,2,1,06,65,69,009,34,81,45,296,30,66,38,280,,88,36,219,32,1*76
$GLGSV,2,2,06,75,30,107,35,74,28,044,32,1*77
$GAGSV,3,1,10,06,76,244,43,04,75,059,42,11,53,199,37,36,51,293,39,7*7E
$GAGSV,3,2,10,09,51,244,39,10,31,175,37,19,16,062,23,21,12,056,33,7*7B
$GAGSV,3,3,10,12,10,164,29,34,08,326,29,7*7B
$GBGSV,3,1,12,32,76,312,39,41,41,082,33,25,32,070,34,30,29,241,33,1*7E
$GBGSV,3,2,12,23,28,131,35,29,25,303,31,20,22,275,31,40,15,306,29,1*7A
$GBGSV,3,3,12,27,07,196,28,31,06,343,,07,04,315,19,24,04,025,30,1*79
$GNRMC,183413.000,A,4910.429554,N,12304.404606,W,0.01,0.00,091024,,,D,V*1D
$GNVTG,0.00,T,,M,0.01,N,0.02,K,D*25
$GNGGA,183414.000,4910.429608,N,12304.404660,W,2,36,0.42,0.256,M,-16.816,M,,*46
$GNGLL,4910.429608,N,12304.404660,W,183414.000,A,D*52
$GNGSA,A,3,28,02,21,31,32,03,10,17,25,04,12,19,0.75,0.42,0.62,1*05
$GNGSA,A,3,65,81,88,75,74,,,,,,,,0.75,0.42,0.62,2*09
$GNGSA,A,3,06,04,11,36,09,10,19,21,12,34,,,0.75,0.42,0.62,3*03
$GNGSA,A,3,32,41,25,30,23,29,20,40,27,,,,0.75,0.42,0.62,4*0D
$GPGSV,4,1,13,28,58,106,40,02,54,248,42,21,49,218,41,31,42,163,42,1*6A
$GPGSV,4,2,13,32,39,064,44,03,37,298,40,44,33,171,37,10,15,112,38,1*66
$GPGSV,4,3,13,17,13,314,36,25,12,065,33,04,11,244,32,12,06,030,31,1*62
$GPGSV,4,4,13,19,05,338,36,1*56
$GLGSV,2,1,07,65,69,009,34,81,45,296,30,66,38,280,,88,36,219,32,1*77
$GLGSV,2,2,07,75,30,107,35,74,28,044,32,72,21,070,,1*47
$GAGSV,3,1,10,06,76,244,43,04,75,059,42,11,53,199,37,36,51,293,39,7*7E
$GAGSV,3,2,10,09,51,244,39,10,31,175,37,19,16,062,23,21,12,056,33,7*7B
$GAGSV,3,3,10,12,10,164,29,34,08,326,29,7*7B
$GBGSV,3,1,12,32,76,312,39,41,41,082,33,25,32,070,34,30,29,241,33,1*7E
$GBGSV,3,2,12,23,28,131,35,29,25,303,31,20,22,275,31,40,15,306,27,1*74
$GBGSV,3,3,12,27,07,196,27,31,06,343,,24,04,025,30,07,04,315,18,1*77
$GNRMC,183414.000,A,4910.429608,N,12304.404660,W,0.01,0.00,091024,,,D,V*10
$GNVTG,0.00,T,,M,0.01,N,0.02,K,D*25
$GNGGA,183415.000,4910.429662,N,12304.404678,W,2,36,0.42,0.107,M,-16.816,M,,*45
$GNGLL,4910.429662,N,12304.404678,W,183415.000,A,D*56
$GNGSA,A,3,28,02,21,31,32,03,10,17,25,04,12,19,0.75,0.42,0.62,1*05
$GNGSA,A,3,65,81,88,75,74,,,,,,,,0.75,0.42,0.62,2*09
$GNGSA,A,3,06,04,11,36,09,10,19,21,12,34,,,0.75,0.42,0.62,3*03
$GNGSA,A,3,32,41,25,30,23,29,20,40,27,,,,0.75,0.42,0.62,4*0D
$GPGSV,4,1,13,28,58,106,40,02,54,248,42,21,49,218,41,31,42,163,42,1*6A
$GPGSV,4,2,13,32,39,064,44,03,37,298,40,44,33,171,38,10,15,112,38,1*69
$GPGSV,4,3,13,17,13,314,36,25,12,065,33,04,11,244,32,12,06,030,31,1*62
$GPGSV,4,4,13,19,05,338,35,1*55
$GLGSV,2,1,07,65,69,009,34,81,45,296,30,66,38,280,,88,36,219,32,1*77
$GLGSV,2,2,07,75,30,107,35,74,28,044,32,72,21,070,,1*47
$GAGSV,3,1,10,06,76,244,43,04,75,059,42,11,53,199,37,36,51,293,39,7*7E
$GAGSV,3,2,10,09,51,244,39,10,31,175,37,19,16,062,23,21,12,056,33,7*7B
$GAGSV,3,3,10,12,10,164,29,34,08,326,29,7*7B
$GBGSV,3,1,12,58,81,091,,32,76,312,39,41,41,082,33,25,32,070,34,1*7D
$GBGSV,3,2,12,30,29,241,33,23,28,131,35,29,25,303,31,20,22,275,31,1*7B
$GBGSV,3,3,12,40,15,306,27,27,07,196,27,07,04,315,19,24,04,025,30,1*76
$GNRMC,183415.000,A,4910.429662,N,12304.404678,W,0.02,0.00,091024,,,D,V*17
$GNVTG,0.00,T,,M,0.02,N,0.03,K,D*27
$GNGGA,183416.000,4910.429680,N,12304.404624,W,2,36,0.42,-0.027,M,-16.817,M,,*6C
$GNGLL,4910.429680,N,12304.404624,W,183416.000,A,D*50
$GNGSA,A,3,28,02,21,31,32,03,10,17,25,04,12,19,0.75,0.42,0.62,1*05
$GNGSA,A,3,65,81,88,75,74,,,,,,,,0.75,0.42,0.62,2*09
$GNGSA,A,3,06,04,11,36,09,10,19,21,12,34,,,0.75,0.42,0.62,3*03
$GNGSA,A,3,32,41,25,30,23,29,20,40,27,,,,0.75,0.42,0.62,4*0D
$GPGSV,4,1,13,28,58,106,40,02,54,248,42,21,49,218,41,31,42,163,42,1*6A
$GPGSV,4,2,13,32,39,064,44,03,37,298,40,44,33,171,38,10,15,112,38,1*69
$GPGSV,4,3,13,17,13,314,36,25,12,065,33,04,11,244,32,12,06,030,31,1*62
$GPGSV,4,4,13,19,05,338,35,1*55
$GLGSV,2,1,07,65,69,009,34,81,45,296,30,66,38,280,,88,36,219,32,1*77
$GLGSV,2,2,07,75,30,107,35,74,28,044,32,72,21,070,,1*47
$GAGSV,3,1,10,06,76,244,43,04,75,059,42,11,53,199,37,36,51,293,39,7*7E
$GAGSV,3,2,10,09,51,244,39,10,31,175,37,19,16,062,23,21,12,056,33,7*7B
$GAGSV,3,3,10,12,10,164,29,34,08,326,29,7*7B
$GBGSV,3,1,12,58,81,091,,32,76,312,39,41,41,082,33,25,32,070,34,1*7D
$GBGSV,3,2,12,30,29,241,33,23,28,131,35,29,25,303,31,20,22,275,31,1*7B
$GBGSV,3,3,12,40,15,306,27,27,07,196,28,07,04,315,18,24,04,025,30,1*78
$GNRMC,183416.000,A,4910.429680,N,12304.404624,W,0.01,0.00,091024,,,D,V*12
$GNVTG,0.00,T,,M,0.01,N,0.03,K,D*24
$GNGGA,183417.000,4910.429698,N,12304.404570,W,2,36,0.42,-0.147,M,-16.817,M,,*61
$GNGLL,4910.429698,N,12304.404570,W,183417.000,A,D*5A
$GNGSA,A,3,28,02,21,31,32,03,10,17,25,04,12,19,0.75,0.42,0.62,1*05
$GNGSA,A,3,65,81,88,75,74,,,,,,,,0.75,0.42,0.62,2*09
$GNGSA,A,3,06,04,11,36,09,10,19,21,12,34,,,0.75,0.42,0.62,3*03
$GNGSA,A,3,32,41,25,30,23,29,20,40,27,,,,0.75,0.42,0.62,4*0D
$GPGSV,4,1,13,28,58,106,40,02,54,248,42,21,49,218,41,31,42,163,42,1*6A
$GPGSV,4,2,13,32,39,064,44,03,37,298,40,44,33,171,38,10,15,112,38,1*69
$GPGSV,4,3,13,17,13,314,36,25,12,065,33,04,11,244,32,12,06,030,32,1*61
$GPGSV,4,4,13,19,05,338,35,1*55
$GLGSV,2,1,07,65,69,009,35,81,46,294,29,66,38,280,,88,36,219,32,1*7F
$GLGSV,2,2,07,75,30,107,35,74,28,044,33,72,21,070,,1*46
$GAGSV,3,1,10,06,76,244,43,04,75,059,42,11,53,199,37,36,51,293,39,7*7E
$GAGSV,3,2,10,09,51,244,39,10,31,175,37,19,16,062,23,21,12,056,33,7*7B
$GAGSV,3,3,10,12,10,164,29,34,08,326,29,7*7B
$GBGSV,3,1,12,58,81,091,,32,76,312,39,41,41,082,33,25,32,070,34,1*7D
$GBGSV,3,2,12,30,29,241,33,23,28,131,35,29,25,303,31,20,22,275,31,1*7B
$GBGSV,3,3,12,40,15,306,27,27,07,196,28,07,04,315,18,24,04,025,30,1*78
$GNRMC,183417.000,A,4910.429698,N,12304.404570,W,0.01,0.00,091024,,,D,V*18
$GNVTG,0.00,T,,M,0.01,N,0.02,K,D*25
$GNGGA,183418.000,4910.429698,N,12304.404510,W,2,36,0.42,-0.229,M,-16.817,M,,*63
$GNGLL,4910.429698,N,12304.404510,W,183418.000,A,D*53
$GNGSA,A,3,28,02,21,31,32,03,10,17,25,04,12,19,0.75,0.42,0.62,1*05
$GNGSA,A,3,65,81,88,75,74,,,,,,,,0.75,0.42,0.62,2*09
$GNGSA,A,3,06,04,11,36,09,10,19,21,12,34,,,0.75,0.42,0.62,3*03
$GNGSA,A,3,32,41,25,30,23,29,20,40,27,,,,0.75,0.42,0.62,4*0D
$GPGSV,4,1,13,28,58,106,40,02,54,248,42,21,49,218,41,31,42,163,42,1*6A
$GPGSV,4,2,13,32,39,064,44,03,37,298,40,44,33,171,38,10,15,112,38,1*69
$GPGSV,4,3,13,17,13,314,37,25,12,065,33,04,11,244,32,12,06,030,32,1*60
$GPGSV,4,4,13,19,05,338,35,1*55
$GLGSV,2,1,07,65,69,009,35,81,46,294,29,66,38,280,,88,36,219,33,1*7E
$GLGSV,2,2,07,75,30,107,35,74,28,044,32,72,21,070,,1*47
$GAGSV,3,1,10,06,76,244,43,04,75,059,42,11,53,199,37,36,51,293,39,7*7E
$GAGSV,3,2,10,09,51,244,39,10,31,175,37,19,16,062,24,21,12,056,33,7*7C
$GAGSV,3,3,10,12,10,164,29,34,08,326,29,7*7B
$GBGSV,3,1,12,58,81,091,,32,76,312,39,41,41,082,33,25,32,070,34,1*7D
$GBGSV,3,2,12,30,29,241,33,23,28,131,35,29,25,303,31,20,22,275,31,1*7B
$GBGSV,3,3,12,40,15,306,27,27,07,196,28,07,04,315,18,24,04,025,30,1*78
$GNRMC,183418.000,A,4910.429698,N,12304.404510,W,0.01,0.00,091024,,,D,V*11
$GNVTG,0.00,T,,M,0.01,N,0.03,K,D*24
$GNGGA,183419.000,4910.429740,N,12304.404450,W,2,36,0.42,-0.370,M,-16.816,M,,*6F
$GNGLL,4910.429740,N,12304.404450,W,183419.000,A,D*53
$GNGSA,A,3,28,02,21,31,32,03,10,17,25,04,12,19,0.75,0.42,0.62,1*05
$GNGSA,A,3,65,81,88,75,74,,,,,,,,0.75,0.42,0.62,2*09
$GNGSA,A,3,06,04,11,36,09,10,19,21,12,34,,,0.75,0.42,0.62,3*03
$GNGSA,A,3,32,41,25,30,23,29,20,40,27,,,,0.75,0.42,0.62,4*0D
$GPGSV,4,1,13,28,58,106,40,02,54,248,42,21,49,218,41,31,42,163,42,1*6A
$GPGSV,4,2,13,32,39,064,44,03,37,298,40,44,33,171,38,10,15,112,38,1*69
$GPGSV,4,3,13,17,13,314,37,25,12,065,33,04,11,244,32,12,06,030,32,1*60
$GPGSV,4,4,13,19,05,338,35,1*55
$GLGSV,2,1,07,65,69,009,34,81,46,294,29,66,38,280,,88,36,219,33,1*7F
$GLGSV,2,2,07,75,30,107,35,74,28,044,33,72,21,070,,1*46
$GAGSV,3,1,10,06,76,244,43,04,75,059,42,11,53,199,37,36,51,293,39,7*7E
$GAGSV,3,2,10,09,51,244,39,10,31,175,37,19,16,062,24,21,12,056,33,7*7C
$GAGSV,3,3,10,12,10,164,29,34,08,326,29,7*7B
$GBGSV,3,1,12,58,81,091,,32,76,312,39,41,41,082,33,25,32,070,34,1*7D
$GBGSV,3,2,12,30,29,241,33,23,28,131,35,29,25,303,31,20,22,275,31,1*7B
$GBGSV,3,3,12,40,15,306,27,27,07,196,28,07,04,315,18,24,04,025,30,1*78
$GNRMC,183419.000,A,4910.429740,N,12304.404450,W,0.01,0.00,091024,,,D,V*11
$GNVTG,0.00,T,,M,0.01,N,0.02,K,D*25
$GNGGA,183420.000,4910.429734,N,12304.404414,W,2,36,0.42,-0.475,M,-16.816,M,,*64
$GNGLL,4910.429734,N,12304.404414,W,183420.000,A,D*5A
$GNGSA,A,3,28,02,21,31,32,03,10,17,25,04,12,19,0.75,0.42,0.62,1*05
$GNGSA,A,3,65,81,88,75,74,,,,,,,,0.75,0.42,0.62,2*09
$GNGSA,A,3,06,04,11,36,09,10,19,21,12,34,,,0.75,0.42,0.62,3*03
$GNGSA,A,3,32,41,25,30,23,29,20,40,27,,,,0.75,0.42,0.62,4*0D
$GPGSV,4,1,13,28,58,106,40,02,54,248,42,21,49,218,41,31,42,163,41,1*69
$GPGSV,4,2,13,32,39,064,43,03,37,298,40,44,33,171,38,10,15,112,38,1*6E
$GPGSV,4,3,13,17,13,314,37,25,12,065,33,04,11,244,32,12,06,030,32,1*60
$GPGSV,4,4,13,19,05,338,35,1*55
$GLGSV,2,1,07,65,69,009,34,81,46,294,29,66,38,280,,88,36,219,32,1*7E
$GLGSV,2,2,07,75,30,107,35,74,28,044,33,72,21,070,,1*46
$GAGSV,3,1,10,06,76,244,43,04,75,059,42,11,53,199,37,36,51,293,39,7*7E
$GAGSV,3,2,10,09,51,244,39,10,31,175,37,19,16,062,24,21,12,056,33,7*7C
$GAGSV,3,3,10,12,10,164,29,34,08,326,28,7*7A
$GBGSV,3,1,12,58,81,091,,32,76,312,39,41,41,082,33,25,32,070,33,1*7A
$GBGSV,3,2,12,30,29,241,33,23,28,131,34,29,25,303,30,20,22,275,31,1*7B
$GBGSV,3,3,12,40,15,306,25,27,07,196,28,07,04,315,18,24,04,025,29,1*72
$GNRMC,183420.000,A,4910.429734,N,12304.404414,W,0.01,0.00,091024,,,D,V*18
$GNVTG,0.00,T,,M,0.01,N,0.02,K,D*25
$GNGGA,183421.000,4910.429716,N,12304.404384,W,2,36,0.42,-0.564,M,-16.816,M,,*6A
$GNGLL,4910.429716,N,12304.404384,W,183421.000,A,D*55
$GNGSA,A,3,28,02,21,31,32,03,10,17,25,04,12,19,0.75,0.42,0.62,1*05
$GNGSA,A,3,65,81,88,75,74,,,,,,,,0.75,0.42,0.62,2*09
$GNGSA,A,3,06,04,11,36,09,10,19,21,12,34,,,0.75,0.42,0.62,3*03
$GNGSA,A,3,32,41,25,30,23,29,20,40,27,,,,0.75,0.42,0.62,4*0D
$GPGSV,4,1,13,28,58,106,41,02,54,248,42,21,49,218,41,31,42,163,41,1*68
$GPGSV,4,2,13,32,39,064,43,03,37,298,40,44,33,171,39,10,15,112,38,1*6F
$GPGSV,4,3,13,17,13,314,37,25,12,065,34,04,11,244,32,12,06,030,32,1*67
$GPGSV,4,4,13,19,05,338,35,1*55
$GLGSV,2,1,07,65,69,009,34,81,46,294,28,66,38,280,,88,36,219,32,1*7F
$GLGSV,2,2,07,75,30,107,35,74,28,044,33,72,21,070,,1*46
$GAGSV,3,1,10,06,76,244,43,04,75,059,42,11,53,199,37,36,51,293,39,7*7E
$GAGSV,3,2,10,09,51,244,39,10,31,175,37,19,16,062,24,21,12,056,33,7*7C
$GAGSV,3,3,10,12,10,164,29,34,08,326,28,7*7A
