2024-10-10 13:46:14,471 [INFO] Connected to serial port COM7 with baudrate 115200. Reading data...
2024-10-10 13:46:14,471 [INFO] Connected to serial port COM9 with baudrate 115200. Reading data...
2024-10-10 13:46:14,483 [INFO] Received Standard NMEA Message: $GBGSV,3,3,10,37,09,198,22,41,52,116,34,1*79
2024-10-10 13:46:14,483 [INFO] GSV - Satellites in View:
  Number of Messages: 3
  Message Number: 3
  Total Satellites in View: 10
  Satellite 1 PRN: 37 - Elevation: 09° - Azimuth: 198° - SNR: 22 dB
  Satellite 2 PRN: 41 - Elevation: 52° - Azimuth: 116° - SNR: 34 dB
  Satellite 3 PRN: 1 - Elevation: ° - Azimuth: ° - SNR:  dB
  Satellite 4 PRN:  - Elevation: ° - Azimuth: ° - SNR:  dB

2024-10-10 13:46:14,488 [INFO] Received Standard NMEA Message: $GBGSV,1,1,02,32,68,302,22,41,52,116,22,5*7A
2024-10-10 13:46:14,488 [INFO] GSV - Satellites in View:
  Number of Messages: 1
  Message Number: 1
  Total Satellites in View: 02
  Satellite 1 PRN: 32 - Elevation: 68° - Azimuth: 302° - SNR: 22 dB
  Satellite 2 PRN: 41 - Elevation: 52° - Azimuth: 116° - SNR: 22 dB
  Satellite 3 PRN: 5 - Elevation: ° - Azimuth: ° - SNR:  dB
  Satellite 4 PRN:  - Elevation: ° - Azimuth: ° - SNR:  dB

2024-10-10 13:46:14,489 [INFO] Received Standard NMEA Message: $GQGSV,1,1,00,1*65
2024-10-10 13:46:14,489 [INFO] GSV - Satellites in View:
  Number of Messages: 1
  Message Number: 1
  Total Satellites in View: 00
  Satellite 1 PRN: 1 - Elevation: ° - Azimuth: ° - SNR:  dB
  Satellite 2 PRN:  - Elevation: ° - Azimuth: ° - SNR:  dB
  Satellite 3 PRN:  - Elevation: ° - Azimuth: ° - SNR:  dB
  Satellite 4 PRN:  - Elevation: ° - Azimuth: ° - SNR:  dB

2024-10-10 13:46:14,490 [INFO] Received Standard NMEA Message: $GQGSV,1,1,00,8*6C
2024-10-10 13:46:14,490 [INFO] GSV - Satellites in View:
  Number of Messages: 1
  Message Number: 1
  Total Satellites in View: 00
  Satellite 1 PRN: 8 - Elevation: ° - Azimuth: ° - SNR:  dB
  Satellite 2 PRN:  - Elevation: ° - Azimuth: ° - SNR:  dB
  Satellite 3 PRN:  - Elevation: ° - Azimuth: ° - SNR:  dB
  Satellite 4 PRN:  - Elevation: ° - Azimuth: ° - SNR:  dB

2024-10-10 13:46:14,493 [INFO] Connected to serial port COM10 with baudrate 921600. Reading data...
2024-10-10 13:46:15,190 [INFO] Received Standard NMEA Message: $GNRMC,024025.012,V,,,,,,,060180,,,N,V*24
2024-10-10 13:46:15,190 [INFO] RMC - Recommended Minimum:
  Timestamp: 02:40:25.012000+00:00
  Status: V
  Latitude: 0.0 
  Longitude: 0.0 
  Speed over Ground: None knots
  Course over Ground: None
  Date: 1980-01-06
  Magnetic Variation:  
  Mode Indicator: N
  Navigational Status: V

2024-10-10 13:46:15,192 [INFO] Received Standard NMEA Message: $GNGGA,024025.012,,,,,0,0,,,M,,M,,*54
2024-10-10 13:46:15,192 [INFO] GGA - Fix Data:
  Timestamp: 02:40:25.012000+00:00
  Latitude: 0.0 
  Longitude: 0.0 
  GPS Quality Indicator: 0
  Number of Satellites in Use: 0
  Horizontal Dilution of Precision (HDOP): 
  Antenna Altitude (Above Mean Sea Level): None M
  Geoidal Separation:  M
  Age of Differential GPS Data: 
  Differential Reference Station ID: 

2024-10-10 13:46:15,193 [INFO] Received Standard NMEA Message: $GNVTG,,T,,M,,N,,K,N*32
2024-10-10 13:46:15,193 [INFO] VTG - Course over Ground and Ground Speed:
  True Track: None° T
  Magnetic Track: None° M
  Speed over Ground: None knots / None km/h
  FAA Mode: N

2024-10-10 13:46:15,194 [INFO] Received Standard NMEA Message: $GNGSA,A,1,,,,,,,,,,,,,,,,1*1D
2024-10-10 13:46:15,194 [INFO] GSA - Satellite Info:
  Mode: A
  Mode Fix Type: 1
  Satellites Used: 
  PDOP: 
  HDOP: 
  VDOP: 

2024-10-10 13:46:15,195 [INFO] Received Standard NMEA Message: $GNGSA,A,1,,,,,,,,,,,,,,,,2*1E
2024-10-10 13:46:15,195 [INFO] GSA - Satellite Info:
  Mode: A
  Mode Fix Type: 1
  Satellites Used: 
  PDOP: 
  HDOP: 
  VDOP: 

2024-10-10 13:46:15,196 [INFO] Received Standard NMEA Message: $GNGSA,A,1,,,,,,,,,,,,,,,,3*1F
2024-10-10 13:46:15,196 [INFO] GSA - Satellite Info:
  Mode: A
  Mode Fix Type: 1
  Satellites Used: 
  PDOP: 
  HDOP: 
  VDOP: 

2024-10-10 13:46:15,197 [INFO] Received Standard NMEA Message: $GNGSA,A,1,,,,,,,,,,,,,,,,4*18
2024-10-10 13:46:15,197 [INFO] GSA - Satellite Info:
  Mode: A
  Mode Fix Type: 1
  Satellites Used: 
  PDOP: 
  HDOP: 
  VDOP: 

2024-10-10 13:46:15,197 [INFO] Received Standard NMEA Message: $GPGSV,1,1,00,1*64
2024-10-10 13:46:15,197 [INFO] GSV - Satellites in View:
  Number of Messages: 1
  Message Number: 1
  Total Satellites in View: 00
  Satellite 1 PRN: 1 - Elevation: ° - Azimuth: ° - SNR:  dB
  Satellite 2 PRN:  - Elevation: ° - Azimuth: ° - SNR:  dB
  Satellite 3 PRN:  - Elevation: ° - Azimuth: ° - SNR:  dB
  Satellite 4 PRN:  - Elevation: ° - Azimuth: ° - SNR:  dB

2024-10-10 13:46:15,198 [INFO] Received Standard NMEA Message: $GPGSV,1,1,00,8*6D
2024-10-10 13:46:15,198 [INFO] GSV - Satellites in View:
  Number of Messages: 1
  Message Number: 1
  Total Satellites in View: 00
  Satellite 1 PRN: 8 - Elevation: ° - Azimuth: ° - SNR:  dB
  Satellite 2 PRN:  - Elevation: ° - Azimuth: ° - SNR:  dB
  Satellite 3 PRN:  - Elevation: ° - Azimuth: ° - SNR:  dB
  Satellite 4 PRN:  - Elevation: ° - Azimuth: ° - SNR:  dB

2024-10-10 13:46:15,198 [INFO] Received Standard NMEA Message: $GLGSV,1,1,00,1*78
2024-10-10 13:46:15,198 [INFO] GSV - Satellites in View:
  Number of Messages: 1
  Message Number: 1
  Total Satellites in View: 00
  Satellite 1 PRN: 1 - Elevation: ° - Azimuth: ° - SNR:  dB
  Satellite 2 PRN:  - Elevation: ° - Azimuth: ° - SNR:  dB
  Satellite 3 PRN:  - Elevation: ° - Azimuth: ° - SNR:  dB
  Satellite 4 PRN:  - Elevation: ° - Azimuth: ° - SNR:  dB

2024-10-10 13:46:15,199 [INFO] Received Standard NMEA Message: $GAGSV,1,1,00,7*73
2024-10-10 13:46:15,199 [INFO] GSV - Satellites in View:
  Number of Messages: 1
  Message Number: 1
  Total Satellites in View: 00
  Satellite 1 PRN: 7 - Elevation: ° - Azimuth: ° - SNR:  dB
  Satellite 2 PRN:  - Elevation: ° - Azimuth: ° - SNR:  dB
  Satellite 3 PRN:  - Elevation: ° - Azimuth: ° - SNR:  dB
  Satellite 4 PRN:  - Elevation: ° - Azimuth: ° - SNR:  dB

2024-10-10 13:46:15,199 [INFO] Received Standard NMEA Message: $GAGSV,1,1,00,1*75
2024-10-10 13:46:15,199 [INFO] GSV - Satellites in View:
  Number of Messages: 1
  Message Number: 1
  Total Satellites in View: 00
  Satellite 1 PRN: 1 - Elevation: ° - Azimuth: ° - SNR:  dB
  Satellite 2 PRN:  - Elevation: ° - Azimuth: ° - SNR:  dB
  Satellite 3 PRN:  - Elevation: ° - Azimuth: ° - SNR:  dB
  Satellite 4 PRN:  - Elevation: ° - Azimuth: ° - SNR:  dB

2024-10-10 13:46:15,199 [INFO] Received Standard NMEA Message: $GBGSV,1,1,00,1*76
2024-10-10 13:46:15,199 [INFO] GSV - Satellites in View:
  Number of Messages: 1
  Message Number: 1
  Total Satellites in View: 00
  Satellite 1 PRN: 1 - Elevation: ° - Azimuth: ° - SNR:  dB
  Satellite 2 PRN:  - Elevation: ° - Azimuth: ° - SNR:  dB
  Satellite 3 PRN:  - Elevation: ° - Azimuth: ° - SNR:  dB
  Satellite 4 PRN:  - Elevation: ° - Azimuth: ° - SNR:  dB

2024-10-10 13:46:15,199 [INFO] Received Standard NMEA Message: $GBGSV,1,1,00,5*72
2024-10-10 13:46:15,200 [INFO] GSV - Satellites in View:
  Number of Messages: 1
  Message Number: 1
  Total Satellites in View: 00
  Satellite 1 PRN: 5 - Elevation: ° - Azimuth: ° - SNR:  dB
  Satellite 2 PRN:  - Elevation: ° - Azimuth: ° - SNR:  dB
  Satellite 3 PRN:  - Elevation: ° - Azimuth: ° - SNR:  dB
  Satellite 4 PRN:  - Elevation: ° - Azimuth: ° - SNR:  dB

2024-10-10 13:46:15,200 [INFO] Received Standard NMEA Message: $GNGLL,,,,,024025.012,V,N*66
2024-10-10 13:46:15,200 [INFO] GLL - Geographic Position:
  Latitude: 0.0 
  Longitude: 0.0 
  Timestamp: 02:40:25.012000+00:00
  Status: V
  FAA Mode: N

2024-10-10 13:46:15,364 [INFO] Received Standard NMEA Message: $GNGGA,204615.000,4910.425828,N,12304.400304,W,2,23,0.61,4.103,M,-16.817,M,,*49
2024-10-10 13:46:15,365 [INFO] GGA - Fix Data:
  Timestamp: 20:46:15+00:00
  Latitude: 49.1737638 N
  Longitude: -123.0733384 W
  GPS Quality Indicator: 2
  Number of Satellites in Use: 23
  Horizontal Dilution of Precision (HDOP): 0.61
  Antenna Altitude (Above Mean Sea Level): 4.103 M
  Geoidal Separation: -16.817 M
  Age of Differential GPS Data: 
  Differential Reference Station ID: 

2024-10-10 13:46:15,370 [INFO] Received Standard NMEA Message: $GNGLL,4910.425828,N,12304.400304,W,204615.000,A,D*5E
2024-10-10 13:46:15,370 [INFO] GLL - Geographic Position:
  Latitude: 49.1737638 N
  Longitude: -123.0733384 W
  Timestamp: 20:46:15+00:00
  Status: A
  FAA Mode: D

2024-10-10 13:46:15,375 [INFO] Received Standard NMEA Message: $GNGSA,A,3,03,04,31,26,09,06,16,28,,,,,0.87,0.61,0.62,1*0E
2024-10-10 13:46:15,375 [INFO] GSA - Satellite Info:
  Mode: A
  Mode Fix Type: 3
  Satellites Used: 03, 04, 31, 26, 09, 06, 16, 28
  PDOP: 0.87
  HDOP: 0.61
  VDOP: 0.62

2024-10-10 13:46:15,377 [INFO] Received Standard NMEA Message: $GNGSA,A,3,67,68,,,,,,,,,,,0.87,0.61,0.62,2*01
2024-10-10 13:46:15,377 [INFO] GSA - Satellite Info:
  Mode: A
  Mode Fix Type: 3
  Satellites Used: 67, 68
  PDOP: 0.87
  HDOP: 0.61
  VDOP: 0.62

2024-10-10 13:46:15,381 [INFO] Received Standard NMEA Message: $GNGSA,A,3,19,29,10,12,27,33,,,,,,,0.87,0.61,0.62,3*0B
2024-10-10 13:46:15,381 [INFO] GSA - Satellite Info:
  Mode: A
  Mode Fix Type: 3
  Satellites Used: 19, 29, 10, 12, 27, 33
  PDOP: 0.87
  HDOP: 0.61
  VDOP: 0.62

2024-10-10 13:46:15,387 [INFO] Received Standard NMEA Message: $GNGSA,A,3,32,41,23,25,20,29,24,,,,,,0.87,0.61,0.62,4*05
2024-10-10 13:46:15,388 [INFO] GSA - Satellite Info:
  Mode: A
  Mode Fix Type: 3
  Satellites Used: 32, 41, 23, 25, 20, 29, 24
  PDOP: 0.87
  HDOP: 0.61
  VDOP: 0.62

2024-10-10 13:46:15,392 [INFO] Received Standard NMEA Message: $GPGSV,3,1,10,03,72,185,35,04,64,289,31,31,52,061,34,26,39,097,30,1*6A
2024-10-10 13:46:15,393 [INFO] GSV - Satellites in View:
  Number of Messages: 3
  Message Number: 1
  Total Satellites in View: 10
  Satellite 1 PRN: 03 - Elevation: 72° - Azimuth: 185° - SNR: 35 dB
  Satellite 2 PRN: 04 - Elevation: 64° - Azimuth: 289° - SNR: 31 dB
  Satellite 3 PRN: 31 - Elevation: 52° - Azimuth: 061° - SNR: 34 dB
  Satellite 4 PRN: 26 - Elevation: 39° - Azimuth: 097° - SNR: 30 dB

2024-10-10 13:46:15,398 [INFO] Received Standard NMEA Message: $GPGSV,3,2,10,09,31,280,27,06,24,309,24,16,23,135,25,28,19,052,24,1*69
2024-10-10 13:46:15,398 [INFO] GSV - Satellites in View:
  Number of Messages: 3
  Message Number: 2
  Total Satellites in View: 10
  Satellite 1 PRN: 09 - Elevation: 31° - Azimuth: 280° - SNR: 27 dB
  Satellite 2 PRN: 06 - Elevation: 24° - Azimuth: 309° - SNR: 24 dB
  Satellite 3 PRN: 16 - Elevation: 23° - Azimuth: 135° - SNR: 25 dB
  Satellite 4 PRN: 28 - Elevation: 19° - Azimuth: 052° - SNR: 24 dB

2024-10-10 13:46:15,403 [INFO] Received Standard NMEA Message: $GPGSV,3,3,10,07,03,225,,02,03,203,16,1*63
2024-10-10 13:46:15,403 [INFO] GSV - Satellites in View:
  Number of Messages: 3
  Message Number: 3
  Total Satellites in View: 10
  Satellite 1 PRN: 07 - Elevation: 03° - Azimuth: 225° - SNR:  dB
  Satellite 2 PRN: 02 - Elevation: 03° - Azimuth: 203° - SNR: 16 dB
  Satellite 3 PRN: 1 - Elevation: ° - Azimuth: ° - SNR:  dB
  Satellite 4 PRN:  - Elevation: ° - Azimuth: ° - SNR:  dB

2024-10-10 13:46:15,409 [INFO] Received Standard NMEA Message: $GLGSV,3,1,09,67,68,065,28,77,60,088,,68,47,313,25,78,29,173,,1*79
2024-10-10 13:46:15,409 [INFO] GSV - Satellites in View:
  Number of Messages: 3
  Message Number: 1
  Total Satellites in View: 09
  Satellite 1 PRN: 67 - Elevation: 68° - Azimuth: 065° - SNR: 28 dB
  Satellite 2 PRN: 77 - Elevation: 60° - Azimuth: 088° - SNR:  dB
  Satellite 3 PRN: 68 - Elevation: 47° - Azimuth: 313° - SNR: 25 dB
  Satellite 4 PRN: 78 - Elevation: 29° - Azimuth: 173° - SNR:  dB

2024-10-10 13:46:15,410 [INFO] Received Standard NMEA Message: $GNGGA,204615.000,4910.425567,N,12304.402198,W,1,23,0.53,4.070,M,-16.817,M,,*4D
2024-10-10 13:46:15,410 [INFO] GGA - Fix Data:
  Timestamp: 20:46:15+00:00
  Latitude: 49.17375945 N
  Longitude: -123.07336996666666 W
  GPS Quality Indicator: 1
  Number of Satellites in Use: 23
  Horizontal Dilution of Precision (HDOP): 0.53
  Antenna Altitude (Above Mean Sea Level): 4.07 M
  Geoidal Separation: -16.817 M
  Age of Differential GPS Data: 
  Differential Reference Station ID: 

2024-10-10 13:46:15,414 [INFO] Received Standard NMEA Message: $GLGSV,3,2,09,76,28,034,19,84,22,326,,83,20,260,,66,18,104,,1*7E
2024-10-10 13:46:15,414 [INFO] GSV - Satellites in View:
  Number of Messages: 3
  Message Number: 2
  Total Satellites in View: 09
  Satellite 1 PRN: 76 - Elevation: 28° - Azimuth: 034° - SNR: 19 dB
  Satellite 2 PRN: 84 - Elevation: 22° - Azimuth: 326° - SNR:  dB
  Satellite 3 PRN: 83 - Elevation: 20° - Azimuth: 260° - SNR:  dB
  Satellite 4 PRN: 66 - Elevation: 18° - Azimuth: 104° - SNR:  dB

2024-10-10 13:46:15,415 [INFO] Received Standard NMEA Message: $GNRMC,204615.000,A,4910.425567,N,12304.402198,W,0.005,144.81,101024,,,A,V*2E
2024-10-10 13:46:15,415 [INFO] RMC - Recommended Minimum:
  Timestamp: 20:46:15+00:00
  Status: A
  Latitude: 49.17375945 N
  Longitude: -123.07336996666666 W
  Speed over Ground: 0.005 knots
  Course over Ground: 144.81
  Date: 2024-10-10
  Magnetic Variation:  
  Mode Indicator: A
  Navigational Status: V

2024-10-10 13:46:15,419 [INFO] Received Standard NMEA Message: $GLGSV,3,3,09,69,02,296,,1*41
2024-10-10 13:46:15,420 [INFO] GSV - Satellites in View:
  Number of Messages: 3
  Message Number: 3
  Total Satellites in View: 09
  Satellite 1 PRN: 69 - Elevation: 02° - Azimuth: 296° - SNR:  dB
  Satellite 2 PRN: 1 - Elevation: ° - Azimuth: ° - SNR:  dB
  Satellite 3 PRN:  - Elevation: ° - Azimuth: ° - SNR:  dB
  Satellite 4 PRN:  - Elevation: ° - Azimuth: ° - SNR:  dB

2024-10-10 13:46:15,420 [INFO] Received Standard NMEA Message: $GNGLL,4910.425567,N,12304.402198,W,204615.000,A,A*58
2024-10-10 13:46:15,421 [INFO] GLL - Geographic Position:
  Latitude: 49.17375945 N
  Longitude: -123.07336996666666 W
  Timestamp: 20:46:15+00:00
  Status: A
  FAA Mode: A

2024-10-10 13:46:15,421 [INFO] Received Standard NMEA Message: $GNVTG,144.81,T,,M,0.005,N,0.009,K,A*27
2024-10-10 13:46:15,421 [INFO] VTG - Course over Ground and Ground Speed:
  True Track: 144.81° T
  Magnetic Track: None° M
  Speed over Ground: 0.005 knots / 0.009 km/h
  FAA Mode: A

2024-10-10 13:46:15,425 [INFO] Received Standard NMEA Message: $GAGSV,3,1,11,19,76,303,25,29,52,080,29,10,36,285,25,12,36,254,19,7*71
2024-10-10 13:46:15,425 [INFO] GSV - Satellites in View:
  Number of Messages: 3
  Message Number: 1
  Total Satellites in View: 11
  Satellite 1 PRN: 19 - Elevation: 76° - Azimuth: 303° - SNR: 25 dB
  Satellite 2 PRN: 29 - Elevation: 52° - Azimuth: 080° - SNR: 29 dB
  Satellite 3 PRN: 10 - Elevation: 36° - Azimuth: 285° - SNR: 25 dB
  Satellite 4 PRN: 12 - Elevation: 36° - Azimuth: 254° - SNR: 19 dB

2024-10-10 13:46:15,427 [INFO] Received Standard NMEA Message: $GNGSA,A,3,03,04,06,09,16,26,28,31,,,,,0.85,0.53,0.66,1*09
2024-10-10 13:46:15,427 [INFO] GSA - Satellite Info:
  Mode: A
  Mode Fix Type: 3
  Satellites Used: 03, 04, 06, 09, 16, 26, 28, 31
  PDOP: 0.85
  HDOP: 0.53
  VDOP: 0.66

2024-10-10 13:46:15,431 [INFO] Received Standard NMEA Message: $GAGSV,3,2,11,27,34,083,27,11,25,314,,21,23,142,21,04,18,273,,7*72
2024-10-10 13:46:15,431 [INFO] GSV - Satellites in View:
  Number of Messages: 3
  Message Number: 2
  Total Satellites in View: 11
  Satellite 1 PRN: 27 - Elevation: 34° - Azimuth: 083° - SNR: 27 dB
  Satellite 2 PRN: 11 - Elevation: 25° - Azimuth: 314° - SNR:  dB
  Satellite 3 PRN: 21 - Elevation: 23° - Azimuth: 142° - SNR: 21 dB
  Satellite 4 PRN: 04 - Elevation: 18° - Azimuth: 273° - SNR:  dB

2024-10-10 13:46:15,432 [INFO] Received Standard NMEA Message: $GNGSA,A,3,,,,,,,,,,,,,0.85,0.53,0.66,2*09
2024-10-10 13:46:15,432 [INFO] GSA - Satellite Info:
  Mode: A
  Mode Fix Type: 3
  Satellites Used: 
  PDOP: 0.85
  HDOP: 0.53
  VDOP: 0.66

2024-10-10 13:46:15,436 [INFO] Received Standard NMEA Message: $GAGSV,3,3,11,30,13,032,,33,12,201,20,07,01,088,,7*47
2024-10-10 13:46:15,436 [INFO] GSV - Satellites in View:
  Number of Messages: 3
  Message Number: 3
  Total Satellites in View: 11
  Satellite 1 PRN: 30 - Elevation: 13° - Azimuth: 032° - SNR:  dB
  Satellite 2 PRN: 33 - Elevation: 12° - Azimuth: 201° - SNR: 20 dB
  Satellite 3 PRN: 07 - Elevation: 01° - Azimuth: 088° - SNR:  dB
  Satellite 4 PRN: 7 - Elevation: ° - Azimuth: ° - SNR:  dB

2024-10-10 13:46:15,438 [INFO] Received Standard NMEA Message: $GNGSA,A,3,10,19,21,27,29,30,33,,,,,,0.85,0.53,0.66,3*0F
2024-10-10 13:46:15,438 [INFO] GSA - Satellite Info:
  Mode: A
  Mode Fix Type: 3
  Satellites Used: 10, 19, 21, 27, 29, 30, 33
  PDOP: 0.85
  HDOP: 0.53
  VDOP: 0.66

2024-10-10 13:46:15,442 [INFO] Received Standard NMEA Message: $GBGSV,3,1,12,32,68,303,31,41,52,116,30,23,51,163,27,25,49,070,28,1*7E
2024-10-10 13:46:15,443 [INFO] GSV - Satellites in View:
  Number of Messages: 3
  Message Number: 1
  Total Satellites in View: 12
  Satellite 1 PRN: 32 - Elevation: 68° - Azimuth: 303° - SNR: 31 dB
  Satellite 2 PRN: 41 - Elevation: 52° - Azimuth: 116° - SNR: 30 dB
  Satellite 3 PRN: 23 - Elevation: 51° - Azimuth: 163° - SNR: 27 dB
  Satellite 4 PRN: 25 - Elevation: 49° - Azimuth: 070° - SNR: 28 dB

2024-10-10 13:46:15,445 [INFO] Received Standard NMEA Message: $GNGSA,A,3,20,23,24,25,29,32,37,41,,,,,0.85,0.53,0.66,4*06
2024-10-10 13:46:15,445 [INFO] GSA - Satellite Info:
  Mode: A
  Mode Fix Type: 3
  Satellites Used: 20, 23, 24, 25, 29, 32, 37, 41
  PDOP: 0.85
  HDOP: 0.53
  VDOP: 0.66

2024-10-10 13:46:15,448 [INFO] Received Standard NMEA Message: $GBGSV,3,2,12,20,12,299,23,37,09,198,,29,09,308,16,31,06,329,,1*79
2024-10-10 13:46:15,448 [INFO] GSV - Satellites in View:
  Number of Messages: 3
  Message Number: 2
  Total Satellites in View: 12
  Satellite 1 PRN: 20 - Elevation: 12° - Azimuth: 299° - SNR: 23 dB
  Satellite 2 PRN: 37 - Elevation: 09° - Azimuth: 198° - SNR:  dB
  Satellite 3 PRN: 29 - Elevation: 09° - Azimuth: 308° - SNR: 16 dB
  Satellite 4 PRN: 31 - Elevation: 06° - Azimuth: 329° - SNR:  dB

2024-10-10 13:46:15,448 [INFO] Received Standard NMEA Message: $GNGSA,A,3,,,,,,,,,,,,,0.85,0.53,0.66,5*0E
2024-10-10 13:46:15,448 [INFO] GSA - Satellite Info:
  Mode: A
  Mode Fix Type: 3
  Satellites Used: 
  PDOP: 0.85
  HDOP: 0.53
  VDOP: 0.66

2024-10-10 13:46:15,453 [INFO] Received Standard NMEA Message: $GBGSV,3,3,12,24,06,037,17,33,04,118,17,30,03,258,,04,01,261,,1*72
2024-10-10 13:46:15,453 [INFO] GSV - Satellites in View:
  Number of Messages: 3
  Message Number: 3
  Total Satellites in View: 12
  Satellite 1 PRN: 24 - Elevation: 06° - Azimuth: 037° - SNR: 17 dB
  Satellite 2 PRN: 33 - Elevation: 04° - Azimuth: 118° - SNR: 17 dB
  Satellite 3 PRN: 30 - Elevation: 03° - Azimuth: 258° - SNR:  dB
  Satellite 4 PRN: 04 - Elevation: 01° - Azimuth: 261° - SNR:  dB

2024-10-10 13:46:15,454 [INFO] Received Standard NMEA Message: $GPGSV,3,1,11,02,02,202,14,03,71,184,30,04,64,289,28,06,24,309,16,1*6A
2024-10-10 13:46:15,454 [INFO] GSV - Satellites in View:
  Number of Messages: 3
  Message Number: 1
  Total Satellites in View: 11
  Satellite 1 PRN: 02 - Elevation: 02° - Azimuth: 202° - SNR: 14 dB
  Satellite 2 PRN: 03 - Elevation: 71° - Azimuth: 184° - SNR: 30 dB
  Satellite 3 PRN: 04 - Elevation: 64° - Azimuth: 289° - SNR: 28 dB
  Satellite 4 PRN: 06 - Elevation: 24° - Azimuth: 309° - SNR: 16 dB

2024-10-10 13:46:15,459 [INFO] Received Standard NMEA Message: $GNRMC,204615.000,A,4910.425828,N,12304.400304,W,0.19,202.12,101024,,,D,V*1E
2024-10-10 13:46:15,460 [INFO] RMC - Recommended Minimum:
  Timestamp: 20:46:15+00:00
  Status: A
  Latitude: 49.1737638 N
  Longitude: -123.0733384 W
  Speed over Ground: 0.19 knots
  Course over Ground: 202.12
  Date: 2024-10-10
  Magnetic Variation:  
  Mode Indicator: D
  Navigational Status: V

2024-10-10 13:46:15,461 [INFO] Received Standard NMEA Message: $GPGSV,3,2,11,07,,,19,09,30,279,22,16,24,134,21,26,39,095,25,1*5D
2024-10-10 13:46:15,461 [INFO] GSV - Satellites in View:
  Number of Messages: 3
  Message Number: 2
  Total Satellites in View: 11
  Satellite 1 PRN: 07 - Elevation: ° - Azimuth: ° - SNR: 19 dB
  Satellite 2 PRN: 09 - Elevation: 30° - Azimuth: 279° - SNR: 22 dB
  Satellite 3 PRN: 16 - Elevation: 24° - Azimuth: 134° - SNR: 21 dB
  Satellite 4 PRN: 26 - Elevation: 39° - Azimuth: 095° - SNR: 25 dB

2024-10-10 13:46:15,463 [INFO] Received Standard NMEA Message: $GNVTG,202.12,T,,M,0.19,N,0.35,K,D*2B
2024-10-10 13:46:15,463 [INFO] VTG - Course over Ground and Ground Speed:
  True Track: 202.12° T
  Magnetic Track: None° M
  Speed over Ground: 0.19 knots / 0.35 km/h
  FAA Mode: D

2024-10-10 13:46:15,464 [INFO] Received Standard NMEA Message: $GPGSV,3,3,11,28,17,052,20,31,50,060,27,46,33,187,25,1*52
2024-10-10 13:46:15,465 [INFO] GSV - Satellites in View:
  Number of Messages: 3
  Message Number: 3
  Total Satellites in View: 11
  Satellite 1 PRN: 28 - Elevation: 17° - Azimuth: 052° - SNR: 20 dB
  Satellite 2 PRN: 31 - Elevation: 50° - Azimuth: 060° - SNR: 27 dB
  Satellite 3 PRN: 46 - Elevation: 33° - Azimuth: 187° - SNR: 25 dB
  Satellite 4 PRN: 1 - Elevation: ° - Azimuth: ° - SNR:  dB

2024-10-10 13:46:15,471 [INFO] Received Standard NMEA Message: $GPGSV,2,1,05,03,71,184,21,04,64,289,23,06,24,309,17,09,30,279,18,8*67
2024-10-10 13:46:15,471 [INFO] GSV - Satellites in View:
  Number of Messages: 2
  Message Number: 1
  Total Satellites in View: 05
  Satellite 1 PRN: 03 - Elevation: 71° - Azimuth: 184° - SNR: 21 dB
  Satellite 2 PRN: 04 - Elevation: 64° - Azimuth: 289° - SNR: 23 dB
  Satellite 3 PRN: 06 - Elevation: 24° - Azimuth: 309° - SNR: 17 dB
  Satellite 4 PRN: 09 - Elevation: 30° - Azimuth: 279° - SNR: 18 dB

2024-10-10 13:46:15,471 [INFO] Received Standard NMEA Message: $GPGSV,2,2,05,28,17,052,14,8*56
2024-10-10 13:46:15,471 [INFO] GSV - Satellites in View:
  Number of Messages: 2
  Message Number: 2
  Total Satellites in View: 05
  Satellite 1 PRN: 28 - Elevation: 17° - Azimuth: 052° - SNR: 14 dB
  Satellite 2 PRN: 8 - Elevation: ° - Azimuth: ° - SNR:  dB
  Satellite 3 PRN:  - Elevation: ° - Azimuth: ° - SNR:  dB
  Satellite 4 PRN:  - Elevation: ° - Azimuth: ° - SNR:  dB

2024-10-10 13:46:15,476 [INFO] Received Standard NMEA Message: $GLGSV,1,1,00,1*78
2024-10-10 13:46:15,476 [INFO] GSV - Satellites in View:
  Number of Messages: 1
  Message Number: 1
  Total Satellites in View: 00
  Satellite 1 PRN: 1 - Elevation: ° - Azimuth: ° - SNR:  dB
  Satellite 2 PRN:  - Elevation: ° - Azimuth: ° - SNR:  dB
  Satellite 3 PRN:  - Elevation: ° - Azimuth: ° - SNR:  dB
  Satellite 4 PRN:  - Elevation: ° - Azimuth: ° - SNR:  dB

2024-10-10 13:46:15,481 [INFO] Received Standard NMEA Message: $GAGSV,2,1,08,10,35,283,21,12,41,264,17,19,76,304,20,21,23,141,21,7*7C
2024-10-10 13:46:15,482 [INFO] GSV - Satellites in View:
  Number of Messages: 2
  Message Number: 1
  Total Satellites in View: 08
  Satellite 1 PRN: 10 - Elevation: 35° - Azimuth: 283° - SNR: 21 dB
  Satellite 2 PRN: 12 - Elevation: 41° - Azimuth: 264° - SNR: 17 dB
  Satellite 3 PRN: 19 - Elevation: 76° - Azimuth: 304° - SNR: 20 dB
  Satellite 4 PRN: 21 - Elevation: 23° - Azimuth: 141° - SNR: 21 dB

2024-10-10 13:46:15,487 [INFO] Received Standard NMEA Message: $GAGSV,2,2,08,27,34,081,22,29,51,080,24,30,12,031,18,33,11,201,19,7*71
2024-10-10 13:46:15,487 [INFO] GSV - Satellites in View:
  Number of Messages: 2
  Message Number: 2
  Total Satellites in View: 08
  Satellite 1 PRN: 27 - Elevation: 34° - Azimuth: 081° - SNR: 22 dB
  Satellite 2 PRN: 29 - Elevation: 51° - Azimuth: 080° - SNR: 24 dB
  Satellite 3 PRN: 30 - Elevation: 12° - Azimuth: 031° - SNR: 18 dB
  Satellite 4 PRN: 33 - Elevation: 11° - Azimuth: 201° - SNR: 19 dB

2024-10-10 13:46:15,493 [INFO] Received Standard NMEA Message: $GAGSV,2,1,05,10,35,283,17,12,41,264,16,19,76,304,17,27,34,081,17,1*7F
2024-10-10 13:46:15,493 [INFO] GSV - Satellites in View:
  Number of Messages: 2
  Message Number: 1
  Total Satellites in View: 05
  Satellite 1 PRN: 10 - Elevation: 35° - Azimuth: 283° - SNR: 17 dB
  Satellite 2 PRN: 12 - Elevation: 41° - Azimuth: 264° - SNR: 16 dB
  Satellite 3 PRN: 19 - Elevation: 76° - Azimuth: 304° - SNR: 17 dB
  Satellite 4 PRN: 27 - Elevation: 34° - Azimuth: 081° - SNR: 17 dB

2024-10-10 13:46:15,498 [INFO] Received Standard NMEA Message: $GAGSV,2,2,05,29,51,080,19,1*4F
2024-10-10 13:46:15,498 [INFO] GSV - Satellites in View:
  Number of Messages: 2
  Message Number: 2
  Total Satellites in View: 05
  Satellite 1 PRN: 29 - Elevation: 51° - Azimuth: 080° - SNR: 19 dB
  Satellite 2 PRN: 1 - Elevation: ° - Azimuth: ° - SNR:  dB
  Satellite 3 PRN:  - Elevation: ° - Azimuth: ° - SNR:  dB
  Satellite 4 PRN:  - Elevation: ° - Azimuth: ° - SNR:  dB

2024-10-10 13:46:15,504 [INFO] Received Standard NMEA Message: $GBGSV,3,1,10,20,12,299,29,23,50,162,35,24,05,036,21,25,48,069,35,1*7D
2024-10-10 13:46:15,504 [INFO] GSV - Satellites in View:
  Number of Messages: 3
  Message Number: 1
  Total Satellites in View: 10
  Satellite 1 PRN: 20 - Elevation: 12° - Azimuth: 299° - SNR: 29 dB
  Satellite 2 PRN: 23 - Elevation: 50° - Azimuth: 162° - SNR: 35 dB
  Satellite 3 PRN: 24 - Elevation: 05° - Azimuth: 036° - SNR: 21 dB
  Satellite 4 PRN: 25 - Elevation: 48° - Azimuth: 069° - SNR: 35 dB

2024-10-10 13:46:15,510 [INFO] Received Standard NMEA Message: $GBGSV,3,2,10,29,08,307,25,30,03,257,18,32,68,302,39,33,03,118,25,1*77
2024-10-10 13:46:15,510 [INFO] GSV - Satellites in View:
  Number of Messages: 3
  Message Number: 2
  Total Satellites in View: 10
  Satellite 1 PRN: 29 - Elevation: 08° - Azimuth: 307° - SNR: 25 dB
  Satellite 2 PRN: 30 - Elevation: 03° - Azimuth: 257° - SNR: 18 dB
  Satellite 3 PRN: 32 - Elevation: 68° - Azimuth: 302° - SNR: 39 dB
  Satellite 4 PRN: 33 - Elevation: 03° - Azimuth: 118° - SNR: 25 dB

2024-10-10 13:46:15,514 [INFO] Received Standard NMEA Message: $GBGSV,3,3,10,37,09,198,23,41,52,116,35,1*79
2024-10-10 13:46:15,515 [INFO] GSV - Satellites in View:
  Number of Messages: 3
  Message Number: 3
  Total Satellites in View: 10
  Satellite 1 PRN: 37 - Elevation: 09° - Azimuth: 198° - SNR: 23 dB
  Satellite 2 PRN: 41 - Elevation: 52° - Azimuth: 116° - SNR: 35 dB
  Satellite 3 PRN: 1 - Elevation: ° - Azimuth: ° - SNR:  dB
  Satellite 4 PRN:  - Elevation: ° - Azimuth: ° - SNR:  dB

2024-10-10 13:46:15,515 [INFO] Received Standard NMEA Message: $GBGSV,1,1,02,32,68,302,21,41,52,116,20,5*7B
2024-10-10 13:46:15,515 [INFO] GSV - Satellites in View:
  Number of Messages: 1
  Message Number: 1
  Total Satellites in View: 02
  Satellite 1 PRN: 32 - Elevation: 68° - Azimuth: 302° - SNR: 21 dB
  Satellite 2 PRN: 41 - Elevation: 52° - Azimuth: 116° - SNR: 20 dB
  Satellite 3 PRN: 5 - Elevation: ° - Azimuth: ° - SNR:  dB
  Satellite 4 PRN:  - Elevation: ° - Azimuth: ° - SNR:  dB

2024-10-10 13:46:15,519 [INFO] Received Standard NMEA Message: $GQGSV,1,1,00,1*65
2024-10-10 13:46:15,519 [INFO] GSV - Satellites in View:
  Number of Messages: 1
  Message Number: 1
  Total Satellites in View: 00
  Satellite 1 PRN: 1 - Elevation: ° - Azimuth: ° - SNR:  dB
  Satellite 2 PRN:  - Elevation: ° - Azimuth: ° - SNR:  dB
  Satellite 3 PRN:  - Elevation: ° - Azimuth: ° - SNR:  dB
  Satellite 4 PRN:  - Elevation: ° - Azimuth: ° - SNR:  dB

2024-10-10 13:46:15,519 [INFO] Received Standard NMEA Message: $GQGSV,1,1,00,8*6C
2024-10-10 13:46:15,519 [INFO] GSV - Satellites in View:
  Number of Messages: 1
  Message Number: 1
  Total Satellites in View: 00
  Satellite 1 PRN: 8 - Elevation: ° - Azimuth: ° - SNR:  dB
  Satellite 2 PRN:  - Elevation: ° - Azimuth: ° - SNR:  dB
  Satellite 3 PRN:  - Elevation: ° - Azimuth: ° - SNR:  dB
  Satellite 4 PRN:  - Elevation: ° - Azimuth: ° - SNR:  dB

2024-10-10 13:46:16,189 [INFO] Received Standard NMEA Message: $GNRMC,024026.012,V,,,,,,,060180,,,N,V*27
2024-10-10 13:46:16,190 [INFO] RMC - Recommended Minimum:
  Timestamp: 02:40:26.012000+00:00
  Status: V
  Latitude: 0.0 
  Longitude: 0.0 
  Speed over Ground: None knots
  Course over Ground: None
  Date: 1980-01-06
  Magnetic Variation:  
  Mode Indicator: N
  Navigational Status: V

2024-10-10 13:46:16,190 [INFO] Received Standard NMEA Message: $GNGGA,024026.012,,,,,0,0,,,M,,M,,*57
2024-10-10 13:46:16,191 [INFO] GGA - Fix Data:
  Timestamp: 02:40:26.012000+00:00
  Latitude: 0.0 
  Longitude: 0.0 
  GPS Quality Indicator: 0
  Number of Satellites in Use: 0
  Horizontal Dilution of Precision (HDOP): 
  Antenna Altitude (Above Mean Sea Level): None M
  Geoidal Separation:  M
  Age of Differential GPS Data: 
  Differential Reference Station ID: 

2024-10-10 13:46:16,191 [INFO] Received Standard NMEA Message: $GNVTG,,T,,M,,N,,K,N*32
2024-10-10 13:46:16,191 [INFO] VTG - Course over Ground and Ground Speed:
  True Track: None° T
  Magnetic Track: None° M
  Speed over Ground: None knots / None km/h
  FAA Mode: N

2024-10-10 13:46:16,192 [INFO] Received Standard NMEA Message: $GNGSA,A,1,,,,,,,,,,,,,,,,1*1D
2024-10-10 13:46:16,192 [INFO] GSA - Satellite Info:
  Mode: A
  Mode Fix Type: 1
  Satellites Used: 
  PDOP: 
  HDOP: 
  VDOP: 

2024-10-10 13:46:16,192 [INFO] Received Standard NMEA Message: $GNGSA,A,1,,,,,,,,,,,,,,,,2*1E
2024-10-10 13:46:16,193 [INFO] GSA - Satellite Info:
  Mode: A
  Mode Fix Type: 1
  Satellites Used: 
  PDOP: 
  HDOP: 
  VDOP: 

2024-10-10 13:46:16,193 [INFO] Received Standard NMEA Message: $GNGSA,A,1,,,,,,,,,,,,,,,,3*1F
2024-10-10 13:46:16,193 [INFO] GSA - Satellite Info:
  Mode: A
  Mode Fix Type: 1
  Satellites Used: 
  PDOP: 
  HDOP: 
  VDOP: 

2024-10-10 13:46:16,193 [INFO] Received Standard NMEA Message: $GNGSA,A,1,,,,,,,,,,,,,,,,4*18
2024-10-10 13:46:16,194 [INFO] GSA - Satellite Info:
  Mode: A
  Mode Fix Type: 1
  Satellites Used: 
  PDOP: 
  HDOP: 
  VDOP: 

2024-10-10 13:46:16,194 [INFO] Received Standard NMEA Message: $GPGSV,1,1,00,1*64
2024-10-10 13:46:16,194 [INFO] GSV - Satellites in View:
  Number of Messages: 1
  Message Number: 1
  Total Satellites in View: 00
  Satellite 1 PRN: 1 - Elevation: ° - Azimuth: ° - SNR:  dB
  Satellite 2 PRN:  - Elevation: ° - Azimuth: ° - SNR:  dB
  Satellite 3 PRN:  - Elevation: ° - Azimuth: ° - SNR:  dB
  Satellite 4 PRN:  - Elevation: ° - Azimuth: ° - SNR:  dB

2024-10-10 13:46:16,194 [INFO] Received Standard NMEA Message: $GPGSV,1,1,00,8*6D
2024-10-10 13:46:16,194 [INFO] GSV - Satellites in View:
  Number of Messages: 1
  Message Number: 1
  Total Satellites in View: 00
  Satellite 1 PRN: 8 - Elevation: ° - Azimuth: ° - SNR:  dB
  Satellite 2 PRN:  - Elevation: ° - Azimuth: ° - SNR:  dB
  Satellite 3 PRN:  - Elevation: ° - Azimuth: ° - SNR:  dB
  Satellite 4 PRN:  - Elevation: ° - Azimuth: ° - SNR:  dB

2024-10-10 13:46:16,194 [INFO] Received Standard NMEA Message: $GLGSV,1,1,00,1*78
2024-10-10 13:46:16,194 [INFO] GSV - Satellites in View:
  Number of Messages: 1
  Message Number: 1
  Total Satellites in View: 00
  Satellite 1 PRN: 1 - Elevation: ° - Azimuth: ° - SNR:  dB
  Satellite 2 PRN:  - Elevation: ° - Azimuth: ° - SNR:  dB
  Satellite 3 PRN:  - Elevation: ° - Azimuth: ° - SNR:  dB
  Satellite 4 PRN:  - Elevation: ° - Azimuth: ° - SNR:  dB

2024-10-10 13:46:16,195 [INFO] Received Standard NMEA Message: $GAGSV,1,1,00,7*73
2024-10-10 13:46:16,195 [INFO] GSV - Satellites in View:
  Number of Messages: 1
  Message Number: 1
  Total Satellites in View: 00
  Satellite 1 PRN: 7 - Elevation: ° - Azimuth: ° - SNR:  dB
  Satellite 2 PRN:  - Elevation: ° - Azimuth: ° - SNR:  dB
  Satellite 3 PRN:  - Elevation: ° - Azimuth: ° - SNR:  dB
  Satellite 4 PRN:  - Elevation: ° - Azimuth: ° - SNR:  dB

2024-10-10 13:46:16,195 [INFO] Received Standard NMEA Message: $GAGSV,1,1,00,1*75
2024-10-10 13:46:16,195 [INFO] GSV - Satellites in View:
  Number of Messages: 1
  Message Number: 1
  Total Satellites in View: 00
  Satellite 1 PRN: 1 - Elevation: ° - Azimuth: ° - SNR:  dB
  Satellite 2 PRN:  - Elevation: ° - Azimuth: ° - SNR:  dB
  Satellite 3 PRN:  - Elevation: ° - Azimuth: ° - SNR:  dB
  Satellite 4 PRN:  - Elevation: ° - Azimuth: ° - SNR:  dB

2024-10-10 13:46:16,195 [INFO] Received Standard NMEA Message: $GBGSV,1,1,00,1*76
2024-10-10 13:46:16,195 [INFO] GSV - Satellites in View:
  Number of Messages: 1
  Message Number: 1
  Total Satellites in View: 00
  Satellite 1 PRN: 1 - Elevation: ° - Azimuth: ° - SNR:  dB
  Satellite 2 PRN:  - Elevation: ° - Azimuth: ° - SNR:  dB
  Satellite 3 PRN:  - Elevation: ° - Azimuth: ° - SNR:  dB
  Satellite 4 PRN:  - Elevation: ° - Azimuth: ° - SNR:  dB

2024-10-10 13:46:16,195 [INFO] Received Standard NMEA Message: $GBGSV,1,1,00,5*72
2024-10-10 13:46:16,195 [INFO] GSV - Satellites in View:
  Number of Messages: 1
  Message Number: 1
  Total Satellites in View: 00
  Satellite 1 PRN: 5 - Elevation: ° - Azimuth: ° - SNR:  dB
  Satellite 2 PRN:  - Elevation: ° - Azimuth: ° - SNR:  dB
  Satellite 3 PRN:  - Elevation: ° - Azimuth: ° - SNR:  dB
  Satellite 4 PRN:  - Elevation: ° - Azimuth: ° - SNR:  dB

2024-10-10 13:46:16,196 [INFO] Received Standard NMEA Message: $GNGLL,,,,,024026.012,V,N*65
2024-10-10 13:46:16,196 [INFO] GLL - Geographic Position:
  Latitude: 0.0 
  Longitude: 0.0 
  Timestamp: 02:40:26.012000+00:00
  Status: V
  FAA Mode: N

2024-10-10 13:46:16,358 [INFO] Received Standard NMEA Message: $GNGGA,204616.000,4910.425846,N,12304.400262,W,2,23,0.61,4.069,M,-16.816,M,,*4F
2024-10-10 13:46:16,358 [INFO] GGA - Fix Data:
  Timestamp: 20:46:16+00:00
  Latitude: 49.1737641 N
  Longitude: -123.0733377 W
  GPS Quality Indicator: 2
  Number of Satellites in Use: 23
  Horizontal Dilution of Precision (HDOP): 0.61
  Antenna Altitude (Above Mean Sea Level): 4.069 M
  Geoidal Separation: -16.816 M
  Age of Differential GPS Data: 
  Differential Reference Station ID: 

2024-10-10 13:46:16,363 [INFO] Received Standard NMEA Message: $GNGLL,4910.425846,N,12304.400262,W,204616.000,A,D*54
2024-10-10 13:46:16,363 [INFO] GLL - Geographic Position:
  Latitude: 49.1737641 N
  Longitude: -123.0733377 W
  Timestamp: 20:46:16+00:00
  Status: A
  FAA Mode: D

2024-10-10 13:46:16,369 [INFO] Received Standard NMEA Message: $GNGSA,A,3,03,04,31,26,09,06,16,28,,,,,0.87,0.61,0.62,1*0E
2024-10-10 13:46:16,370 [INFO] GSA - Satellite Info:
  Mode: A
  Mode Fix Type: 3
  Satellites Used: 03, 04, 31, 26, 09, 06, 16, 28
  PDOP: 0.87
  HDOP: 0.61
  VDOP: 0.62

2024-10-10 13:46:16,370 [INFO] Received Standard NMEA Message: $GNGSA,A,3,67,68,,,,,,,,,,,0.87,0.61,0.62,2*01
2024-10-10 13:46:16,370 [INFO] GSA - Satellite Info:
  Mode: A
  Mode Fix Type: 3
  Satellites Used: 67, 68
  PDOP: 0.87
  HDOP: 0.61
  VDOP: 0.62

2024-10-10 13:46:16,375 [INFO] Received Standard NMEA Message: $GNGSA,A,3,19,29,10,12,27,33,,,,,,,0.87,0.61,0.62,3*0B
2024-10-10 13:46:16,375 [INFO] GSA - Satellite Info:
  Mode: A
  Mode Fix Type: 3
  Satellites Used: 19, 29, 10, 12, 27, 33
  PDOP: 0.87
  HDOP: 0.61
  VDOP: 0.62

2024-10-10 13:46:16,380 [INFO] Received Standard NMEA Message: $GNGSA,A,3,32,41,23,25,20,29,24,,,,,,0.87,0.61,0.62,4*05
2024-10-10 13:46:16,380 [INFO] GSA - Satellite Info:
  Mode: A
  Mode Fix Type: 3
  Satellites Used: 32, 41, 23, 25, 20, 29, 24
  PDOP: 0.87
  HDOP: 0.61
  VDOP: 0.62

2024-10-10 13:46:16,383 [INFO] Received Standard NMEA Message: $GNGGA,204616.000,4910.425568,N,12304.402197,W,1,23,0.56,4.072,M,-16.817,M,,*49
2024-10-10 13:46:16,383 [INFO] GGA - Fix Data:
  Timestamp: 20:46:16+00:00
  Latitude: 49.17375946666667 N
  Longitude: -123.07336995 W
  GPS Quality Indicator: 1
  Number of Satellites in Use: 23
  Horizontal Dilution of Precision (HDOP): 0.56
  Antenna Altitude (Above Mean Sea Level): 4.072 M
  Geoidal Separation: -16.817 M
  Age of Differential GPS Data: 
  Differential Reference Station ID: 

2024-10-10 13:46:16,386 [INFO] Received Standard NMEA Message: $GPGSV,3,1,11,03,72,185,35,04,64,289,31,31,52,061,33,26,39,097,29,1*64
2024-10-10 13:46:16,386 [INFO] GSV - Satellites in View:
  Number of Messages: 3
  Message Number: 1
  Total Satellites in View: 11
  Satellite 1 PRN: 03 - Elevation: 72° - Azimuth: 185° - SNR: 35 dB
  Satellite 2 PRN: 04 - Elevation: 64° - Azimuth: 289° - SNR: 31 dB
  Satellite 3 PRN: 31 - Elevation: 52° - Azimuth: 061° - SNR: 33 dB
  Satellite 4 PRN: 26 - Elevation: 39° - Azimuth: 097° - SNR: 29 dB

2024-10-10 13:46:16,388 [INFO] Received Standard NMEA Message: $GNRMC,204616.000,A,4910.425568,N,12304.402197,W,0.013,144.81,101024,,,A,V*2A
2024-10-10 13:46:16,389 [INFO] RMC - Recommended Minimum:
  Timestamp: 20:46:16+00:00
  Status: A
  Latitude: 49.17375946666667 N
  Longitude: -123.07336995 W
  Speed over Ground: 0.013 knots
  Course over Ground: 144.81
  Date: 2024-10-10
  Magnetic Variation:  
  Mode Indicator: A
  Navigational Status: V

2024-10-10 13:46:16,391 [INFO] Received Standard NMEA Message: $GPGSV,3,2,11,09,31,280,27,06,24,309,24,16,23,135,24,28,19,052,24,1*69
2024-10-10 13:46:16,391 [INFO] GSV - Satellites in View:
  Number of Messages: 3
  Message Number: 2
  Total Satellites in View: 11
  Satellite 1 PRN: 09 - Elevation: 31° - Azimuth: 280° - SNR: 27 dB
  Satellite 2 PRN: 06 - Elevation: 24° - Azimuth: 309° - SNR: 24 dB
  Satellite 3 PRN: 16 - Elevation: 23° - Azimuth: 135° - SNR: 24 dB
  Satellite 4 PRN: 28 - Elevation: 19° - Azimuth: 052° - SNR: 24 dB

2024-10-10 13:46:16,395 [INFO] Received Standard NMEA Message: $GNGLL,4910.425568,N,12304.402197,W,204616.000,A,A*5B
2024-10-10 13:46:16,395 [INFO] GLL - Geographic Position:
  Latitude: 49.17375946666667 N
  Longitude: -123.07336995 W
  Timestamp: 20:46:16+00:00
  Status: A
  FAA Mode: A

2024-10-10 13:46:16,395 [INFO] Received Standard NMEA Message: $GNVTG,144.81,T,,M,0.013,N,0.024,K,A*2F
2024-10-10 13:46:16,396 [INFO] VTG - Course over Ground and Ground Speed:
  True Track: 144.81° T
  Magnetic Track: None° M
  Speed over Ground: 0.013 knots / 0.024 km/h
  FAA Mode: A

2024-10-10 13:46:16,397 [INFO] Received Standard NMEA Message: $GPGSV,3,3,11,07,03,225,,02,03,203,17,38,,,,1*68
2024-10-10 13:46:16,397 [INFO] GSV - Satellites in View:
  Number of Messages: 3
  Message Number: 3
  Total Satellites in View: 11
  Satellite 1 PRN: 07 - Elevation: 03° - Azimuth: 225° - SNR:  dB
  Satellite 2 PRN: 02 - Elevation: 03° - Azimuth: 203° - SNR: 17 dB
  Satellite 3 PRN: 38 - Elevation: ° - Azimuth: ° - SNR:  dB
  Satellite 4 PRN: 1 - Elevation: ° - Azimuth: ° - SNR:  dB

2024-10-10 13:46:16,401 [INFO] Received Standard NMEA Message: $GNGSA,A,3,03,04,06,09,16,26,28,31,,,,,0.89,0.56,0.69,1*0F
2024-10-10 13:46:16,402 [INFO] GSA - Satellite Info:
  Mode: A
  Mode Fix Type: 3
  Satellites Used: 03, 04, 06, 09, 16, 26, 28, 31
  PDOP: 0.89
  HDOP: 0.56
  VDOP: 0.69

2024-10-10 13:46:16,403 [INFO] Received Standard NMEA Message: $GLGSV,2,1,07,67,68,065,28,77,60,088,,68,47,313,26,78,29,173,,1*75
2024-10-10 13:46:16,403 [INFO] GSV - Satellites in View:
  Number of Messages: 2
  Message Number: 1
  Total Satellites in View: 07
  Satellite 1 PRN: 67 - Elevation: 68° - Azimuth: 065° - SNR: 28 dB
  Satellite 2 PRN: 77 - Elevation: 60° - Azimuth: 088° - SNR:  dB
  Satellite 3 PRN: 68 - Elevation: 47° - Azimuth: 313° - SNR: 26 dB
  Satellite 4 PRN: 78 - Elevation: 29° - Azimuth: 173° - SNR:  dB

2024-10-10 13:46:16,405 [INFO] Received Standard NMEA Message: $GNGSA,A,3,,,,,,,,,,,,,0.89,0.56,0.69,2*0F
2024-10-10 13:46:16,405 [INFO] GSA - Satellite Info:
  Mode: A
  Mode Fix Type: 3
  Satellites Used: 
  PDOP: 0.89
  HDOP: 0.56
  VDOP: 0.69

2024-10-10 13:46:16,408 [INFO] Received Standard NMEA Message: $GLGSV,2,2,07,76,28,034,19,83,20,260,,69,02,296,,1*46
2024-10-10 13:46:16,408 [INFO] GSV - Satellites in View:
  Number of Messages: 2
  Message Number: 2
  Total Satellites in View: 07
  Satellite 1 PRN: 76 - Elevation: 28° - Azimuth: 034° - SNR: 19 dB
  Satellite 2 PRN: 83 - Elevation: 20° - Azimuth: 260° - SNR:  dB
  Satellite 3 PRN: 69 - Elevation: 02° - Azimuth: 296° - SNR:  dB
  Satellite 4 PRN: 1 - Elevation: ° - Azimuth: ° - SNR:  dB

2024-10-10 13:46:16,411 [INFO] Received Standard NMEA Message: $GNGSA,A,3,10,19,21,27,29,30,33,,,,,,0.89,0.56,0.69,3*09
2024-10-10 13:46:16,411 [INFO] GSA - Satellite Info:
  Mode: A
  Mode Fix Type: 3
  Satellites Used: 10, 19, 21, 27, 29, 30, 33
  PDOP: 0.89
  HDOP: 0.56
  VDOP: 0.69

2024-10-10 13:46:16,413 [INFO] Received Standard NMEA Message: $GAGSV,3,1,11,19,76,303,24,29,52,080,28,10,36,285,25,12,36,254,19,7*71
2024-10-10 13:46:16,413 [INFO] GSV - Satellites in View:
  Number of Messages: 3
  Message Number: 1
  Total Satellites in View: 11
  Satellite 1 PRN: 19 - Elevation: 76° - Azimuth: 303° - SNR: 24 dB
  Satellite 2 PRN: 29 - Elevation: 52° - Azimuth: 080° - SNR: 28 dB
  Satellite 3 PRN: 10 - Elevation: 36° - Azimuth: 285° - SNR: 25 dB
  Satellite 4 PRN: 12 - Elevation: 36° - Azimuth: 254° - SNR: 19 dB

2024-10-10 13:46:16,417 [INFO] Received Standard NMEA Message: $GNGSA,A,3,20,23,24,25,29,32,37,41,,,,,0.89,0.56,0.69,4*00
2024-10-10 13:46:16,417 [INFO] GSA - Satellite Info:
  Mode: A
  Mode Fix Type: 3
  Satellites Used: 20, 23, 24, 25, 29, 32, 37, 41
  PDOP: 0.89
  HDOP: 0.56
  VDOP: 0.69

2024-10-10 13:46:16,419 [INFO] Received Standard NMEA Message: $GAGSV,3,2,11,27,34,083,27,11,25,314,,21,23,142,21,04,18,273,,7*72
2024-10-10 13:46:16,419 [INFO] GSV - Satellites in View:
  Number of Messages: 3
  Message Number: 2
  Total Satellites in View: 11
  Satellite 1 PRN: 27 - Elevation: 34° - Azimuth: 083° - SNR: 27 dB
  Satellite 2 PRN: 11 - Elevation: 25° - Azimuth: 314° - SNR:  dB
  Satellite 3 PRN: 21 - Elevation: 23° - Azimuth: 142° - SNR: 21 dB
  Satellite 4 PRN: 04 - Elevation: 18° - Azimuth: 273° - SNR:  dB

2024-10-10 13:46:16,421 [INFO] Received Standard NMEA Message: $GNGSA,A,3,,,,,,,,,,,,,0.89,0.56,0.69,5*08
2024-10-10 13:46:16,422 [INFO] GSA - Satellite Info:
  Mode: A
  Mode Fix Type: 3
  Satellites Used: 
  PDOP: 0.89
  HDOP: 0.56
  VDOP: 0.69

2024-10-10 13:46:16,424 [INFO] Received Standard NMEA Message: $GAGSV,3,3,11,30,13,032,,33,12,201,20,07,01,088,,7*47
2024-10-10 13:46:16,424 [INFO] GSV - Satellites in View:
  Number of Messages: 3
  Message Number: 3
  Total Satellites in View: 11
  Satellite 1 PRN: 30 - Elevation: 13° - Azimuth: 032° - SNR:  dB
  Satellite 2 PRN: 33 - Elevation: 12° - Azimuth: 201° - SNR: 20 dB
  Satellite 3 PRN: 07 - Elevation: 01° - Azimuth: 088° - SNR:  dB
  Satellite 4 PRN: 7 - Elevation: ° - Azimuth: ° - SNR:  dB

2024-10-10 13:46:16,428 [INFO] Received Standard NMEA Message: $GPGSV,3,1,10,02,02,202,13,03,71,184,31,04,64,289,27,06,24,309,16,1*62
2024-10-10 13:46:16,428 [INFO] GSV - Satellites in View:
  Number of Messages: 3
  Message Number: 1
  Total Satellites in View: 10
  Satellite 1 PRN: 02 - Elevation: 02° - Azimuth: 202° - SNR: 13 dB
  Satellite 2 PRN: 03 - Elevation: 71° - Azimuth: 184° - SNR: 31 dB
  Satellite 3 PRN: 04 - Elevation: 64° - Azimuth: 289° - SNR: 27 dB
  Satellite 4 PRN: 06 - Elevation: 24° - Azimuth: 309° - SNR: 16 dB

2024-10-10 13:46:16,430 [INFO] Received Standard NMEA Message: $GBGSV,3,1,12,32,68,303,31,41,52,116,30,23,51,163,28,25,49,070,28,1*71
2024-10-10 13:46:16,430 [INFO] GSV - Satellites in View:
  Number of Messages: 3
  Message Number: 1
  Total Satellites in View: 12
  Satellite 1 PRN: 32 - Elevation: 68° - Azimuth: 303° - SNR: 31 dB
  Satellite 2 PRN: 41 - Elevation: 52° - Azimuth: 116° - SNR: 30 dB
  Satellite 3 PRN: 23 - Elevation: 51° - Azimuth: 163° - SNR: 28 dB
  Satellite 4 PRN: 25 - Elevation: 49° - Azimuth: 070° - SNR: 28 dB

2024-10-10 13:46:16,433 [INFO] Received Standard NMEA Message: $GPGSV,3,2,10,09,30,279,23,16,24,134,21,26,39,095,25,28,17,052,19,1*61
2024-10-10 13:46:16,433 [INFO] GSV - Satellites in View:
  Number of Messages: 3
  Message Number: 2
  Total Satellites in View: 10
  Satellite 1 PRN: 09 - Elevation: 30° - Azimuth: 279° - SNR: 23 dB
  Satellite 2 PRN: 16 - Elevation: 24° - Azimuth: 134° - SNR: 21 dB
  Satellite 3 PRN: 26 - Elevation: 39° - Azimuth: 095° - SNR: 25 dB
  Satellite 4 PRN: 28 - Elevation: 17° - Azimuth: 052° - SNR: 19 dB

2024-10-10 13:46:16,436 [INFO] Received Standard NMEA Message: $GBGSV,3,2,12,20,12,299,23,29,09,308,16,37,09,198,,31,06,329,,1*79
2024-10-10 13:46:16,436 [INFO] GSV - Satellites in View:
  Number of Messages: 3
  Message Number: 2
  Total Satellites in View: 12
  Satellite 1 PRN: 20 - Elevation: 12° - Azimuth: 299° - SNR: 23 dB
  Satellite 2 PRN: 29 - Elevation: 09° - Azimuth: 308° - SNR: 16 dB
  Satellite 3 PRN: 37 - Elevation: 09° - Azimuth: 198° - SNR:  dB
  Satellite 4 PRN: 31 - Elevation: 06° - Azimuth: 329° - SNR:  dB

2024-10-10 13:46:16,438 [INFO] Received Standard NMEA Message: $GPGSV,3,3,10,31,50,060,28,46,33,187,25,1*65
2024-10-10 13:46:16,438 [INFO] GSV - Satellites in View:
  Number of Messages: 3
  Message Number: 3
  Total Satellites in View: 10
  Satellite 1 PRN: 31 - Elevation: 50° - Azimuth: 060° - SNR: 28 dB
  Satellite 2 PRN: 46 - Elevation: 33° - Azimuth: 187° - SNR: 25 dB
  Satellite 3 PRN: 1 - Elevation: ° - Azimuth: ° - SNR:  dB
  Satellite 4 PRN:  - Elevation: ° - Azimuth: ° - SNR:  dB

2024-10-10 13:46:16,441 [INFO] Received Standard NMEA Message: $GBGSV,3,3,12,24,06,037,17,33,04,118,18,30,03,258,,04,01,261,,1*7D
2024-10-10 13:46:16,441 [INFO] GSV - Satellites in View:
  Number of Messages: 3
  Message Number: 3
  Total Satellites in View: 12
  Satellite 1 PRN: 24 - Elevation: 06° - Azimuth: 037° - SNR: 17 dB
  Satellite 2 PRN: 33 - Elevation: 04° - Azimuth: 118° - SNR: 18 dB
  Satellite 3 PRN: 30 - Elevation: 03° - Azimuth: 258° - SNR:  dB
  Satellite 4 PRN: 04 - Elevation: 01° - Azimuth: 261° - SNR:  dB

2024-10-10 13:46:16,444 [INFO] Received Standard NMEA Message: $GPGSV,2,1,05,03,71,184,23,04,64,289,23,06,24,309,19,09,30,279,19,8*6A
2024-10-10 13:46:16,444 [INFO] GSV - Satellites in View:
  Number of Messages: 2
  Message Number: 1
  Total Satellites in View: 05
  Satellite 1 PRN: 03 - Elevation: 71° - Azimuth: 184° - SNR: 23 dB
  Satellite 2 PRN: 04 - Elevation: 64° - Azimuth: 289° - SNR: 23 dB
  Satellite 3 PRN: 06 - Elevation: 24° - Azimuth: 309° - SNR: 19 dB
  Satellite 4 PRN: 09 - Elevation: 30° - Azimuth: 279° - SNR: 19 dB

2024-10-10 13:46:16,445 [INFO] Received Standard NMEA Message: $GPGSV,2,2,05,28,17,052,16,8*54
2024-10-10 13:46:16,445 [INFO] GSV - Satellites in View:
  Number of Messages: 2
  Message Number: 2
  Total Satellites in View: 05
  Satellite 1 PRN: 28 - Elevation: 17° - Azimuth: 052° - SNR: 16 dB
  Satellite 2 PRN: 8 - Elevation: ° - Azimuth: ° - SNR:  dB
  Satellite 3 PRN:  - Elevation: ° - Azimuth: ° - SNR:  dB
  Satellite 4 PRN:  - Elevation: ° - Azimuth: ° - SNR:  dB

2024-10-10 13:46:16,449 [INFO] Received Standard NMEA Message: $GLGSV,1,1,00,1*78
2024-10-10 13:46:16,449 [INFO] GSV - Satellites in View:
  Number of Messages: 1
  Message Number: 1
  Total Satellites in View: 00
  Satellite 1 PRN: 1 - Elevation: ° - Azimuth: ° - SNR:  dB
  Satellite 2 PRN:  - Elevation: ° - Azimuth: ° - SNR:  dB
  Satellite 3 PRN:  - Elevation: ° - Azimuth: ° - SNR:  dB
  Satellite 4 PRN:  - Elevation: ° - Azimuth: ° - SNR:  dB

2024-10-10 13:46:16,452 [INFO] Received Standard NMEA Message: $GNRMC,204616.000,A,4910.425846,N,12304.400262,W,0.17,202.12,101024,,,D,V*1A
2024-10-10 13:46:16,452 [INFO] RMC - Recommended Minimum:
  Timestamp: 20:46:16+00:00
  Status: A
  Latitude: 49.1737641 N
  Longitude: -123.0733377 W
  Speed over Ground: 0.17 knots
  Course over Ground: 202.12
  Date: 2024-10-10
  Magnetic Variation:  
  Mode Indicator: D
  Navigational Status: V

2024-10-10 13:46:16,452 [INFO] Received Standard NMEA Message: $GNVTG,202.12,T,,M,0.17,N,0.31,K,D*21
2024-10-10 13:46:16,452 [INFO] VTG - Course over Ground and Ground Speed:
  True Track: 202.12° T
  Magnetic Track: None° M
  Speed over Ground: 0.17 knots / 0.31 km/h
  FAA Mode: D

2024-10-10 13:46:16,455 [INFO] Received Standard NMEA Message: $GAGSV,2,1,08,10,35,283,21,12,41,264,17,19,76,304,20,21,23,141,19,7*77
2024-10-10 13:46:16,455 [INFO] GSV - Satellites in View:
  Number of Messages: 2
  Message Number: 1
  Total Satellites in View: 08
  Satellite 1 PRN: 10 - Elevation: 35° - Azimuth: 283° - SNR: 21 dB
  Satellite 2 PRN: 12 - Elevation: 41° - Azimuth: 264° - SNR: 17 dB
  Satellite 3 PRN: 19 - Elevation: 76° - Azimuth: 304° - SNR: 20 dB
  Satellite 4 PRN: 21 - Elevation: 23° - Azimuth: 141° - SNR: 19 dB

2024-10-10 13:46:16,461 [INFO] Received Standard NMEA Message: $GAGSV,2,2,08,27,34,081,21,29,51,080,23,30,12,031,21,33,11,201,18,7*7E
2024-10-10 13:46:16,461 [INFO] GSV - Satellites in View:
  Number of Messages: 2
  Message Number: 2
  Total Satellites in View: 08
  Satellite 1 PRN: 27 - Elevation: 34° - Azimuth: 081° - SNR: 21 dB
  Satellite 2 PRN: 29 - Elevation: 51° - Azimuth: 080° - SNR: 23 dB
  Satellite 3 PRN: 30 - Elevation: 12° - Azimuth: 031° - SNR: 21 dB
  Satellite 4 PRN: 33 - Elevation: 11° - Azimuth: 201° - SNR: 18 dB

2024-10-10 13:46:16,466 [INFO] Received Standard NMEA Message: $GAGSV,1,1,04,12,41,264,15,19,76,304,17,27,34,081,17,29,51,080,20,1*73
2024-10-10 13:46:16,466 [INFO] GSV - Satellites in View:
  Number of Messages: 1
  Message Number: 1
  Total Satellites in View: 04
  Satellite 1 PRN: 12 - Elevation: 41° - Azimuth: 264° - SNR: 15 dB
  Satellite 2 PRN: 19 - Elevation: 76° - Azimuth: 304° - SNR: 17 dB
  Satellite 3 PRN: 27 - Elevation: 34° - Azimuth: 081° - SNR: 17 dB
  Satellite 4 PRN: 29 - Elevation: 51° - Azimuth: 080° - SNR: 20 dB

2024-10-10 13:46:16,472 [INFO] Received Standard NMEA Message: $GBGSV,3,1,10,20,12,299,30,23,50,162,35,24,05,036,22,25,48,069,35,1*76
2024-10-10 13:46:16,472 [INFO] GSV - Satellites in View:
  Number of Messages: 3
  Message Number: 1
  Total Satellites in View: 10
  Satellite 1 PRN: 20 - Elevation: 12° - Azimuth: 299° - SNR: 30 dB
  Satellite 2 PRN: 23 - Elevation: 50° - Azimuth: 162° - SNR: 35 dB
  Satellite 3 PRN: 24 - Elevation: 05° - Azimuth: 036° - SNR: 22 dB
  Satellite 4 PRN: 25 - Elevation: 48° - Azimuth: 069° - SNR: 35 dB

2024-10-10 13:46:16,477 [INFO] Received Standard NMEA Message: $GBGSV,3,2,10,29,08,307,25,30,03,257,17,32,68,302,39,33,03,118,25,1*78
2024-10-10 13:46:16,478 [INFO] GSV - Satellites in View:
  Number of Messages: 3
  Message Number: 2
  Total Satellites in View: 10
  Satellite 1 PRN: 29 - Elevation: 08° - Azimuth: 307° - SNR: 25 dB
  Satellite 2 PRN: 30 - Elevation: 03° - Azimuth: 257° - SNR: 17 dB
  Satellite 3 PRN: 32 - Elevation: 68° - Azimuth: 302° - SNR: 39 dB
  Satellite 4 PRN: 33 - Elevation: 03° - Azimuth: 118° - SNR: 25 dB

2024-10-10 13:46:16,483 [INFO] Received Standard NMEA Message: $GBGSV,3,3,10,37,09,198,24,41,52,116,34,1*7F
2024-10-10 13:46:16,483 [INFO] GSV - Satellites in View:
  Number of Messages: 3
  Message Number: 3
  Total Satellites in View: 10
  Satellite 1 PRN: 37 - Elevation: 09° - Azimuth: 198° - SNR: 24 dB
  Satellite 2 PRN: 41 - Elevation: 52° - Azimuth: 116° - SNR: 34 dB
  Satellite 3 PRN: 1 - Elevation: ° - Azimuth: ° - SNR:  dB
  Satellite 4 PRN:  - Elevation: ° - Azimuth: ° - SNR:  dB

2024-10-10 13:46:16,489 [INFO] Received Standard NMEA Message: $GBGSV,1,1,02,32,68,302,21,41,52,116,20,5*7B
2024-10-10 13:46:16,489 [INFO] GSV - Satellites in View:
  Number of Messages: 1
  Message Number: 1
  Total Satellites in View: 02
  Satellite 1 PRN: 32 - Elevation: 68° - Azimuth: 302° - SNR: 21 dB
  Satellite 2 PRN: 41 - Elevation: 52° - Azimuth: 116° - SNR: 20 dB
  Satellite 3 PRN: 5 - Elevation: ° - Azimuth: ° - SNR:  dB
  Satellite 4 PRN:  - Elevation: ° - Azimuth: ° - SNR:  dB

2024-10-10 13:46:16,490 [INFO] Received Standard NMEA Message: $GQGSV,1,1,00,1*65
2024-10-10 13:46:16,490 [INFO] GSV - Satellites in View:
  Number of Messages: 1
  Message Number: 1
  Total Satellites in View: 00
  Satellite 1 PRN: 1 - Elevation: ° - Azimuth: ° - SNR:  dB
  Satellite 2 PRN:  - Elevation: ° - Azimuth: ° - SNR:  dB
  Satellite 3 PRN:  - Elevation: ° - Azimuth: ° - SNR:  dB
  Satellite 4 PRN:  - Elevation: ° - Azimuth: ° - SNR:  dB

2024-10-10 13:46:16,490 [INFO] Received Standard NMEA Message: $GQGSV,1,1,00,8*6C
2024-10-10 13:46:16,490 [INFO] GSV - Satellites in View:
  Number of Messages: 1
  Message Number: 1
  Total Satellites in View: 00
  Satellite 1 PRN: 8 - Elevation: ° - Azimuth: ° - SNR:  dB
  Satellite 2 PRN:  - Elevation: ° - Azimuth: ° - SNR:  dB
  Satellite 3 PRN:  - Elevation: ° - Azimuth: ° - SNR:  dB
  Satellite 4 PRN:  - Elevation: ° - Azimuth: ° - SNR:  dB

2024-10-10 13:46:17,190 [INFO] Received Standard NMEA Message: $GNRMC,024027.012,V,,,,,,,060180,,,N,V*26
2024-10-10 13:46:17,190 [INFO] RMC - Recommended Minimum:
  Timestamp: 02:40:27.012000+00:00
  Status: V
  Latitude: 0.0 
  Longitude: 0.0 
  Speed over Ground: None knots
  Course over Ground: None
  Date: 1980-01-06
  Magnetic Variation:  
  Mode Indicator: N
  Navigational Status: V

2024-10-10 13:46:17,191 [INFO] Received Standard NMEA Message: $GNGGA,024027.012,,,,,0,0,,,M,,M,,*56
2024-10-10 13:46:17,191 [INFO] GGA - Fix Data:
  Timestamp: 02:40:27.012000+00:00
  Latitude: 0.0 
  Longitude: 0.0 
  GPS Quality Indicator: 0
  Number of Satellites in Use: 0
  Horizontal Dilution of Precision (HDOP): 
  Antenna Altitude (Above Mean Sea Level): None M
  Geoidal Separation:  M
  Age of Differential GPS Data: 
  Differential Reference Station ID: 

2024-10-10 13:46:17,191 [INFO] Received Standard NMEA Message: $GNVTG,,T,,M,,N,,K,N*32
2024-10-10 13:46:17,191 [INFO] VTG - Course over Ground and Ground Speed:
  True Track: None° T
  Magnetic Track: None° M
  Speed over Ground: None knots / None km/h
  FAA Mode: N

2024-10-10 13:46:17,191 [INFO] Received Standard NMEA Message: $GNGSA,A,1,,,,,,,,,,,,,,,,1*1D
2024-10-10 13:46:17,191 [INFO] GSA - Satellite Info:
  Mode: A
  Mode Fix Type: 1
  Satellites Used: 
  PDOP: 
  HDOP: 
  VDOP: 

2024-10-10 13:46:17,192 [INFO] Received Standard NMEA Message: $GNGSA,A,1,,,,,,,,,,,,,,,,2*1E
2024-10-10 13:46:17,192 [INFO] GSA - Satellite Info:
  Mode: A
  Mode Fix Type: 1
  Satellites Used: 
  PDOP: 
  HDOP: 
  VDOP: 

2024-10-10 13:46:17,192 [INFO] Received Standard NMEA Message: $GNGSA,A,1,,,,,,,,,,,,,,,,3*1F
2024-10-10 13:46:17,192 [INFO] GSA - Satellite Info:
  Mode: A
  Mode Fix Type: 1
  Satellites Used: 
  PDOP: 
  HDOP: 
  VDOP: 

2024-10-10 13:46:17,193 [INFO] Received Standard NMEA Message: $GNGSA,A,1,,,,,,,,,,,,,,,,4*18
2024-10-10 13:46:17,193 [INFO] GSA - Satellite Info:
  Mode: A
  Mode Fix Type: 1
  Satellites Used: 
  PDOP: 
  HDOP: 
  VDOP: 

2024-10-10 13:46:17,193 [INFO] Received Standard NMEA Message: $GPGSV,1,1,00,1*64
2024-10-10 13:46:17,193 [INFO] GSV - Satellites in View:
  Number of Messages: 1
  Message Number: 1
  Total Satellites in View: 00
  Satellite 1 PRN: 1 - Elevation: ° - Azimuth: ° - SNR:  dB
  Satellite 2 PRN:  - Elevation: ° - Azimuth: ° - SNR:  dB
  Satellite 3 PRN:  - Elevation: ° - Azimuth: ° - SNR:  dB
  Satellite 4 PRN:  - Elevation: ° - Azimuth: ° - SNR:  dB

2024-10-10 13:46:17,193 [INFO] Received Standard NMEA Message: $GPGSV,1,1,00,8*6D
2024-10-10 13:46:17,193 [INFO] GSV - Satellites in View:
  Number of Messages: 1
  Message Number: 1
  Total Satellites in View: 00
  Satellite 1 PRN: 8 - Elevation: ° - Azimuth: ° - SNR:  dB
  Satellite 2 PRN:  - Elevation: ° - Azimuth: ° - SNR:  dB
  Satellite 3 PRN:  - Elevation: ° - Azimuth: ° - SNR:  dB
  Satellite 4 PRN:  - Elevation: ° - Azimuth: ° - SNR:  dB

2024-10-10 13:46:17,194 [INFO] Received Standard NMEA Message: $GLGSV,1,1,00,1*78
2024-10-10 13:46:17,194 [INFO] GSV - Satellites in View:
  Number of Messages: 1
  Message Number: 1
  Total Satellites in View: 00
  Satellite 1 PRN: 1 - Elevation: ° - Azimuth: ° - SNR:  dB
  Satellite 2 PRN:  - Elevation: ° - Azimuth: ° - SNR:  dB
  Satellite 3 PRN:  - Elevation: ° - Azimuth: ° - SNR:  dB
  Satellite 4 PRN:  - Elevation: ° - Azimuth: ° - SNR:  dB

2024-10-10 13:46:17,194 [INFO] Received Standard NMEA Message: $GAGSV,1,1,00,7*73
2024-10-10 13:46:17,194 [INFO] GSV - Satellites in View:
  Number of Messages: 1
  Message Number: 1
  Total Satellites in View: 00
  Satellite 1 PRN: 7 - Elevation: ° - Azimuth: ° - SNR:  dB
  Satellite 2 PRN:  - Elevation: ° - Azimuth: ° - SNR:  dB
  Satellite 3 PRN:  - Elevation: ° - Azimuth: ° - SNR:  dB
  Satellite 4 PRN:  - Elevation: ° - Azimuth: ° - SNR:  dB

2024-10-10 13:46:17,194 [INFO] Received Standard NMEA Message: $GAGSV,1,1,00,1*75
2024-10-10 13:46:17,194 [INFO] GSV - Satellites in View:
  Number of Messages: 1
  Message Number: 1
  Total Satellites in View: 00
  Satellite 1 PRN: 1 - Elevation: ° - Azimuth: ° - SNR:  dB
  Satellite 2 PRN:  - Elevation: ° - Azimuth: ° - SNR:  dB
  Satellite 3 PRN:  - Elevation: ° - Azimuth: ° - SNR:  dB
  Satellite 4 PRN:  - Elevation: ° - Azimuth: ° - SNR:  dB

2024-10-10 13:46:17,194 [INFO] Received Standard NMEA Message: $GBGSV,1,1,00,1*76
2024-10-10 13:46:17,195 [INFO] GSV - Satellites in View:
  Number of Messages: 1
  Message Number: 1
  Total Satellites in View: 00
  Satellite 1 PRN: 1 - Elevation: ° - Azimuth: ° - SNR:  dB
  Satellite 2 PRN:  - Elevation: ° - Azimuth: ° - SNR:  dB
  Satellite 3 PRN:  - Elevation: ° - Azimuth: ° - SNR:  dB
  Satellite 4 PRN:  - Elevation: ° - Azimuth: ° - SNR:  dB

2024-10-10 13:46:17,195 [INFO] Received Standard NMEA Message: $GBGSV,1,1,00,5*72
2024-10-10 13:46:17,195 [INFO] GSV - Satellites in View:
  Number of Messages: 1
  Message Number: 1
  Total Satellites in View: 00
  Satellite 1 PRN: 5 - Elevation: ° - Azimuth: ° - SNR:  dB
  Satellite 2 PRN:  - Elevation: ° - Azimuth: ° - SNR:  dB
  Satellite 3 PRN:  - Elevation: ° - Azimuth: ° - SNR:  dB
  Satellite 4 PRN:  - Elevation: ° - Azimuth: ° - SNR:  dB

2024-10-10 13:46:17,195 [INFO] Received Standard NMEA Message: $GNGLL,,,,,024027.012,V,N*64
2024-10-10 13:46:17,195 [INFO] GLL - Geographic Position:
  Latitude: 0.0 
  Longitude: 0.0 
  Timestamp: 02:40:27.012000+00:00
  Status: V
  FAA Mode: N

2024-10-10 13:46:17,361 [INFO] Received Standard NMEA Message: $GNGGA,204617.000,4910.425828,N,12304.400292,W,2,23,0.61,4.108,M,-16.816,M,,*4F
2024-10-10 13:46:17,362 [INFO] GGA - Fix Data:
  Timestamp: 20:46:17+00:00
  Latitude: 49.1737638 N
  Longitude: -123.0733382 W
  GPS Quality Indicator: 2
  Number of Satellites in Use: 23
  Horizontal Dilution of Precision (HDOP): 0.61
  Antenna Altitude (Above Mean Sea Level): 4.108 M
  Geoidal Separation: -16.816 M
  Age of Differential GPS Data: 
  Differential Reference Station ID: 

2024-10-10 13:46:17,367 [INFO] Received Standard NMEA Message: $GNGLL,4910.425828,N,12304.400292,W,204617.000,A,D*52
2024-10-10 13:46:17,367 [INFO] GLL - Geographic Position:
  Latitude: 49.1737638 N
  Longitude: -123.0733382 W
  Timestamp: 20:46:17+00:00
  Status: A
  FAA Mode: D

2024-10-10 13:46:17,372 [INFO] Received Standard NMEA Message: $GNGSA,A,3,03,04,31,26,09,06,16,28,,,,,0.87,0.61,0.62,1*0E
2024-10-10 13:46:17,372 [INFO] GSA - Satellite Info:
  Mode: A
  Mode Fix Type: 3
  Satellites Used: 03, 04, 31, 26, 09, 06, 16, 28
  PDOP: 0.87
  HDOP: 0.61
  VDOP: 0.62

2024-10-10 13:46:17,373 [INFO] Received Standard NMEA Message: $GNGSA,A,3,67,68,,,,,,,,,,,0.87,0.61,0.62,2*01
2024-10-10 13:46:17,373 [INFO] GSA - Satellite Info:
  Mode: A
  Mode Fix Type: 3
  Satellites Used: 67, 68
  PDOP: 0.87
  HDOP: 0.61
  VDOP: 0.62

2024-10-10 13:46:17,378 [INFO] Received Standard NMEA Message: $GNGSA,A,3,19,29,10,12,27,33,,,,,,,0.87,0.61,0.62,3*0B
2024-10-10 13:46:17,379 [INFO] GSA - Satellite Info:
  Mode: A
  Mode Fix Type: 3
  Satellites Used: 19, 29, 10, 12, 27, 33
  PDOP: 0.87
  HDOP: 0.61
  VDOP: 0.62

2024-10-10 13:46:17,384 [INFO] Received Standard NMEA Message: $GNGSA,A,3,32,41,23,25,20,29,24,,,,,,0.87,0.61,0.62,4*05
2024-10-10 13:46:17,384 [INFO] GSA - Satellite Info:
  Mode: A
  Mode Fix Type: 3
  Satellites Used: 32, 41, 23, 25, 20, 29, 24
  PDOP: 0.87
  HDOP: 0.61
  VDOP: 0.62

2024-10-10 13:46:17,390 [INFO] Received Standard NMEA Message: $GPGSV,3,1,11,03,72,185,35,04,64,289,31,31,52,061,33,26,39,097,29,1*64
2024-10-10 13:46:17,390 [INFO] GSV - Satellites in View:
  Number of Messages: 3
  Message Number: 1
  Total Satellites in View: 11
  Satellite 1 PRN: 03 - Elevation: 72° - Azimuth: 185° - SNR: 35 dB
  Satellite 2 PRN: 04 - Elevation: 64° - Azimuth: 289° - SNR: 31 dB
  Satellite 3 PRN: 31 - Elevation: 52° - Azimuth: 061° - SNR: 33 dB
