03,257,17,32,68,302,38,33,03,118,24,1*78
$GBGSV,3,3,10,37,09,198,22,41,52,116,34,1*79
$GBGSV,1,1,02,32,68,302,22,41,52,116,22,5*7A
$GQGSV,1,1,00,1*65
$GQGSV,1,1,00,8*6C
$GNGGA,204615.000,4910.425567,N,12304.402198,W,1,23,0.53,4.070,M,-16.817,M,,*4D
$GNRMC,204615.000,A,4910.425567,N,12304.402198,W,0.005,144.81,101024,,,A,V*2E
$GNGLL,4910.425567,N,12304.402198,W,204615.000,A,A*58
$GNVTG,144.81,T,,M,0.005,N,0.009,K,A*27
$GNGSA,A,3,03,04,06,09,16,26,28,31,,,,,0.85,0.53,0.66,1*09
$GNGSA,A,3,,,,,,,,,,,,,0.85,0.53,0.66,2*09
$GNGSA,A,3,10,19,21,27,29,30,33,,,,,,0.85,0.53,0.66,3*0F
$GNGSA,A,3,20,23,24,25,29,32,37,41,,,,,0.85,0.53,0.66,4*06
$GNGSA,A,3,,,,,,,,,,,,,0.85,0.53,0.66,5*0E
$GPGSV,3,1,11,02,02,202,14,03,71,184,30,04,64,289,28,06,24,309,16,1*6A
$GPGSV,3,2,11,07,,,19,09,30,279,22,16,24,134,21,26,39,095,25,1*5D
$GPGSV,3,3,11,28,17,052,20,31,50,060,27,46,33,187,25,1*52
$GPGSV,2,1,05,03,71,184,21,04,64,289,23,06,24,309,17,09,30,279,18,8*67
$GPGSV,2,2,05,28,17,052,14,8*56
$GLGSV,1,1,00,1*78
$GAGSV,2,1,08,10,35,283,21,12,41,264,17,19,76,304,20,21,23,141,21,7*7C
$GAGSV,2,2,08,27,34,081,22,29,51,080,24,30,12,031,18,33,11,201,19,7*71
$GAGSV,2,1,05,10,35,283,17,12,41,264,16,19,76,304,17,27,34,081,17,1*7F
$GAGSV,2,2,05,29,51,080,19,1*4F
$GBGSV,3,1,10,20,12,299,29,23,50,162,35,24,05,036,21,25,48,069,35,1*7D
$GBGSV,3,2,10,29,08,307,25,30,03,257,18,32,68,302,39,33,03,118,25,1*77
$GBGSV,3,3,10,37,09,198,23,41,52,116,35,1*79
$GBGSV,1,1,02,32,68,302,21,41,52,116,20,5*7B
$GQGSV,1,1,00,1*65
$GQGSV,1,1,00,8*6C
$GNGGA,204616.000,4910.425568,N,12304.402197,W,1,23,0.56,4.072,M,-16.817,M,,*49
$GNRMC,204616.000,A,4910.425568,N,12304.402197,W,0.013,144.81,101024,,,A,V*2A
$GNGLL,4910.425568,N,12304.402197,W,204616.000,A,A*5B
$GNVTG,144.81,T,,M,0.013,N,0.024,K,A*2F
$GNGSA,A,3,03,04,06,09,16,26,28,31,,,,,0.89,0.56,0.69,1*0F
$GNGSA,A,3,,,,,,,,,,,,,0.89,0.56,0.69,2*0F
$GNGSA,A,3,10,19,21,27,29,30,33,,,,,,0.89,0.56,0.69,3*09
$GNGSA,A,3,20,23,24,25,29,32,37,41,,,,,0.89,0.56,0.69,4*00
$GNGSA,A,3,,,,,,,,,,,,,0.89,0.56,0.69,5*08
$GPGSV,3,1,10,02,02,202,13,03,71,184,31,04,64,289,27,06,24,309,16,1*62
$GPGSV,3,2,10,09,30,279,23,16,24,134,21,26,39,095,25,28,17,052,19,1*61
$GPGSV,3,3,10,31,50,060,28,46,33,187,25,1*65
$GPGSV,2,1,05,03,71,184,23,04,64,289,23,06,24,309,19,09,30,279,19,8*6A
$GPGSV,2,2,05,28,17,052,16,8*54
$GLGSV,1,1,00,1*78
$GAGSV,2,1,08,10,35,283,21,12,41,264,17,19,76,304,20,21,23,141,19,7*77
$GAGSV,2,2,08,27,34,081,21,29,51,080,23,30,12,031,21,33,11,201,18,7*7E
$GAGSV,1,1,04,12,41,264,15,19,76,304,17,27,34,081,17,29,51,080,20,1*73
$GBGSV,3,1,10,20,12,299,30,23,50,162,35,24,05,036,22,25,48,069,35,1*76
$GBGSV,3,2,10,29,08,307,25,30,03,257,17,32,68,302,39,33,03,118,25,1*78
$GBGSV,3,3,10,37,09,198,24,41,52,116,34,1*7F
$GBGSV,1,1,02,32,68,302,21,41,52,116,20,5*7B
$GQGSV,1,1,00,1*65
$GQGSV,1,1,00,8*6C
$GNGGA,204617.000,4910.425569,N,12304.402196,W,1,23,0.76,4.070,M,-16.816,M,,*49
$GNRMC,204617.000,A,4910.425569,N,12304.402196,W,0.008,144.81,101024,,,A,V*21
$GNGLL,4910.425569,N,12304.402196,W,204617.000,A,A*5A
$GNVTG,144.81,T,,M,0.008,N,0.016,K,A*24
$GNGSA,A,3,03,04,06,09,16,26,28,31,,,,,1.17,0.76,0.89,1*05
$GNGSA,A,3,,,,,,,,,,,,,1.17,0.76,0.89,2*05
$GNGSA,A,3,10,19,21,27,29,30,33,,,,,,1.17,0.76,0.89,3*03
$GNGSA,A,3,20,23,24,25,29,32,37,41,,,,,1.17,0.76,0.89,4*0A
$GNGSA,A,3,,,,,,,,,,,,,1.17,0.76,0.89,5*02
$GPGSV,3,1,10,02,02,202,14,03,71,184,31,04,64,289,27,06,24,309,17,1*64
$GPGSV,3,2,10,09,30,279,23,16,24,134,20,26,39,095,26,28,17,052,19,1*63
$GPGSV,3,3,10,31,50,060,28,46,33,187,25,1*65
$GPGSV,2,1,06,03,71,184,23,04,64,289,23,06,24,309,17,09,30,279,19,8*67
$GPGSV,2,2,06,26,39,095,20,28,17,052,16,8*67
$GLGSV,1,1,00,1*78
$GAGSV,2,1,08,10,35,283,21,12,41,264,19,19,76,304,21,21,23,141,20,7*72
$GAGSV,2,2,08,27,34,081,22,29,51,080,25,30,12,031,19,33,11,201,17,7*7F
$GAGSV,2,1,05,10,35,283,17,12,41,264,17,19,76,304,17,27,34,081,17,1*7E
$GAGSV,2,2,05,29,51,080,20,1*45
$GBGSV,3,1,10,20,12,299,30,23,50,162,36,24,05,036,24,25,48,069,34,1*72
$GBGSV,3,2,10,29,08,307,25,30,02,257,17,32,68,302,38,33,03,118,24,1*79
$GBGSV,3,3,10,37,09,198,23,41,51,116,34,1*7B
$GBGSV,1,1,02,32,68,302,21,41,51,116,21,5*79
$GQGSV,1,1,00,1*65
$GQGSV,1,1,00,8*6C
$GNGGA,204618.000,4910.425571,N,12304.402197,W,1,23,0.71,4.071,M,-16.817,M,,*49
$GNRMC,204618.000,A,4910.425571,N,12304.402197,W,0.004,144.81,101024,,,A,V*2A
$GNGLL,4910.425571,N,12304.402197,W,204618.000,A,A*5D
$GNVTG,144.81,T,,M,0.004,N,0.008,K,A*27
$GNGSA,A,3,03,04,06,09,16,26,28,31,,,,,1.11,0.71,0.86,1*0B
$GNGSA,A,3,,,,,,,,,,,,,1.11,0.71,0.86,2*0B
$GNGSA,A,3,10,19,21,27,29,30,33,,,,,,1.11,0.71,0.86,3*0D
$GNGSA,A,3,20,23,24,25,29,32,37,41,,,,,1.11,0.71,0.86,4*04
$GNGSA,A,3,,,,,,,,,,,,,1.11,0.71,0.86,5*0C
$GPGSV,3,1,10,02,02,202,15,03,71,184,32,04,64,289,26,06,24,309,17,1*67
$GPGSV,3,2,10,09,30,279,24,16,24,134,20,26,39,095,26,28,17,052,19,1*64
$GPGSV,3,3,10,31,50,060,29,46,33,187,25,1*64
$GPGSV,2,1,06,03,71,184,22,04,64,289,24,06,24,309,17,09,30,279,18,8*60
$GPGSV,2,2,06,26,39,095,20,28,17,052,16,8*67
$GLGSV,1,1,00,1*78
$GAGSV,2,1,08,10,35,283,20,12,41,264,19,19,76,304,21,21,23,141,20,7*73
$GAGSV,2,2,08,27,34,081,21,29,51,080,24,30,12,031,20,33,11,201,19,7*79
$GAGSV,2,1,05,10,35,283,16,12,41,264,17,19,76,304,18,27,34,081,17,1*70
$GAGSV,2,2,05,29,51,080,19,1*4F
$GBGSV,3,1,10,20,12,299,30,23,50,162,36,24,05,036,23,25,48,069,34,1*75
$GBGSV,3,2,10,29,08,307,24,30,02,257,17,32,68,302,38,33,03,118,25,1*79
$GBGSV,3,3,10,37,09,198,24,41,51,116,34,1*7C
$GBGSV,1,1,02,32,68,302,21,41,51,116,21,5*79
$GQGSV,1,1,00,1*65
$GQGSV,1,1,00,8*6C
$GNGGA,204619.000,4910.425572,N,12304.402198,W,1,23,0.65,4.072,M,-16.817,M,,*42
$GNRMC,204619.000,A,4910.425572,N,12304.402198,W,0.002,144.81,101024,,,A,V*21
$GNGLL,4910.425572,N,12304.402198,W,204619.000,A,A*50
$GNVTG,144.81,T,,M,0.002,N,0.004,K,A*2D
$GNGSA,A,3,03,04,06,09,16,26,28,31,,,,,1.04,0.65,0.82,1*0E
$GNGSA,A,3,,,,,,,,,,,,,1.04,0.65,0.82,2*0E
$GNGSA,A,3,10,19,21,27,29,30,33,,,,,,1.04,0.65,0.82,3*08
$GNGSA,A,3,20,23,24,25,29,32,37,41,,,,,1.04,0.65,0.82,4*01
$GNGSA,A,3,,,,,,,,,,,,,1.04,0.65,0.82,5*09
$GPGSV,3,1,10,02,02,202,13,03,71,184,30,04,64,289,27,06,24,309,17,1*62
$GPGSV,3,2,10,09,30,279,22,16,24,134,19,26,39,095,26,28,17,052,19,1*68
$GPGSV,3,3,10,31,50,060,27,46,33,187,25,1*6A
$GPGSV,2,1,06,03,71,184,23,04,64,289,24,06,24,309,17,09,30,279,20,8*6A
$GPGSV,2,2,06,26,39,095,20,28,17,052,15,8*64
$GLGSV,1,1,00,1*78
$GAGSV,2,1,08,10,35,283,20,12,41,264,18,19,76,304,20,21,23,141,19,7*79
$GAGSV,2,2,08,27,34,081,22,29,51,080,24,30,12,031,19,33,11,201,19,7*70
$GAGSV,2,1,05,10,35,283,17,12,41,264,17,19,76,304,18,27,34,081,17,1*71
$GAGSV,2,2,05,29,51,080,19,1*4F
$GBGSV,3,1,10,20,12,299,30,23,50,162,35,24,05,036,24,25,48,069,35,1*70
$GBGSV,3,2,10,29,08,307,24,30,02,257,17,32,68,302,38,33,03,118,26,1*7A
$GBGSV,3,3,10,37,09,198,23,41,51,116,35,1*7A
$GBGSV,1,1,02,32,68,302,20,41,51,116,21,5*78
$GQGSV,1,1,00,1*65
$GQGSV,1,1,00,8*6C
$GNGGA,204620.000,4910.425573,N,12304.402199,W,1,23,0.67,4.070,M,-16.816,M,,*49
$GNRMC,204620.000,A,4910.425573,N,12304.402199,W,0.007,144.81,101024,,,A,V*2E
$GNGLL,4910.425573,N,12304.402199,W,204620.000,A,A*5A
$GNVTG,144.81,T,,M,0.007,N,0.014,K,A*29
$GNGSA,A,3,03,04,06,09,16,26,28,31,,,,,1.05,0.67,0.82,1*0D
$GNGSA,A,3,,,,,,,,,,,,,1.05,0.67,0.82,2*0D
$GNGSA,A,3,10,19,21,27,29,30,33,,,,,,1.05,0.67,0.82,3*0B
$GNGSA,A,3,20,23,24,25,29,32,37,41,,,,,1.05,0.67,0.82,4*02
$GNGSA,A,3,,,,,,,,,,,,,1.05,0.67,0.82,5*0A
$GPGSV,3,1,10,02,02,202,13,03,71,184,30,04,64,289,26,06,24,309,16,1*62
$GPGSV,3,2,10,09,30,279,22,16,24,134,20,26,39,095,25,28,17,052,17,1*6F
$GPGSV,3,3,10,31,50,060,28,46,33,187,25,1*65
$GPGSV,2,1,06,03,71,184,23,04,64,289,23,06,24,309,17,09,30,279,19,8*67
$GPGSV,2,2,06,26,39,095,18,28,17,052,15,8*6F
$GLGSV,1,1,00,1*78
$GAGSV,2,1,08,10,35,283,21,12,41,264,18,19,76,304,21,21,23,141,18,7*78
$GAGSV,2,2,08,27,34,081,21,29,51,080,24,30,12,031,17,33,11,201,18,7*7C
$GAGSV,2,1,05,10,35,283,16,12,41,264,15,19,76,304,16,27,34,081,17,1*7C
$GAGSV,2,2,05,29,51,080,18,1*4E
$GBGSV,3,1,10,20,12,299,29,23,50,162,35,24,05,036,23,25,48,069,35,1*7F
$GBGSV,3,2,10,29,08,307,23,30,02,257,17,32,68,302,38,33,03,118,25,1*7E
$GBGSV,3,3,10,37,09,198,24,41,51,116,34,1*7C
$GBGSV,1,1,02,32,68,302,20,41,51,116,19,5*73
$GQGSV,1,1,00,1*65
$GQGSV,1,1,00,8*6C
$GNGGA,204621.000,4910.425574,N,12304.402203,W,1,23,0.55,4.071,M,-16.816,M,,*4F
$GNRMC,204621.000,A,4910.425574,N,12304.402203,W,0.011,144.81,101024,,,A,V*2F
$GNGLL,4910.425574,N,12304.402203,W,204621.000,A,A*5C
$GNVTG,144.81,T,,M,0.011,N,0.021,K,A*28
$GNGSA,A,3,03,04,06,09,16,26,28,31,,,,,0.88,0.55,0.68,1*0C
$GNGSA,A,3,,,,,,,,,,,,,0.88,0.55,0.68,2*0C
$GNGSA,A,3,10,19,21,27,29,30,33,,,,,,0.88,0.55,0.68,3*0A
$GNGSA,A,3,20,23,24,25,29,32,37,41,,,,,0.88,0.55,0.68,4*03
$GNGSA,A,3,,,,,,,,,,,,,0.88,0.55,0.68,5*0B
$GPGSV,3,1,10,02,02,202,16,03,71,184,31,04,64,289,27,06,24,309,15,1*64
$GPGSV,3,2,10,09,30,279,22,16,24,134,19,26,39,095,25,28,17,052,19,1*6B
$GPGSV,3,3,10,31,50,060,27,46,33,187,25,1*6A
$GPGSV,2,1,06,03,71,184,22,04,64,289,23,06,24,309,16,09,30,279,18,8*66
$GPGSV,2,2,06,26,39,095,20,28,17,052,13,8*62
$GLGSV,1,1,00,1*78
$GAGSV,2,1,08,10,35,283,20,12,41,264,19,19,76,305,21,21,23,141,19,7*78
$GAGSV,2,2,08,27,34,081,22,29,51,080,24,30,12,031,20,33,10,201,18,7*7A
$GAGSV,2,1,05,10,35,283,16,12,41,264,15,19,76,305,16,27,34,081,17,1*7D
$GAGSV,2,2,05,29,51,080,18,1*4E
$GBGSV,3,1,10,20,12,299,29,23,50,162,35,24,05,036,23,25,48,069,35,1*7F
$GBGSV,3,2,10,29,08,307,24,30,02,257,17,32,68,302,38,33,03,118,25,1*79
$GBGSV,3,3,10,37,09,198,22,41,51,116,34,1*7A
$GBGSV,1,1,02,32,68,302,21,41,51,116,21,5*79
$GQGSV,1,1,00,1*65
$GQGSV,1,1,00,8*6C
$GNGGA,204622.000,4910.425574,N,12304.402203,W,1,23,0.60,4.071,M,-16.816,M,,*4A
$GNRMC,204622.000,A,4910.425574,N,12304.402203,W,0.007,144.81,101024,,,A,V*2B
$GNGLL,4910.425574,N,12304.402203,W,204622.000,A,A*5F
$GNVTG,144.81,T,,M,0.007,N,0.013,K,A*2E
$GNGSA,A,3,03,04,06,09,16,26,28,31,,,,,0.95,0.60,0.74,1*0B
$GNGSA,A,3,,,,,,,,,,,,,0.95,0.60,0.74,2*0B
$GNGSA,A,3,10,19,21,27,29,30,33,,,,,,0.95,0.60,0.74,3*0D
$GNGSA,A,3,20,23,24,25,29,32,37,41,,,,,0.95,0.60,0.74,4*04
$GNGSA,A,3,,,,,,,,,,,,,0.95,0.60,0.74,5*0C
$GPGSV,3,1,10,02,02,202,14,03,71,184,31,04,64,289,26,06,24,309,15,1*67
$GPGSV,3,2,10,09,30,279,23,16,24,134,19,26,39,095,26,28,17,052,18,1*68
$GPGSV,3,3,10,31,50,060,28,46,33,187,24,1*64
$GPGSV,2,1,06,03,71,184,23,04,64,289,25,06,24,309,15,09,30,279,20,8*69
$GPGSV,2,2,06,26,39,095,20,28,17,052,13,8*62
$GLGSV,1,1,00,1*78
$GAGSV,2,1,08,10,35,283,21,12,41,264,19,19,76,305,21,21,23,141,19,7*79
$GAGSV,2,2,08,27,34,081,22,29,51,080,24,30,12,031,17,33,10,201,19,7*7F
$GAGSV,2,1,05,10,35,283,15,12,41,264,17,19,76,305,17,27,34,081,17,1*7D
$GAGSV,2,2,05,29,51,080,20,1*45
$GBGSV,3,1,10,20,12,299,29,23,50,162,36,24,05,036,22,25,48,069,35,1*7D
$GBGSV,3,2,10,29,08,307,25,30,02,257,17,32,68,302,38,33,03,118,24,1*79
$GBGSV,3,3,10,37,09,198,22,41,51,116,35,1*7B
$GBGSV,1,1,02,32,68,302,21,41,51,116,22,5*7A
$GQGSV,1,1,00,1*65
$GQGSV,1,1,00,8*6C
$GNGGA,204623.000,4910.425573,N,12304.402201,W,1,23,0.57,4.070,M,-16.816,M,,*4B
$GNRMC,204623.000,A,4910.425573,N,12304.402201,W,0.007,144.81,101024,,,A,V*2F
$GNGLL,4910.425573,N,12304.402201,W,204623.000,A,A*5B
$GNVTG,144.81,T,,M,0.007,N,0.013,K,A*2E
$GNGSA,A,3,03,04,06,09,16,26,28,31,,,,,0.93,0.57,0.74,1*09
$GNGSA,A,3,,,,,,,,,,,,,0.93,0.57,0.74,2*09
$GNGSA,A,3,10,19,21,27,29,30,33,,,,,,0.93,0.57,0.74,3*0F
$GNGSA,A,3,20,23,24,25,29,32,37,41,,,,,0.93,0.57,0.74,4*06
$GNGSA,A,3,,,,,,,,,,,,,0.93,0.57,0.74,5*0E
$GPGSV,3,1,10,02,02,202,14,03,71,184,30,04,64,289,26,06,24,309,16,1*65
$GPGSV,3,2,10,09,30,279,22,16,24,134,18,26,39,095,25,28,17,052,17,1*64
$GPGSV,3,3,10,31,50,060,27,46,33,187,24,1*6B
$GPGSV,2,1,06,03,71,184,23,04,64,289,24,06,24,309,17,09,30,279,19,8*60
$GPGSV,2,2,06,26,39,095,20,28,17,052,14,8*65
$GLGSV,1,1,00,1*78
$GAGSV,2,1,08,10,35,283,20,12,41,264,18,19,76,305,20,21,23,141,19,7*78
$GAGSV,2,2,08,27,34,081,21,29,51,080,23,30,12,031,19,33,10,201,17,7*7B
$GAGSV,2,1,05,10,35,283,14,12,41,264,15,19,76,305,17,27,34,081,17,1*7E
$GAGSV,2,2,05,29,51,080,20,1*45
$GBGSV,3,1,10,20,12,299,30,23,50,162,36,24,05,036,22,25,48,069,35,1*75
$GBGSV,3,2,10,29,08,307,23,30,02,257,18,32,68,302,39,33,03,118,23,1*76
$GBGSV,3,3,10,37,09,198,23,41,51,116,36,1*79
$GBGSV,1,1,02,32,68,302,20,41,51,116,20,5*79
$GQGSV,1,1,00,1*65
$GQGSV,1,1,00,8*6C
$GNGGA,204624.000,4910.425572,N,12304.402199,W,1,23,0.53,4.071,M,-16.816,M,,*4A
$GNRMC,204624.000,A,4910.425572,N,12304.402199,W,0.013,144.81,101024,,,A,V*2E
$GNGLL,4910.425572,N,12304.402199,W,204624.000,A,A*5F
$GNVTG,144.81,T,,M,0.013,N,0.025,K,A*2E
$GNGSA,A,3,03,04,06,09,16,26,28,31,,,,,0.86,0.53,0.68,1*04
$GNGSA,A,3,,,,,,,,,,,,,0.86,0.53,0.68,2*04
$GNGSA,A,3,10,19,21,27,29,30,33,,,,,,0.86,0.53,0.68,3*02
$GNGSA,A,3,20,23,24,25,29,32,37,41,,,,,0.86,0.53,0.68,4*0B
$GNGSA,A,3,,,,,,,,,,,,,0.86,0.53,0.68,5*03
$GPGSV,3,1,10,02,02,202,13,03,71,184,31,04,64,289,27,06,24,309,16,1*62
$GPGSV,3,2,10,09,30,279,23,16,24,134,20,26,39,095,25,28,17,052,17,1*6E
$GPGSV,3,3,10,31,50,060,27,46,33,187,24,1*6B
$GPGSV,1,1,04,03,71,184,24,04,64,289,24,09,30,279,19,26,39,095,21,8*6B
$GLGSV,1,1,00,1*78
$GAGSV,2,1,08,10,35,283,21,12,41,264,16,19,76,305,20,21,23,141,20,7*7D
$GAGSV,2,2,08,27,34,081,21,29,51,080,24,30,12,031,17,33,10,201,20,7*76
$GAGSV,2,1,05,10,35,283,15,12,41,264,15,19,76,305,17,27,34,081,17,1*7F
$GAGSV,2,2,05,29,51,080,21,1*44
$GBGSV,3,1,10,20,12,299,30,23,50,162,35,24,05,036,22,25,48,069,35,1*76
$GBGSV,3,2,10,29,08,307,25,30,02,257,17,32,68,302,38,33,03,118,24,1*79
$GBGSV,3,3,10,37,09,198,24,41,51,116,35,1*7D
$GBGSV,1,1,02,32,68,302,22,41,51,116,22,5*79
$GQGSV,1,1,00,1*65
$GQGSV,1,1,00,8*6C
$GNGGA,204625.000,4910.425573,N,12304.402197,W,1,23,0.70,4.069,M,-16.816,M,,*4C
$GNRMC,204625.000,A,4910.425573,N,12304.402197,W,0.004,144.81,101024,,,A,V*26
$GNGLL,4910.425573,N,12304.402197,W,204625.000,A,A*51
$GNVTG,144.81,T,,M,0.004,N,0.008,K,A*27
$GNGSA,A,3,03,04,06,09,16,26,28,31,,,,,1.10,0.70,0.85,1*08
$GNGSA,A,3,,,,,,,,,,,,,1.10,0.70,0.85,2*08
$GNGSA,A,3,10,19,21,27,29,30,33,,,,,,1.10,0.70,0.85,3*0E
$GNGSA,A,3,20,23,24,25,29,32,37,41,,,,,1.10,0.70,0.85,4*07
$GNGSA,A,3,,,,,,,,,,,,,1.10,0.70,0.85,5*0F
$GPGSV,3,1,11,02,02,202,15,03,71,184,31,04,64,289,28,06,24,309,17,1*6B
$GPGSV,3,2,11,07,,,17,09,30,279,23,16,24,134,21,26,39,095,25,1*52
$GPGSV,3,3,11,28,17,052,17,31,50,060,27,46,33,187,24,1*57
$GPGSV,1,1,04,03,71,184,24,04,64,289,25,09,30,279,20,26,39,095,20,8*61
$GLGSV,1,1,00,1*78
$GAGSV,2,1,08,10,35,283,21,12,41,264,18,19,76,305,21,21,23,141,18,7*79
$GAGSV,2,2,08,27,34,081,23,29,51,080,25,30,12,031,20,33,10,201,18,7*7A
$GAGSV,1,1,04,12,41,264,17,19,76,305,17,27,34,081,19,29,51,080,20,1*7E
$GBGSV,3,1,10,20,12,299,29,23,51,162,35,24,05,036,19,25,48,069,34,1*76
$GBGSV,3,2,10,29,08,307,23,30,02,257,17,32,68,302,38,33,03,118,22,1*79
$GBGSV,3,3,10,37,09,198,23,41,51,116,35,1*7A
$GBGSV,1,1,02,32,68,302,21,41,51,116,22,5*7A
$GQGSV,1,1,00,1*65
$GQGSV,1,1,00,8*6C
$GNGGA,204626.000,4910.425572,N,12304.402196,W,1,23,0.54,4.072,M,-16.817,M,,*42
$GNRMC,204626.000,A,4910.425572,N,12304.402196,W,0.011,144.81,101024,,,A,V*21
$GNGLL,4910.425572,N,12304.402196,W,204626.000,A,A*52
$GNVTG,144.81,T,,M,0.011,N,0.021,K,A*28
$GNGSA,A,3,03,04,06,09,16,26,28,31,,,,,0.87,0.54,0.68,1*02
$GNGSA,A,3,,,,,,,,,,,,,0.87,0.54,0.68,2*02
$GNGSA,A,3,10,19,21,27,29,30,33,,,,,,0.87,0.54,0.68,3*04
$GNGSA,A,3,20,23,24,25,29,32,37,41,,,,,0.87,0.54,0.68,4*0D
$GNGSA,A,3,,,,,,,,,,,,,0.87,0.54,0.68,5*05
$GPGSV,3,1,11,02,02,202,16,03,71,184,32,04,64,289,27,06,24,309,15,1*66
$GPGSV,3,2,11,07,,,18,09,30,279,25,16,24,134,20,26,39,095,26,1*59
$GPGSV,3,3,11,28,17,052,18,31,50,060,28,46,33,187,24,1*57
$GPGSV,1,1,04,03,71,184,24,04,64,289,25,09,30,279,19,26,39,095,20,8*6B
$GLGSV,1,1,00,1*78
$GAGSV,2,1,08,10,35,283,21,12,41,264,19,19,76,305,22,21,23,141,18,7*7B
$GAGSV,2,2,08,27,34,081,24,29,51,080,25,30,12,031,18,33,10,201,18,7*76
$GAGSV,1,1,04,12,41,264,17,19,76,305,17,27,34,081,17,29,51,080,20,1*70
$GBGSV,3,1,10,20,12,299,29,23,51,162,36,24,05,036,20,25,48,069,34,1*7F
$GBGSV,3,2,10,29,08,307,23,30,02,257,17,32,68,302,38,33,03,118,22,1*79
$GBGSV,3,3,10,37,09,198,23,41,51,116,34,1*7B
$GBGSV,1,1,02,32,68,302,21,41,51,116,22,5*7A
$GQGSV,1,1,00,1*65
$GQGSV,1,1,00,8*6C
$GNGGA,204627.000,4910.425572,N,12304.402196,W,1,23,0.57,4.073,M,-16.816,M,,*40
$GNRMC,204627.000,A,4910.425572,N,12304.402196,W,0.014,144.81,101024,,,A,V*25
$GNGLL,4910.425572,N,12304.402196,W,204627.000,A,A*53
$GNVTG,144.81,T,,M,0.014,N,0.025,K,A*29
$GNGSA,A,3,03,04,06,09,16,26,28,31,,,,,0.91,0.57,0.71,1*0E
$GNGSA,A,3,,,,,,,,,,,,,0.91,0.57,0.71,2*0E
$GNGSA,A,3,10,19,21,27,29,30,33,,,,,,0.91,0.57,0.71,3*08
$GNGSA,A,3,20,23,24,25,29,32,37,41,,,,,0.91,0.57,0.71,4*01
$GNGSA,A,3,,,,,,,,,,,,,0.91,0.57,0.71,5*09
$GPGSV,3,1,11,02,02,202,14,03,71,184,32,04,64,289,28,06,24,308,17,1*68
$GPGSV,3,2,11,07,,,19,09,30,279,24,16,24,134,21,26,39,095,25,1*5B
$GPGSV,3,3,11,28,17,052,18,31,50,060,28,46,33,187,24,1*57
$GPGSV,1,1,04,03,71,184,24,04,64,289,24,09,30,279,19,26,39,095,19,8*60
$GLGSV,1,1,00,1*78
$GAGSV,2,1,08,10,35,283,22,12,41,264,17,19,76,305,23,21,23,141,19,7*76
$GAGSV,2,2,08,27,34,081,25,29,51,080,24,30,12,031,20,33,10,201,18,7*7D
$GAGSV,1,1,04,12,41,264,17,19,76,305,17,27,34,081,17,29,51,080,20,1*70
$GBGSV,3,1,10,20,12,299,29,23,51,162,36,24,05,036,21,25,48,069,34,1*7E
$GBGSV,3,2,10,29,08,307,25,30,02,257,16,32,68,302,38,33,03,118,23,1*7F
$GBGSV,3,3,10,37,09,198,26,41,51,116,34,1*7E
$GBGSV,1,1,02,32,68,302,19,41,51,116,23,5*70
$GQGSV,1,1,00,1*65
$GQGSV,1,1,00,8*6C
$GNGGA,204628.000,4910.425571,N,12304.402198,W,1,23,0.54,4.073,M,-16.816,M,,*41
$GNRMC,204628.000,A,4910.425571,N,12304.402198,W,0.003,144.81,101024,,,A,V*21
$GNGLL,4910.425571,N,12304.402198,W,204628.000,A,A*51
$GNVTG,144.81,T,,M,0.003,N,0.006,K,A*2E
$GNGSA,A,3,03,04,06,09,16,26,28,31,,,,,0.87,0.54,0.68,1*02
$GNGSA,A,3,,,,,,,,,,,,,0.87,0.54,0.68,2*02
$GNGSA,A,3,10,19,21,27,29,30,33,,,,,,0.87,0.54,0.68,3*04
$GNGSA,A,3,20,23,24,25,29,32,37,41,,,,,0.87,0.54,0.68,4*0D
$GNGSA,A,3,,,,,,,,,,,,,0.87,0.54,0.68,5*05
$GPGSV,3,1,11,02,02,202,14,03,71,184,30,04,64,289,27,06,24,308,15,1*67
$GPGSV,3,2,11,07,,,20,09,30,279,24,16,24,134,20,26,39,095,26,1*53
$GPGSV,3,3,11,28,17,052,18,31,50,060,28,46,33,187,24,1*57
$GPGSV,1,1,04,03,71,184,24,04,64,289,26,09,30,279,20,26,39,095,22,8*60
$GLGSV,1,1,00,1*78
$GAGSV,2,1,08,10,35,283,21,12,41,264,19,19,76,305,21,21,23,141,19,7*79
$GAGSV,2,2,08,27,34,081,21,29,51,080,24,30,12,031,20,33,10,201,20,7*72
$GAGSV,1,1,04,12,41,264,17,19,76,305,18,27,34,081,18,29,51,080,21,1*71
$GBGSV,3,1,10,20,12,299,29,23,51,162,35,24,05,036,21,25,48,069,34,1*7D
$GBGSV,3,2,10,29,08,307,24,30,02,257,15,32,68,302,38,33,03,118,23,1*7D
$GBGSV,3,3,10,37,09,198,24,41,51,116,35,1*7D
$GBGSV,1,1,02,32,68,302,20,41,51,116,21,5*78
$GQGSV,1,1,00,1*65
$GQGSV,1,1,00,8*6C
$GNGGA,204629.000,4910.425572,N,12304.402197,W,1,23,0.52,4.073,M,-16.816,M,,*4A
$GNRMC,204629.000,A,4910.425572,N,12304.402197,W,0.010,144.81,101024,,,A,V*2E
$GNGLL,4910.425572,N,12304.402197,W,204629.000,A,A*5C
$GNVTG,144.81,T,,M,0.010,N,0.019,K,A*22
$GNGSA,A,3,03,04,06,09,16,26,28,31,,,,,0.84,0.52,0.66,1*09
$GNGSA,A,3,,,,,,,,,,,,,0.84,0.52,0.66,2*09
$GNGSA,A,3,10,19,21,27,29,30,33,,,,,,0.84,0.52,0.66,3*0F
$GNGSA,A,3,20,23,24,25,29,32,37,41,,,,,0.84,0.52,0.66,4*06
