$GNGGA,204615.000,4910.425828,N,12304.400304,W,2,23,0.61,4.103,M,-16.817,M,,*49
$GNGLL,4910.425828,N,12304.400304,W,204615.000,A,D*5E
$GNGSA,A,3,03,04,31,26,09,06,16,28,,,,,0.87,0.61,0.62,1*0E
$GNGSA,A,3,67,68,,,,,,,,,,,0.87,0.61,0.62,2*01
$GNGSA,A,3,19,29,10,12,27,33,,,,,,,0.87,0.61,0.62,3*0B
$GNGSA,A,3,32,41,23,25,20,29,24,,,,,,0.87,0.61,0.62,4*05
$GPGSV,3,1,10,03,72,185,35,04,64,289,31,31,52,061,34,26,39,097,30,1*6A
$GPGSV,3,2,10,09,31,280,27,06,24,309,24,16,23,135,25,28,19,052,24,1*69
$GPGSV,3,3,10,07,03,225,,02,03,203,16,1*63
$GLGSV,3,1,09,67,68,065,28,77,60,088,,68,47,313,25,78,29,173,,1*79
$GLGSV,3,2,09,76,28,034,19,84,22,326,,83,20,260,,66,18,104,,1*7E
$GLGSV,3,3,09,69,02,296,,1*41
$GAGSV,3,1,11,19,76,303,25,29,52,080,29,10,36,285,25,12,36,254,19,7*71
$GAGSV,3,2,11,27,34,083,27,11,25,314,,21,23,142,21,04,18,273,,7*72
$GAGSV,3,3,11,30,13,032,,33,12,201,20,07,01,088,,7*47
$GBGSV,3,1,12,32,68,303,31,41,52,116,30,23,51,163,27,25,49,070,28,1*7E
$GBGSV,3,2,12,20,12,299,23,37,09,198,,29,09,308,16,31,06,329,,1*79
$GBGSV,3,3,12,24,06,037,17,33,04,118,17,30,03,258,,04,01,261,,1*72
$GNRMC,204615.000,A,4910.425828,N,12304.400304,W,0.19,202.12,101024,,,D,V*1E
$GNVTG,202.12,T,,M,0.19,N,0.35,K,D*2B
$GNGGA,204616.000,4910.425846,N,12304.400262,W,2,23,0.61,4.069,M,-16.816,M,,*4F
$GNGLL,4910.425846,N,12304.400262,W,204616.000,A,D*54
$GNGSA,A,3,03,04,31,26,09,06,16,28,,,,,0.87,0.61,0.62,1*0E
$GNGSA,A,3,67,68,,,,,,,,,,,0.87,0.61,0.62,2*01
$GNGSA,A,3,19,29,10,12,27,33,,,,,,,0.87,0.61,0.62,3*0B
$GNGSA,A,3,32,41,23,25,20,29,24,,,,,,0.87,0.61,0.62,4*05
$GPGSV,3,1,11,03,72,185,35,04,64,289,31,31,52,061,33,26,39,097,29,1*64
$GPGSV,3,2,11,09,31,280,27,06,24,309,24,16,23,135,24,28,19,052,24,1*69
$GPGSV,3,3,11,07,03,225,,02,03,203,17,38,,,,1*68
$GLGSV,2,1,07,67,68,065,28,77,60,088,,68,47,313,26,78,29,173,,1*75
$GLGSV,2,2,07,76,28,034,19,83,20,260,,69,02,296,,1*46
$GAGSV,3,1,11,19,76,303,24,29,52,080,28,10,36,285,25,12,36,254,19,7*71
$GAGSV,3,2,11,27,34,083,27,11,25,314,,21,23,142,21,04,18,273,,7*72
$GAGSV,3,3,11,30,13,032,,33,12,201,20,07,01,088,,7*47
$GBGSV,3,1,12,32,68,303,31,41,52,116,30,23,51,163,28,25,49,070,28,1*71
$GBGSV,3,2,12,20,12,299,23,29,09,308,16,37,09,198,,31,06,329,,1*79
$GBGSV,3,3,12,24,06,037,17,33,04,118,18,30,03,258,,04,01,261,,1*7D
$GNRMC,204616.000,A,4910.425846,N,12304.400262,W,0.17,202.12,101024,,,D,V*1A
$GNVTG,202.12,T,,M,0.17,N,0.31,K,D*21
$GNGGA,204617.000,4910.425828,N,12304.400292,W,2,23,0.61,4.108,M,-16.816,M,,*4F
$GNGLL,4910.425828,N,12304.400292,W,204617.000,A,D*52
$GNGSA,A,3,03,04,31,26,09,06,16,28,,,,,0.87,0.61,0.62,1*0E
$GNGSA,A,3,67,68,,,,,,,,,,,0.87,0.61,0.62,2*01
$GNGSA,A,3,19,29,10,12,27,33,,,,,,,0.87,0.61,0.62,3*0B
$GNGSA,A,3,32,41,23,25,20,29,24,,,,,,0.87,0.61,0.62,4*05
$GPGSV,3,1,11,03,72,185,35,04,64,289,31,31,52,061,33,26,39,097,29,1*64
$GPGSV,3,2,11,09,31,280,26,06,24,309,25,16,23,135,24,28,19,052,24,1*69
$GPGSV,3,3,11,07,03,225,,02,03,203,17,38,,,,1*68
$GLGSV,2,1,08,67,68,065,28,77,60,088,,68,47,313,26,78,29,173,,1*7A
$GLGSV,2,2,08,76,28,034,19,83,20,260,,66,18,104,,69,02,296,,1*75
$GAGSV,3,1,11,19,76,303,24,29,52,080,28,10,36,285,25,12,36,254,19,7*71
$GAGSV,3,2,11,27,34,083,28,11,25,314,,21,23,142,21,04,18,273,,7*7D
$GAGSV,3,3,11,30,13,032,,33,12,201,20,07,01,088,,7*47
$GBGSV,3,1,12,32,68,303,31,41,52,116,30,23,51,163,28,25,49,070,28,1*71
$GBGSV,3,2,12,20,12,299,23,37,09,198,,29,09,308,16,31,06,329,,1*79
$GBGSV,3,3,12,24,06,037,17,33,04,118,18,30,03,258,,04,01,261,,1*7D
$GNRMC,204617.000,A,4910.425828,N,12304.400292,W,0.10,202.12,101024,,,D,V*1B
$GNVTG,202.12,T,,M,0.10,N,0.18,K,D*2D
$GNGGA,204618.000,4910.425840,N,12304.400256,W,2,23,0.61,4.074,M,-16.816,M,,*4C
$GNGLL,4910.425840,N,12304.400256,W,204618.000,A,D*5B
$GNGSA,A,3,03,04,31,26,09,06,16,28,,,,,0.87,0.61,0.62,1*0E
$GNGSA,A,3,67,68,,,,,,,,,,,0.87,0.61,0.62,2*01
$GNGSA,A,3,19,29,10,12,27,33,,,,,,,0.87,0.61,0.62,3*0B
$GNGSA,A,3,32,41,23,25,20,29,24,,,,,,0.87,0.61,0.62,4*05
$GPGSV,3,1,11,03,72,185,35,04,64,289,31,31,52,061,33,26,39,097,29,1*64
$GPGSV,3,2,11,09,31,280,26,06,24,309,24,16,23,135,25,28,19,052,24,1*69
$GPGSV,3,3,11,07,03,225,,02,03,203,17,38,,,,1*68
$GLGSV,2,1,08,67,68,065,28,77,60,088,,68,47,313,26,78,29,173,,1*7A
$GLGSV,2,2,08,76,28,034,19,84,22,326,,83,20,260,,66,18,104,,1*7E
$GAGSV,3,1,11,19,76,303,24,29,52,080,28,10,36,285,25,12,36,254,19,7*71
$GAGSV,3,2,11,27,34,083,28,11,25,314,,21,23,142,21,04,18,273,,7*7D
$GAGSV,3,3,11,30,13,032,,33,12,201,20,07,01,088,,7*47
$GBGSV,3,1,12,32,68,303,31,41,52,116,29,23,51,163,27,25,49,070,28,1*76
$GBGSV,3,2,12,20,12,299,23,37,09,198,,29,09,308,16,24,06,037,17,1*77
$GBGSV,3,3,12,31,06,329,,33,04,118,18,30,03,258,,04,01,261,,1*73
$GNRMC,204618.000,A,4910.425840,N,12304.400256,W,0.50,202.12,101024,,,D,V*16
$GNVTG,202.12,T,,M,0.50,N,0.93,K,D*2A
$PAIR010,0,1,2335,420396*37
$GNGGA,204619.000,4910.425810,N,12304.400166,W,2,23,0.61,4.099,M,-16.816,M,,*4B
$GNGLL,4910.425810,N,12304.400166,W,204619.000,A,D*5F
$GNGSA,A,3,03,04,31,26,09,06,16,28,,,,,0.87,0.61,0.62,1*0E
$GNGSA,A,3,67,68,,,,,,,,,,,0.87,0.61,0.62,2*01
$GNGSA,A,3,19,29,10,12,27,33,,,,,,,0.87,0.61,0.62,3*0B
$GNGSA,A,3,32,41,23,25,20,29,24,,,,,,0.87,0.61,0.62,4*05
$GPGSV,3,1,11,03,72,185,35,04,64,289,31,31,52,061,33,26,39,097,29,1*64
$GPGSV,3,2,11,09,31,280,26,06,24,309,24,16,23,135,25,28,19,052,24,1*69
$GPGSV,3,3,11,07,03,225,,02,03,203,17,38,,,,1*68
$GLGSV,2,1,08,67,68,065,27,77,60,088,,68,47,313,26,78,29,173,,1*75
$GLGSV,2,2,08,76,28,034,19,84,22,326,,66,18,104,,69,02,296,,1*73
$GAGSV,3,1,11,19,76,303,24,29,52,080,28,10,36,285,25,12,36,254,19,7*71
$GAGSV,3,2,11,27,34,083,28,11,25,314,,21,23,142,21,04,18,273,,7*7D
$GAGSV,3,3,11,30,13,032,,33,12,201,20,07,01,088,,7*47
$GBGSV,3,1,12,32,68,303,31,41,52,116,29,23,51,163,27,25,49,070,28,1*76
$GBGSV,3,2,12,20,12,299,23,37,09,198,,29,09,308,16,31,06,329,,1*79
$GBGSV,3,3,12,24,06,037,17,33,04,118,18,30,03,258,,04,01,261,,1*7D
$GNRMC,204619.000,A,4910.425810,N,12304.400166,W,0.32,202.12,101024,,,D,V*16
$GNVTG,202.12,T,,M,0.32,N,0.59,K,D*28
$GNGGA,204620.000,4910.425810,N,12304.400112,W,2,23,0.61,4.090,M,-16.816,M,,*4B
$GNGLL,4910.425810,N,12304.400112,W,204620.000,A,D*56
$GNGSA,A,3,03,04,31,26,09,06,16,28,,,,,0.87,0.61,0.62,1*0E
$GNGSA,A,3,67,68,,,,,,,,,,,0.87,0.61,0.62,2*01
$GNGSA,A,3,19,29,12,10,27,33,,,,,,,0.87,0.61,0.62,3*0B
$GNGSA,A,3,32,41,23,25,20,29,24,,,,,,0.87,0.61,0.62,4*05
$GPGSV,3,1,10,03,72,185,35,04,64,289,31,31,52,061,33,26,39,097,29,1*65
$GPGSV,3,2,10,09,31,280,26,06,24,309,24,16,23,135,24,28,19,052,24,1*69
$GPGSV,3,3,10,02,03,203,17,38,,,,1*58
$GLGSV,2,1,08,67,68,065,27,77,60,088,,68,47,313,26,78,29,173,,1*75
$GLGSV,2,2,08,76,28,034,19,84,22,326,,83,20,260,,66,18,104,,1*7E
$GAGSV,2,1,07,19,76,303,24,29,52,080,28,12,36,254,19,10,36,285,25,7*77
$GAGSV,2,2,07,27,34,083,28,21,23,142,21,33,12,201,20,7*43
$GBGSV,2,1,08,32,68,303,30,41,52,116,29,23,51,163,26,25,49,070,27,1*73
$GBGSV,2,2,08,20,12,299,22,29,09,308,15,24,06,037,17,33,04,118,18,1*77
$GNRMC,204620.000,A,4910.425810,N,12304.400112,W,0.23,202.12,101024,,,D,V*1F
$GNVTG,202.12,T,,M,0.23,N,0.43,K,D*23
$GNGGA,204621.000,4910.425834,N,12304.400082,W,2,23,0.61,4.084,M,-16.817,M,,*40
$GNGLL,4910.425834,N,12304.400082,W,204621.000,A,D*59
$GNGSA,A,3,03,04,31,26,09,06,16,28,,,,,0.87,0.61,0.62,1*0E
$GNGSA,A,3,67,68,,,,,,,,,,,0.87,0.61,0.62,2*01
$GNGSA,A,3,19,29,12,10,27,33,,,,,,,0.87,0.61,0.62,3*0B
$GNGSA,A,3,32,41,23,25,20,29,24,,,,,,0.87,0.61,0.62,4*05
$GPGSV,3,1,09,03,72,185,35,04,64,289,31,31,52,061,33,26,39,097,29,1*6D
$GPGSV,3,2,09,09,31,280,26,06,24,309,24,16,23,135,25,28,19,052,24,1*60
$GPGSV,3,3,09,02,03,203,17,1*5B
$GLGSV,3,1,09,67,68,065,27,77,60,088,,68,47,313,26,78,29,173,,1*75
$GLGSV,3,2,09,76,28,034,19,84,22,326,,83,20,260,,66,18,104,,1*7E
$GLGSV,3,3,09,69,02,296,,1*41
$GAGSV,2,1,07,19,76,303,24,29,52,080,28,12,36,254,20,10,36,285,25,7*7D
$GAGSV,2,2,07,27,34,083,28,21,23,142,21,33,12,201,20,7*43
$GBGSV,2,1,08,32,68,303,30,41,52,116,29,23,51,163,26,25,49,070,27,1*73
$GBGSV,2,2,08,20,12,299,21,29,09,308,14,24,06,037,17,33,04,118,18,1*75
$GNRMC,204621.000,A,4910.425834,N,12304.400082,W,0.13,202.12,101024,,,D,V*13
$GNVTG,202.12,T,,M,0.13,N,0.24,K,D*21
$GNGGA,204622.000,4910.425864,N,12304.400034,W,2,23,0.61,4.064,M,-16.817,M,,*45
$GNGLL,4910.425864,N,12304.400034,W,204622.000,A,D*52
$GNGSA,A,3,03,04,31,26,09,16,06,28,,,,,0.87,0.61,0.62,1*0E
$GNGSA,A,3,67,68,,,,,,,,,,,0.87,0.61,0.62,2*01
$GNGSA,A,3,19,29,10,12,27,33,,,,,,,0.87,0.61,0.62,3*0B
$GNGSA,A,3,32,41,23,25,20,29,24,,,,,,0.87,0.61,0.62,4*05
$GPGSV,3,1,11,03,72,185,35,04,64,289,31,31,52,061,33,26,39,097,29,1*64
$GPGSV,3,2,11,09,31,280,26,16,25,135,25,06,24,309,24,28,19,052,23,1*68
$GPGSV,3,3,11,07,03,225,,02,03,203,17,45,,,,1*62
$GLGSV,2,1,07,67,68,065,28,77,60,088,,68,47,313,26,78,29,173,,1*75
$GLGSV,2,2,07,76,28,034,19,66,18,104,,69,02,296,,1*47
$GAGSV,3,1,11,19,76,303,24,29,52,080,28,10,36,285,26,12,36,254,20,7*78
$GAGSV,3,2,11,27,34,083,28,11,25,314,,21,23,142,21,04,18,273,,7*7D
$GAGSV,3,3,11,30,13,032,,33,12,201,20,07,01,088,,7*47
$GBGSV,3,1,12,32,68,303,30,41,52,116,29,23,51,163,26,25,49,070,27,1*79
$GBGSV,3,2,12,20,12,299,21,29,09,308,17,37,09,198,,31,06,329,,1*7A
$GBGSV,3,3,12,24,06,037,17,33,04,118,18,30,03,258,,04,01,261,,1*7D
$GNRMC,204622.000,A,4910.425864,N,12304.400034,W,0.23,202.12,101024,,,D,V*1B
$GNVTG,202.12,T,,M,0.23,N,0.43,K,D*23
$GNGGA,204623.000,4910.425870,N,12304.400040,W,2,23,0.61,4.057,M,-16.816,M,,*43
$GNGLL,4910.425870,N,12304.400040,W,204623.000,A,D*55
$GNGSA,A,3,03,04,31,26,09,16,06,28,,,,,0.87,0.61,0.62,1*0E
$GNGSA,A,3,67,68,,,,,,,,,,,0.87,0.61,0.62,2*01
$GNGSA,A,3,19,29,12,10,27,33,,,,,,,0.87,0.61,0.62,3*0B
$GNGSA,A,3,32,41,23,25,20,29,24,,,,,,0.87,0.61,0.62,4*05
$GPGSV,3,1,10,03,72,185,35,04,64,289,31,31,52,061,33,26,39,097,29,1*65
$GPGSV,3,2,10,09,31,280,26,16,25,135,25,06,24,309,24,28,19,052,24,1*6E
$GPGSV,3,3,10,02,03,203,17,45,,,,1*52
$GLGSV,3,1,09,67,68,065,27,77,60,088,,68,47,313,26,78,29,173,,1*75
$GLGSV,3,2,09,76,28,034,19,84,22,326,,83,20,260,,66,18,104,,1*7E
$GLGSV,3,3,09,69,02,296,,1*41
$GAGSV,2,1,07,19,76,303,24,29,52,080,28,12,36,254,20,10,36,285,26,7*7E
$GAGSV,2,2,07,27,34,083,28,21,23,142,21,33,12,201,20,7*43
$GBGSV,2,1,08,32,68,303,30,41,52,116,29,23,51,163,27,25,49,070,28,1*7D
$GBGSV,2,2,08,20,12,299,21,29,09,308,17,24,06,037,17,33,04,118,18,1*76
$GNRMC,204623.000,A,4910.425870,N,12304.400040,W,0.18,202.12,101024,,,D,V*14
$GNVTG,202.12,T,,M,0.18,N,0.33,K,D*2C
$GNGGA,204624.000,4910.425870,N,12304.400016,W,2,23,0.61,4.043,M,-16.816,M,,*42
$GNGLL,4910.425870,N,12304.400016,W,204624.000,A,D*51
$GNGSA,A,3,03,04,31,26,09,16,06,28,,,,,0.87,0.61,0.62,1*0E
$GNGSA,A,3,67,68,,,,,,,,,,,0.87,0.61,0.62,2*01
$GNGSA,A,3,19,29,12,10,27,33,,,,,,,0.87,0.61,0.62,3*0B
$GNGSA,A,3,32,41,23,25,20,29,24,,,,,,0.87,0.61,0.62,4*05
$GPGSV,3,1,10,03,72,185,35,04,64,289,31,31,52,061,33,26,39,097,29,1*65
$GPGSV,3,2,10,09,31,280,26,16,25,135,25,06,24,309,24,28,19,052,22,1*68
$GPGSV,3,3,10,02,03,203,17,45,,,,1*52
$GLGSV,3,1,09,67,68,065,27,77,60,088,,68,47,313,27,78,29,173,,1*74
$GLGSV,3,2,09,76,28,034,19,84,22,326,,83,20,260,,66,18,104,,1*7E
$GLGSV,3,3,09,69,02,296,,1*41
$GAGSV,2,1,07,19,76,303,24,29,52,080,28,12,36,254,20,10,36,285,25,7*7D
$GAGSV,2,2,07,27,34,083,28,21,23,142,21,33,12,201,20,7*43
$GBGSV,2,1,08,32,68,303,30,41,52,116,29,23,51,163,27,25,49,070,28,1*7D
