$GNGGA,192517.000,4910.426573,N,12304.401455,W,1,28,0.60,8.386,M,-16.816,M,,*4D
$GNRMC,192517.000,A,4910.426573,N,12304.401455,W,0.003,144.81,101024,,,A,V*24
$GNGLL,4910.426573,N,12304.401455,W,192517.000,A,A*54
$GNVTG,144.81,T,,M,0.003,N,0.006,K,A*2E
$GNGSA,A,3,02,03,04,17,19,21,25,26,28,31,32,,1.07,0.60,0.89,1*02
$GNGSA,A,3,,,,,,,,,,,,,1.07,0.60,0.89,2*03
$GNGSA,A,3,07,10,12,19,29,33,,,,,,,1.07,0.60,0.89,3*04
$GNGSA,A,3,14,23,24,25,27,29,30,32,33,40,41,,1.07,0.60,0.89,4*0D
$GNGSA,A,3,,,,,,,,,,,,,1.07,0.60,0.89,5*04
$GPGSV,3,1,11,02,35,220,28,03,62,301,33,04,32,259,27,17,06,292,17,1*6C
$GPGSV,3,2,11,19,07,316,21,21,25,203,24,25,13,041,18,26,16,130,26,1*62
$GPGSV,3,3,11,28,49,063,30,31,65,132,33,32,17,074,14,1*55
$GPGSV,1,1,03,03,62,301,25,04,32,259,20,28,49,063,24,8*51
$GLGSV,1,1,00,1*78
$GAGSV,2,1,08,07,22,070,20,10,28,315,21,12,44,292,22,19,51,260,23,7*76
$GAGSV,2,2,08,27,,,20,29,77,051,31,30,,,24,33,42,210,24,7*77
$GAGSV,2,1,06,10,28,315,17,12,44,292,18,19,51,260,18,27,,,14,1*48
$GAGSV,2,2,06,29,77,051,23,33,42,210,22,1*78
$GBGSV,3,1,11,14,05,100,19,23,16,172,30,24,28,052,33,25,45,119,35,1*7E
$GBGSV,3,2,11,27,15,233,28,29,06,335,23,30,21,284,31,32,37,289,35,1*7B
$GBGSV,3,3,11,33,30,097,31,40,05,300,21,41,80,051,38,1*4A
$GBGSV,2,1,05,24,28,052,18,25,45,119,23,30,21,284,17,32,37,289,20,5*74
$GBGSV,2,2,05,41,80,051,24,5*48
$GQGSV,1,1,00,1*65
$GQGSV,1,1,00,8*6C
$GNGGA,192518.000,4910.426574,N,12304.401454,W,1,27,0.59,8.389,M,-16.816,M,,*4E
$GNRMC,192518.000,A,4910.426574,N,12304.401454,W,0.008,144.81,101024,,,A,V*26
$GNGLL,4910.426574,N,12304.401454,W,192518.000,A,A*5D
$GNVTG,144.81,T,,M,0.008,N,0.016,K,A*24
$GNGSA,A,3,02,03,04,17,19,21,25,26,28,31,,,1.06,0.59,0.89,1*08
$GNGSA,A,3,,,,,,,,,,,,,1.06,0.59,0.89,2*08
$GNGSA,A,3,07,10,12,19,29,33,,,,,,,1.06,0.59,0.89,3*0F
$GNGSA,A,3,14,23,24,25,27,29,30,32,33,40,41,,1.06,0.59,0.89,4*06
$GNGSA,A,3,,,,,,,,,,,,,1.06,0.59,0.89,5*0F
$GPGSV,3,1,10,02,35,220,29,03,62,301,32,04,32,259,27,17,06,292,18,1*62
$GPGSV,3,2,10,19,07,316,21,21,25,203,24,25,13,041,20,26,16,130,26,1*68
$GPGSV,3,3,10,28,49,063,30,31,65,132,32,1*64
$GPGSV,1,1,03,03,62,301,23,04,32,259,20,28,49,063,23,8*50
$GLGSV,1,1,00,1*78
$GAGSV,2,1,08,07,22,070,20,10,28,315,23,12,44,292,22,19,51,260,23,7*74
$GAGSV,2,2,08,27,,,20,29,77,051,31,30,,,24,33,42,210,25,7*76
$GAGSV,2,1,06,10,28,315,17,12,44,292,18,19,51,260,19,27,,,15,1*48
$GAGSV,2,2,06,29,77,051,21,33,42,210,20,1*78
$GBGSV,3,1,11,14,05,100,20,23,16,172,32,24,28,052,32,25,45,119,36,1*74
$GBGSV,3,2,11,27,15,233,28,29,06,335,24,30,21,284,32,32,37,289,34,1*7E
$GBGSV,3,3,11,33,30,097,30,40,05,300,21,41,80,051,38,1*4B
$GBGSV,2,1,05,24,28,052,19,25,45,119,23,30,21,284,18,32,37,289,20,5*7A
$GBGSV,2,2,05,41,80,051,23,5*4F
$GQGSV,1,1,00,1*65
$GQGSV,1,1,00,8*6C
$GNGGA,192519.000,4910.426573,N,12304.401452,W,1,27,0.59,8.389,M,-16.816,M,,*4E
$GNRMC,192519.000,A,4910.426573,N,12304.401452,W,0.003,144.81,101024,,,A,V*2D
$GNGLL,4910.426573,N,12304.401452,W,192519.000,A,A*5D
$GNVTG,144.81,T,,M,0.003,N,0.005,K,A*2D
$GNGSA,A,3,02,03,04,17,19,21,25,26,28,31,,,1.04,0.59,0.86,1*05
$GNGSA,A,3,,,,,,,,,,,,,1.04,0.59,0.86,2*05
$GNGSA,A,3,07,10,12,19,29,33,,,,,,,1.04,0.59,0.86,3*02
$GNGSA,A,3,14,23,24,25,27,29,30,32,33,40,41,,1.04,0.59,0.86,4*0B
$GNGSA,A,3,,,,,,,,,,,,,1.04,0.59,0.86,5*02
$GPGSV,3,1,10,02,35,220,28,03,62,301,32,04,32,259,27,17,06,292,17,1*6C
$GPGSV,3,2,10,19,07,316,22,21,25,203,24,25,13,041,19,26,16,130,26,1*61
$GPGSV,3,3,10,28,49,063,29,31,65,132,32,1*6C
$GPGSV,1,1,03,03,62,301,25,04,32,259,21,28,49,063,25,8*51
$GLGSV,1,1,00,1*78
$GAGSV,2,1,08,07,22,070,22,10,28,315,23,12,44,292,21,19,51,260,23,7*75
$GAGSV,2,2,08,27,,,18,29,77,051,31,30,,,24,33,42,210,24,7*7C
$GAGSV,2,1,06,10,28,315,17,12,44,292,19,19,51,260,20,27,,,14,1*42
$GAGSV,2,2,06,29,77,051,23,33,42,210,21,1*7B
$GBGSV,3,1,11,14,05,100,19,23,16,172,31,24,28,052,32,25,45,119,35,1*7E
$GBGSV,3,2,11,27,15,233,28,29,06,335,24,30,21,284,31,32,37,289,34,1*7D
$GBGSV,3,3,11,33,30,097,30,40,05,300,22,41,80,051,38,1*48
$GBGSV,2,1,05,24,28,052,19,25,45,119,22,30,21,284,17,32,37,289,22,5*76
$GBGSV,2,2,05,41,80,051,24,5*48
$GQGSV,1,1,00,1*65
$GQGSV,1,1,00,8*6C
$GNGGA,192520.000,4910.426571,N,12304.401449,W,1,27,0.64,8.389,M,-16.816,M,,*42
$GNRMC,192520.000,A,4910.426571,N,12304.401449,W,0.009,144.81,101024,,,A,V*25
$GNGLL,4910.426571,N,12304.401449,W,192520.000,A,A*5F
$GNVTG,144.81,T,,M,0.009,N,0.017,K,A*24
$GNGSA,A,3,02,03,04,17,19,21,25,26,28,31,,,1.15,0.64,0.95,1*09
$GNGSA,A,3,,,,,,,,,,,,,1.15,0.64,0.95,2*09
$GNGSA,A,3,07,10,12,19,29,33,,,,,,,1.15,0.64,0.95,3*0E
$GNGSA,A,3,14,23,24,25,27,29,30,32,33,40,41,,1.15,0.64,0.95,4*07
$GNGSA,A,3,,,,,,,,,,,,,1.15,0.64,0.95,5*0E
$GPGSV,3,1,10,02,35,220,28,03,62,301,31,04,32,259,27,17,06,292,17,1*6F
$GPGSV,3,2,10,19,07,316,22,21,25,203,24,25,13,041,19,26,16,130,27,1*60
$GPGSV,3,3,10,28,49,063,30,31,65,132,33,1*65
$GPGSV,1,1,03,03,62,301,24,04,32,259,19,28,49,063,23,8*5D
$GLGSV,1,1,00,1*78
$GAGSV,2,1,08,07,22,070,19,10,28,315,22,12,44,292,22,19,51,260,22,7*7E
$GAGSV,2,2,08,27,,,21,29,77,051,31,30,,,23,33,42,210,24,7*71
$GAGSV,2,1,05,10,28,315,18,12,44,292,17,19,51,260,17,29,77,051,23,1*7A
$GAGSV,2,2,05,33,42,210,21,1*46
$GBGSV,3,1,11,14,05,100,19,23,16,172,30,24,28,052,32,25,45,119,35,1*7F
$GBGSV,3,2,11,27,15,233,28,29,06,335,24,30,21,284,31,32,37,289,34,1*7D
$GBGSV,3,3,11,33,30,097,29,40,05,300,20,41,80,051,38,1*42
$GBGSV,2,1,05,24,28,052,17,25,45,119,21,30,21,284,17,32,37,289,20,5*79
$GBGSV,2,2,05,41,80,051,24,5*48
$GQGSV,1,1,00,1*65
$GQGSV,1,1,00,8*6C
$GNGGA,192521.000,4910.426571,N,12304.401447,W,1,27,0.59,8.392,M,-16.817,M,,*48
$GNRMC,192521.000,A,4910.426571,N,12304.401447,W,0.008,144.81,101024,,,A,V*2B
$GNGLL,4910.426571,N,12304.401447,W,192521.000,A,A*50
$GNVTG,144.81,T,,M,0.008,N,0.015,K,A*27
$GNGSA,A,3,02,03,04,17,19,21,25,26,28,31,,,1.06,0.59,0.89,1*08
$GNGSA,A,3,,,,,,,,,,,,,1.06,0.59,0.89,2*08
$GNGSA,A,3,07,10,12,19,29,33,,,,,,,1.06,0.59,0.89,3*0F
$GNGSA,A,3,14,23,24,25,27,29,30,32,33,40,41,,1.06,0.59,0.89,4*06
$GNGSA,A,3,,,,,,,,,,,,,1.06,0.59,0.89,5*0F
$GPGSV,3,1,10,02,35,220,29,03,62,301,33,04,32,259,29,17,06,292,17,1*62
$GPGSV,3,2,10,19,07,316,22,21,25,203,25,25,13,041,20,26,16,130,27,1*6B
$GPGSV,3,3,10,28,49,063,31,31,65,132,34,1*63
$GPGSV,1,1,03,03,62,301,22,04,32,259,19,28,49,063,22,8*5A
$GLGSV,1,1,00,1*78
$GAGSV,2,1,08,07,22,070,21,10,28,315,22,12,44,292,23,19,51,260,25,7*73
$GAGSV,2,2,08,27,,,21,29,77,051,31,30,,,22,33,42,210,26,7*72
$GAGSV,2,1,05,10,28,315,17,12,44,292,17,19,51,260,17,29,77,051,23,1*75
$GAGSV,2,2,05,33,42,210,18,1*4C
$GBGSV,3,1,11,14,05,100,19,23,16,172,31,24,28,052,32,25,45,119,35,1*7E
$GBGSV,3,2,11,27,15,233,28,29,06,335,25,30,21,284,31,32,37,289,35,1*7D
$GBGSV,3,3,11,33,30,097,31,40,05,300,22,41,80,051,38,1*49
$GBGSV,2,1,05,24,28,052,17,25,45,119,21,30,21,284,17,32,37,289,21,5*78
$GBGSV,2,2,05,41,80,051,22,5*4E
$GQGSV,1,1,00,1*65
$GQGSV,1,1,00,8*6C
$GNGGA,192522.000,4910.426569,N,12304.401444,W,1,27,0.58,8.392,M,-16.817,M,,*40
$GNRMC,192522.000,A,4910.426569,N,12304.401444,W,0.015,144.81,101024,,,A,V*2E
$GNGLL,4910.426569,N,12304.401444,W,192522.000,A,A*59
$GNVTG,144.81,T,,M,0.015,N,0.027,K,A*2A
$GNGSA,A,3,02,03,04,17,19,21,25,26,28,31,,,1.06,0.58,0.89,1*09
$GNGSA,A,3,,,,,,,,,,,,,1.06,0.58,0.89,2*09
$GNGSA,A,3,07,10,12,19,29,33,,,,,,,1.06,0.58,0.89,3*0E
$GNGSA,A,3,14,23,24,25,27,29,30,32,33,40,41,,1.06,0.58,0.89,4*07
$GNGSA,A,3,,,,,,,,,,,,,1.06,0.58,0.89,5*0E
$GPGSV,3,1,10,02,35,220,28,03,62,301,32,04,32,259,28,17,06,292,17,1*63
$GPGSV,3,2,10,19,07,316,21,21,25,203,24,25,13,041,20,26,16,130,27,1*69
$GPGSV,3,3,10,28,49,063,30,31,65,132,33,1*65
$GPGSV,1,1,03,03,62,301,24,04,32,259,19,28,49,063,22,8*5C
$GLGSV,1,1,00,1*78
$GAGSV,2,1,08,07,22,070,20,10,28,315,22,12,44,292,22,19,51,260,23,7*75
$GAGSV,2,2,08,27,,,21,29,77,051,32,30,,,23,33,42,210,25,7*73
$GAGSV,2,1,05,10,28,315,17,12,44,292,16,19,51,260,17,29,77,051,23,1*74
$GAGSV,2,2,05,33,42,210,21,1*46
$GBGSV,3,1,11,14,05,100,20,23,16,172,32,24,28,052,33,25,45,119,36,1*75
$GBGSV,3,2,11,27,15,233,28,29,06,335,24,30,21,284,32,32,37,289,35,1*7F
$GBGSV,3,3,11,33,30,097,31,40,05,300,23,41,80,051,39,1*49
$GBGSV,2,1,05,24,28,052,19,25,45,119,21,30,21,284,18,32,37,289,19,5*72
$GBGSV,2,2,05,41,80,051,23,5*4F
$GQGSV,1,1,00,1*65
$GQGSV,1,1,00,8*6C
$GNGGA,192523.000,4910.426568,N,12304.401440,W,1,28,0.59,8.392,M,-16.816,M,,*4B
$GNRMC,192523.000,A,4910.426568,N,12304.401440,W,0.003,144.81,101024,,,A,V*2D
$GNGLL,4910.426568,N,12304.401440,W,192523.000,A,A*5D
$GNVTG,144.81,T,,M,0.003,N,0.006,K,A*2E
$GNGSA,A,3,02,03,04,17,19,21,25,26,28,31,32,,1.06,0.59,0.89,1*09
$GNGSA,A,3,,,,,,,,,,,,,1.06,0.59,0.89,2*08
$GNGSA,A,3,07,10,12,19,29,33,,,,,,,1.06,0.59,0.89,3*0F
$GNGSA,A,3,14,23,24,25,27,29,30,32,33,40,41,,1.06,0.59,0.89,4*06
$GNGSA,A,3,,,,,,,,,,,,,1.06,0.59,0.89,5*0F
$GPGSV,3,1,11,02,35,220,30,03,62,301,34,04,32,259,28,17,06,292,18,1*62
$GPGSV,3,2,11,19,07,316,23,21,25,203,25,25,13,041,21,26,16,130,26,1*6B
$GPGSV,3,3,11,28,49,063,31,31,65,132,34,32,16,074,20,1*55
$GPGSV,1,1,03,03,62,301,26,04,32,259,21,28,49,063,24,8*53
$GLGSV,1,1,00,1*78
$GAGSV,2,1,08,07,22,070,23,10,28,315,23,12,44,292,21,19,51,260,22,7*75
$GAGSV,2,2,08,27,,,21,29,77,051,30,30,,,24,33,42,210,25,7*76
$GAGSV,2,1,05,10,28,315,18,12,44,292,18,19,51,260,19,29,77,051,24,1*7C
$GAGSV,2,2,05,33,42,210,23,1*44
$GBGSV,3,1,11,14,05,100,18,23,16,172,31,24,28,052,30,25,45,119,35,1*7D
$GBGSV,3,2,11,27,15,233,27,29,06,335,24,30,21,284,31,32,37,289,34,1*72
$GBGSV,3,3,11,33,30,097,30,40,05,300,21,41,80,051,37,1*44
$GBGSV,2,1,05,24,28,052,18,25,45,119,23,30,21,284,18,32,37,289,21,5*7A
$GBGSV,2,2,05,41,80,051,24,5*48
$GQGSV,1,1,00,1*65
$GQGSV,1,1,00,8*6C
$GNGGA,192524.000,4910.426568,N,12304.401437,W,1,28,0.59,8.390,M,-16.816,M,,*4E
$GNRMC,192524.000,A,4910.426568,N,12304.401437,W,0.008,144.81,101024,,,A,V*21
$GNGLL,4910.426568,N,12304.401437,W,192524.000,A,A*5A
$GNVTG,144.81,T,,M,0.008,N,0.014,K,A*26
$GNGSA,A,3,02,03,04,17,19,21,25,26,28,31,32,,1.06,0.59,0.89,1*09
$GNGSA,A,3,,,,,,,,,,,,,1.06,0.59,0.89,2*08
$GNGSA,A,3,07,10,12,19,29,33,,,,,,,1.06,0.59,0.89,3*0F
$GNGSA,A,3,14,23,24,25,27,29,30,32,33,40,41,,1.06,0.59,0.89,4*06
$GNGSA,A,3,,,,,,,,,,,,,1.06,0.59,0.89,5*0F
$GPGSV,3,1,11,02,35,220,27,03,62,301,31,04,32,259,26,17,06,292,18,1*6F
$GPGSV,3,2,11,19,07,316,22,21,25,203,24,25,13,041,20,26,16,130,25,1*69
$GPGSV,3,3,11,28,49,063,29,31,65,132,32,32,16,074,19,1*50
$GPGSV,1,1,03,03,62,301,26,04,32,259,21,28,49,063,25,8*52
$GLGSV,1,1,00,1*78
$GAGSV,2,1,08,07,22,070,21,10,28,315,22,12,44,292,24,19,51,260,21,7*70
$GAGSV,2,2,08,27,,,20,29,77,051,30,30,,,23,33,42,210,24,7*71
$GAGSV,2,1,05,10,28,315,19,12,44,292,19,19,51,260,19,29,77,051,24,1*7C
$GAGSV,2,2,05,33,42,210,23,1*44
$GBGSV,3,1,11,14,05,100,19,23,16,172,31,24,28,052,32,25,45,119,36,1*7D
$GBGSV,3,2,11,27,15,233,27,29,06,335,24,30,21,284,32,32,37,289,34,1*71
$GBGSV,3,3,11,33,30,097,31,40,05,300,22,41,80,051,38,1*49
$GBGSV,2,1,05,24,28,052,19,25,45,119,24,30,21,284,18,32,37,289,22,5*7F
$GBGSV,2,2,05,41,80,051,24,5*48
$GQGSV,1,1,00,1*65
$GQGSV,1,1,00,8*6C
$GNGGA,192525.000,4910.426568,N,12304.401434,W,1,28,0.59,8.389,M,-16.816,M,,*44
$GNRMC,192525.000,A,4910.426568,N,12304.401434,W,0.007,144.81,101024,,,A,V*2C
$GNGLL,4910.426568,N,12304.401434,W,192525.000,A,A*58
$GNVTG,144.81,T,,M,0.007,N,0.014,K,A*29
$GNGSA,A,3,02,03,04,17,19,21,25,26,28,31,32,,1.06,0.59,0.89,1*09
$GNGSA,A,3,,,,,,,,,,,,,1.06,0.59,0.89,2*08
$GNGSA,A,3,07,10,12,19,29,33,,,,,,,1.06,0.59,0.89,3*0F
$GNGSA,A,3,14,23,24,25,27,29,30,32,33,40,41,,1.06,0.59,0.89,4*06
$GNGSA,A,3,,,,,,,,,,,,,1.06,0.59,0.89,5*0F
$GPGSV,3,1,11,02,35,220,29,03,62,301,33,04,32,259,27,17,06,292,17,1*6D
$GPGSV,3,2,11,19,07,316,21,21,25,203,24,25,13,041,20,26,16,130,25,1*6A
$GPGSV,3,3,11,28,49,063,30,31,65,132,33,32,16,074,19,1*59
$GPGSV,1,1,03,03,62,301,25,04,32,259,19,28,49,063,24,8*5B
$GLGSV,1,1,00,1*78
$GAGSV,2,1,08,07,22,070,20,10,28,315,21,12,44,292,21,19,51,260,24,7*72
$GAGSV,2,2,08,27,,,20,29,77,051,31,30,,,23,33,42,210,24,7*70
$GAGSV,2,1,05,10,28,315,18,12,44,292,17,19,51,260,18,29,77,051,23,1*75
$GAGSV,2,2,05,33,42,210,21,1*46
$GBGSV,3,1,11,14,05,100,18,23,16,172,31,24,28,052,31,25,45,119,35,1*7C
$GBGSV,3,2,11,27,15,233,27,29,06,335,23,30,21,284,30,32,37,289,34,1*74
$GBGSV,3,3,11,33,30,097,31,40,05,300,20,41,80,051,38,1*4B
$GBGSV,2,1,05,24,28,052,18,25,45,119,21,30,21,284,16,32,37,289,20,5*77
$GBGSV,2,2,05,41,80,051,23,5*4F
$GQGSV,1,1,00,1*65
$GQGSV,1,1,00,8*6C
$GNGGA,192526.000,4910.426568,N,12304.401431,W,1,28,0.64,8.389,M,-16.816,M,,*4C
$GNRMC,192526.000,A,4910.426568,N,12304.401431,W,0.008,144.81,101024,,,A,V*25
$GNGLL,4910.426568,N,12304.401431,W,192526.000,A,A*5E
$GNVTG,144.81,T,,M,0.008,N,0.015,K,A*27
$GNGSA,A,3,02,03,04,17,19,21,25,26,28,31,32,,1.14,0.64,0.95,1*09
$GNGSA,A,3,,,,,,,,,,,,,1.14,0.64,0.95,2*08
$GNGSA,A,3,07,10,12,19,29,33,,,,,,,1.14,0.64,0.95,3*0F
$GNGSA,A,3,14,23,24,25,27,29,30,32,33,40,41,,1.14,0.64,0.95,4*06
$GNGSA,A,3,,,,,,,,,,,,,1.14,0.64,0.95,5*0F
$GPGSV,3,1,11,02,35,220,29,03,62,301,33,04,32,259,28,17,06,292,17,1*62
$GPGSV,3,2,11,19,07,316,23,21,25,203,24,25,13,041,20,26,16,130,25,1*68
$GPGSV,3,3,11,28,49,063,30,31,65,132,34,32,16,074,22,1*56
$GPGSV,1,1,03,03,62,301,25,04,32,259,20,28,49,063,24,8*51
$GLGSV,1,1,00,1*78
$GAGSV,2,1,08,07,22,070,21,10,28,315,22,12,44,292,21,19,51,260,24,7*70
$GAGSV,2,2,08,27,,,19,29,77,051,31,30,,,24,33,42,210,27,7*7E
$GAGSV,2,1,05,10,28,315,19,12,44,292,17,19,51,260,17,29,77,051,23,1*7B
$GAGSV,2,2,05,33,42,210,21,1*46
$GBGSV,3,1,11,14,05,100,18,23,16,172,31,24,28,052,31,25,45,119,35,1*7C
$GBGSV,3,2,11,27,15,233,26,29,06,335,24,30,21,284,32,32,37,289,33,1*77
$GBGSV,3,3,11,33,30,097,30,40,05,300,21,41,80,051,37,1*44
$GBGSV,2,1,05,24,28,052,19,25,45,119,23,30,21,284,17,32,37,289,21,5*74
$GBGSV,2,2,05,41,80,051,23,5*4F
$GQGSV,1,1,00,1*65
$GQGSV,1,1,00,8*6C
$GNGGA,192527.000,4910.426568,N,12304.401429,W,1,28,0.65,8.388,M,-16.816,M,,*44
