$GNGGA,192517.000,4910.427790,N,12304.399890,W,2,28,0.48,1.492,M,-16.816,M,,*42
$GNGLL,4910.427790,N,12304.399890,W,192517.000,A,D*5C
$GNGSA,A,3,31,03,28,02,04,21,32,26,25,19,17,,0.85,0.48,0.70,1*05
$GNGSA,A,3,66,76,,,,,,,,,,,0.85,0.48,0.70,2*05
$GNGSA,A,3,29,33,10,07,26,,,,,,,,0.85,0.48,0.70,3*0C
$GNGSA,A,3,41,25,32,33,24,30,23,27,40,14,,,0.85,0.48,0.70,4*01
$GPGSV,4,1,13,31,64,135,33,03,61,302,33,28,50,065,29,02,36,221,29,1*6B
$GPGSV,4,2,13,46,33,188,28,04,31,259,27,21,26,204,24,32,18,074,18,1*61
$GPGSV,4,3,13,26,15,131,26,25,14,042,23,19,08,317,21,17,07,294,16,1*6C
$GPGSV,4,4,13,06,03,334,,1*57
$GLGSV,2,1,06,67,59,314,,66,50,065,22,76,44,082,22,82,35,250,18,1*79
$GLGSV,2,2,06,77,30,140,,68,15,282,,1*7A
$GAGSV,3,1,10,29,78,050,31,19,51,260,24,12,44,293,17,33,43,210,25,7*73
$GAGSV,3,2,10,10,28,316,23,07,23,070,21,30,19,058,23,27,16,109,23,7*73
$GAGSV,3,3,10,26,07,175,16,11,06,332,17,7*77
$GBGSV,3,1,12,41,80,051,33,25,45,120,31,32,37,289,28,33,30,097,27,1*7D
$GBGSV,3,2,12,24,29,053,26,30,22,284,27,23,17,172,27,27,16,234,24,1*74
$GBGSV,3,3,12,31,09,338,,29,07,336,18,40,06,300,17,14,06,100,16,1*77
$GNRMC,192517.000,A,4910.427790,N,12304.399890,W,0.13,10.16,101024,,,D,V*23
$GNVTG,10.16,T,,M,0.13,N,0.24,K,D*14
$GNGGA,192518.000,4910.427706,N,12304.399884,W,2,29,0.47,1.613,M,-16.816,M,,*42
$GNGLL,4910.427706,N,12304.399884,W,192518.000,A,D*59
$GNGSA,A,3,31,03,28,02,04,21,32,26,25,19,17,,0.83,0.47,0.68,1*05
$GNGSA,A,3,66,76,,,,,,,,,,,0.83,0.47,0.68,2*05
$GNGSA,A,3,29,19,33,10,07,26,,,,,,,0.83,0.47,0.68,3*04
$GNGSA,A,3,41,25,32,33,24,30,23,27,40,14,,,0.83,0.47,0.68,4*01
$GPGSV,4,1,13,31,64,135,33,03,61,302,33,28,50,065,29,02,36,221,29,1*6B
$GPGSV,4,2,13,46,33,188,28,04,31,259,27,21,26,204,24,32,18,074,18,1*61
$GPGSV,4,3,13,26,15,131,26,25,14,042,24,19,08,317,22,17,07,294,16,1*68
$GPGSV,4,4,13,06,03,334,,1*57
$GLGSV,2,1,05,67,59,314,,66,50,065,23,76,44,082,22,82,35,250,18,1*7B
$GLGSV,2,2,05,77,30,140,,1*4B
$GAGSV,3,1,10,29,78,050,31,19,51,260,24,12,44,293,17,33,43,210,25,7*73
$GAGSV,3,2,10,10,28,316,23,07,23,070,21,30,19,058,23,27,16,109,23,7*73
$GAGSV,3,3,10,26,07,175,16,11,06,332,17,7*77
$GBGSV,3,1,12,41,80,051,33,25,45,120,31,32,37,289,28,33,30,097,26,1*7C
$GBGSV,3,2,12,24,29,053,25,30,22,284,27,23,17,172,27,27,16,234,23,1*70
$GBGSV,3,3,12,31,09,338,,29,07,336,18,40,06,300,17,14,06,100,16,1*77
$GNRMC,192518.000,A,4910.427706,N,12304.399884,W,0.05,10.16,101024,,,D,V*21
$GNVTG,10.16,T,,M,0.05,N,0.10,K,D*14
$PAIR010,0,1,2335,415536*3D
$GNGGA,192519.000,4910.427790,N,12304.399884,W,2,29,0.47,1.502,M,-16.816,M,,*4F
$GNGLL,4910.427790,N,12304.399884,W,192519.000,A,D*57
$GNGSA,A,3,31,03,28,02,04,21,32,26,25,19,17,,0.83,0.47,0.68,1*05
$GNGSA,A,3,66,76,,,,,,,,,,,0.83,0.47,0.68,2*05
$GNGSA,A,3,29,19,33,10,07,26,,,,,,,0.83,0.47,0.68,3*04
$GNGSA,A,3,41,25,32,33,24,30,23,27,14,40,,,0.83,0.47,0.68,4*01
$GPGSV,4,1,13,31,64,135,33,03,61,302,33,28,50,065,29,02,36,221,29,1*6B
$GPGSV,4,2,13,46,33,188,28,04,31,259,27,21,26,204,23,32,18,074,18,1*66
$GPGSV,4,3,13,26,15,131,26,25,14,042,24,19,08,317,22,17,07,294,16,1*68
$GPGSV,4,4,13,09,01,259,,1*50
$GLGSV,2,1,07,67,59,314,,66,50,065,23,76,44,082,22,83,36,306,,1*70
$GLGSV,2,2,07,82,35,250,18,77,30,140,,68,15,282,,1*49
$GAGSV,3,1,10,29,78,050,31,19,51,260,24,12,44,293,17,33,43,210,25,7*73
$GAGSV,3,2,10,10,28,316,23,07,23,070,21,30,19,058,23,27,16,109,23,7*73
$GAGSV,3,3,10,26,07,175,16,11,06,332,17,7*77
$GBGSV,3,1,12,41,80,051,33,25,45,120,31,32,37,289,28,33,30,097,26,1*7C
$GBGSV,3,2,12,24,29,053,26,30,22,284,27,23,17,172,27,27,16,234,23,1*73
$GBGSV,3,3,12,31,09,338,,29,07,336,18,14,06,100,16,40,06,300,17,1*77
$GNRMC,192519.000,A,4910.427790,N,12304.399884,W,0.26,10.16,101024,,,D,V*2E
$GNVTG,10.16,T,,M,0.26,N,0.48,K,D*18
$GNGGA,192520.000,4910.427766,N,12304.399872,W,2,29,0.47,1.530,M,-16.816,M,,*44
$GNGLL,4910.427766,N,12304.399872,W,192520.000,A,D*5D
$GNGSA,A,3,31,03,28,02,04,21,32,26,25,19,17,,0.83,0.47,0.68,1*05
$GNGSA,A,3,66,76,,,,,,,,,,,0.83,0.47,0.68,2*05
$GNGSA,A,3,29,19,33,10,07,26,,,,,,,0.83,0.47,0.68,3*04
$GNGSA,A,3,41,25,32,33,24,30,23,27,14,40,,,0.83,0.47,0.68,4*01
$GPGSV,4,1,13,31,64,135,33,03,61,302,33,28,50,065,29,02,36,221,29,1*6B
$GPGSV,4,2,13,46,33,188,28,04,31,259,27,21,26,204,24,32,18,074,18,1*61
$GPGSV,4,3,13,26,15,131,26,25,14,042,24,19,08,317,22,17,07,294,16,1*68
$GPGSV,4,4,13,09,01,259,,1*50
$GLGSV,2,1,07,67,59,314,,66,50,065,23,76,44,082,23,83,36,306,,1*71
$GLGSV,2,2,07,82,35,250,18,77,30,140,,68,15,282,,1*49
$GAGSV,3,1,10,29,78,050,31,19,51,260,24,12,44,293,17,33,43,210,25,7*73
$GAGSV,3,2,10,10,28,316,23,07,23,070,21,30,19,058,23,27,16,109,23,7*73
$GAGSV,3,3,10,26,07,175,16,11,06,332,17,7*77
$GBGSV,3,1,12,41,80,051,33,25,45,120,31,32,37,289,28,33,30,097,26,1*7C
$GBGSV,3,2,12,24,29,053,26,30,22,284,27,23,17,172,27,27,16,234,23,1*73
$GBGSV,3,3,12,31,09,338,,29,07,336,18,14,06,100,15,40,06,300,17,1*74
$GNRMC,192520.000,A,4910.427766,N,12304.399872,W,0.57,10.16,101024,,,D,V*22
$GNVTG,10.16,T,,M,0.57,N,1.06,K,D*15
$GNGGA,192521.000,4910.427646,N,12304.399812,W,2,29,0.47,1.571,M,-16.817,M,,*44
$GNGLL,4910.427646,N,12304.399812,W,192521.000,A,D*59
$GNGSA,A,3,31,03,28,02,04,21,32,26,25,19,17,,0.83,0.47,0.68,1*05
$GNGSA,A,3,66,76,,,,,,,,,,,0.83,0.47,0.68,2*05
$GNGSA,A,3,29,19,33,10,07,26,,,,,,,0.83,0.47,0.68,3*04
$GNGSA,A,3,41,25,32,33,24,30,23,27,14,40,,,0.83,0.47,0.68,4*01
$GPGSV,4,1,13,31,64,135,33,03,61,302,33,28,50,065,29,02,36,221,29,1*6B
$GPGSV,4,2,13,46,33,188,28,04,31,259,27,21,26,204,25,32,18,074,18,1*60
$GPGSV,4,3,13,26,15,131,26,25,14,042,23,19,08,317,22,17,07,294,16,1*6F
$GPGSV,4,4,13,09,01,259,,1*50
$GLGSV,2,1,07,67,59,314,,66,50,065,23,76,44,082,23,83,36,306,,1*71
$GLGSV,2,2,07,82,35,250,18,77,30,140,,68,15,282,,1*49
$GAGSV,3,1,10,29,78,050,31,19,51,260,24,12,44,293,17,33,43,210,25,7*73
$GAGSV,3,2,10,10,28,316,23,07,23,070,22,30,19,058,23,27,16,109,22,7*71
$GAGSV,3,3,10,26,07,175,15,11,06,332,16,7*75
$GBGSV,3,1,12,41,80,051,32,25,45,120,30,32,37,289,28,33,30,097,25,1*7F
$GBGSV,3,2,12,24,29,053,25,30,22,284,26,23,17,172,26,27,16,234,20,1*73
$GBGSV,3,3,12,31,09,338,,29,07,336,18,14,06,100,15,40,06,300,17,1*74
$GNRMC,192521.000,A,4910.427646,N,12304.399812,W,0.53,10.16,101024,,,D,V*22
$GNVTG,10.16,T,,M,0.53,N,0.99,K,D*16
$GNGGA,192522.000,4910.427634,N,12304.399818,W,2,29,0.47,1.491,M,-16.817,M,,*47
$GNGLL,4910.427634,N,12304.399818,W,192522.000,A,D*55
$GNGSA,A,3,31,03,28,02,04,21,32,26,25,19,17,,0.83,0.47,0.68,1*05
$GNGSA,A,3,66,76,,,,,,,,,,,0.83,0.47,0.68,2*05
$GNGSA,A,3,29,19,33,10,07,26,,,,,,,0.83,0.47,0.68,3*04
$GNGSA,A,3,41,25,32,33,24,30,23,27,14,40,,,0.83,0.47,0.68,4*01
$GPGSV,4,1,13,31,64,135,33,03,61,302,33,28,50,065,29,02,36,221,29,1*6B
$GPGSV,4,2,13,46,33,188,28,04,31,259,27,21,26,204,23,32,18,074,18,1*66
$GPGSV,4,3,13,26,15,131,26,25,14,042,23,19,08,317,22,17,07,294,16,1*6F
$GPGSV,4,4,13,09,01,259,,1*50
$GLGSV,2,1,05,66,50,065,23,76,44,082,23,82,35,250,18,77,30,140,,1*77
$GLGSV,2,2,05,68,15,282,,1*4F
$GAGSV,3,1,10,29,78,050,31,19,51,260,24,12,44,293,16,33,43,210,24,7*73
$GAGSV,3,2,10,10,28,316,23,07,23,070,21,30,19,058,23,27,16,109,21,7*71
$GAGSV,3,3,10,26,07,175,14,11,06,332,16,7*74
$GBGSV,3,1,12,41,80,051,32,25,45,120,30,32,37,289,28,33,30,097,25,1*7F
$GBGSV,3,2,12,24,29,053,25,30,22,284,26,23,17,172,26,27,16,234,22,1*71
$GBGSV,3,3,12,31,09,338,,29,07,336,17,14,06,100,15,40,06,300,17,1*7B
$GNRMC,192522.000,A,4910.427634,N,12304.399818,W,0.37,10.16,101024,,,D,V*2C
$GNVTG,10.16,T,,M,0.37,N,0.68,K,D*1A
$GNGGA,192523.000,4910.427670,N,12304.399872,W,2,29,0.47,1.463,M,-16.816,M,,*46
$GNGLL,4910.427670,N,12304.399872,W,192523.000,A,D*58
$GNGSA,A,3,31,03,28,02,04,21,32,26,25,19,17,,0.83,0.47,0.68,1*05
$GNGSA,A,3,66,76,,,,,,,,,,,0.83,0.47,0.68,2*05
$GNGSA,A,3,29,19,33,10,07,26,,,,,,,0.83,0.47,0.68,3*04
$GNGSA,A,3,41,25,32,33,24,30,23,27,40,14,,,0.83,0.47,0.68,4*01
$GPGSV,4,1,13,31,64,135,33,03,61,302,33,28,50,065,29,02,36,221,28,1*6A
$GPGSV,4,2,13,46,33,188,28,04,31,259,26,21,26,204,22,32,18,074,18,1*66
$GPGSV,4,3,13,26,15,131,26,25,14,042,23,19,08,317,22,17,07,294,16,1*6F
$GPGSV,4,4,13,06,03,334,,1*57
$GLGSV,2,1,05,67,59,314,,66,50,065,23,76,44,082,23,83,36,306,,1*73
$GLGSV,2,2,05,82,35,250,18,1*4F
$GAGSV,3,1,10,29,78,050,31,19,51,260,23,12,44,293,16,33,43,210,24,7*74
$GAGSV,3,2,10,10,28,316,23,07,23,070,21,30,19,058,23,27,16,109,21,7*71
$GAGSV,3,3,10,26,07,175,13,11,06,332,16,7*73
$GBGSV,3,1,12,41,80,051,32,25,45,120,30,32,37,289,28,33,30,097,25,1*7F
$GBGSV,3,2,12,24,29,053,24,30,22,284,26,23,17,172,26,27,16,234,20,1*72
$GBGSV,3,3,12,31,09,338,,29,07,336,17,40,06,300,17,14,06,100,15,1*7B
$GNRMC,192523.000,A,4910.427670,N,12304.399872,W,0.32,10.16,101024,,,D,V*24
$GNVTG,10.16,T,,M,0.32,N,0.60,K,D*17
$GNGGA,192524.000,4910.427754,N,12304.399920,W,2,29,0.47,1.464,M,-16.817,M,,*46
$GNGLL,4910.427754,N,12304.399920,W,192524.000,A,D*5E
$GNGSA,A,3,31,03,28,02,04,21,32,26,25,19,17,,0.83,0.47,0.68,1*05
$GNGSA,A,3,66,76,,,,,,,,,,,0.83,0.47,0.68,2*05
$GNGSA,A,3,29,19,33,10,07,26,,,,,,,0.83,0.47,0.68,3*04
$GNGSA,A,3,41,25,32,33,24,30,23,27,40,14,,,0.83,0.47,0.68,4*01
$GPGSV,4,1,13,31,64,135,33,03,61,302,33,28,50,065,29,02,36,221,28,1*6A
$GPGSV,4,2,13,46,33,188,28,04,31,259,26,21,26,204,24,32,18,074,18,1*60
$GPGSV,4,3,13,26,15,131,26,25,14,042,23,19,08,317,22,17,07,294,16,1*6F
$GPGSV,4,4,13,06,03,334,,1*57
$GLGSV,2,1,07,67,59,314,,66,50,065,23,76,44,082,22,83,36,306,,1*70
$GLGSV,2,2,07,82,35,250,18,77,30,140,,68,15,282,,1*49
$GAGSV,3,1,10,29,78,050,31,19,51,260,22,12,44,293,16,33,43,210,24,7*75
$GAGSV,3,2,10,10,28,316,23,07,23,070,21,30,19,058,23,27,16,109,22,7*72
$GAGSV,3,3,10,26,07,175,14,11,06,332,16,7*74
$GBGSV,3,1,12,41,80,051,32,25,45,120,30,32,37,289,28,33,30,097,25,1*7F
$GBGSV,3,2,12,24,29,053,24,30,22,284,26,23,17,172,26,27,16,234,20,1*72
$GBGSV,3,3,12,31,09,338,,29,07,336,17,40,06,300,17,14,06,100,15,1*7B
$GNRMC,192524.000,A,4910.427754,N,12304.399920,W,0.26,10.16,101024,,,D,V*27
$GNVTG,10.16,T,,M,0.26,N,0.49,K,D*19
$GNGGA,192525.000,4910.427766,N,12304.399944,W,2,29,0.47,1.411,M,-16.816,M,,*47
$GNGLL,4910.427766,N,12304.399944,W,192525.000,A,D*5C
$GNGSA,A,3,31,03,28,02,04,21,32,26,25,19,17,,0.83,0.47,0.68,1*05
$GNGSA,A,3,66,76,,,,,,,,,,,0.83,0.47,0.68,2*05
$GNGSA,A,3,29,19,33,10,07,26,,,,,,,0.83,0.47,0.68,3*04
$GNGSA,A,3,41,25,32,33,24,30,23,27,40,14,,,0.83,0.47,0.68,4*01
$GPGSV,4,1,13,31,64,135,33,03,61,302,33,28,50,065,29,02,35,220,28,1*68
$GPGSV,4,2,13,46,33,188,28,04,31,259,26,21,26,204,24,32,18,074,18,1*60
$GPGSV,4,3,13,26,15,131,26,25,14,042,23,19,08,317,22,17,07,294,16,1*6F
$GPGSV,4,4,13,06,03,334,,1*57
$GLGSV,1,1,03,66,50,065,23,76,44,082,22,82,35,250,18,1*45
$GAGSV,3,1,10,29,78,050,31,19,51,260,23,12,44,293,16,33,43,210,24,7*74
$GAGSV,3,2,10,10,28,316,22,07,23,070,21,30,19,058,24,27,16,109,22,7*74
$GAGSV,3,3,10,26,07,175,14,11,06,332,16,7*74
$GBGSV,3,1,12,41,80,051,32,25,45,120,30,32,37,289,28,33,30,097,25,1*7F
$GBGSV,3,2,12,24,29,053,25,30,22,284,26,23,17,172,27,27,16,234,20,1*72
$GBGSV,3,3,12,31,09,338,,29,07,336,17,40,06,300,17,14,06,100,15,1*7B
$GNRMC,192525.000,A,4910.427766,N,12304.399944,W,0.23,10.16,101024,,,D,V*20
$GNVTG,10.16,T,,M,0.23,N,0.43,K,D*16
$GNGGA,192526.000,4910.427814,N,12304.400028,W,2,29,0.47,1.587,M,-16.816,M,,*44
$GNGLL,4910.427814,N,12304.400028,W,192526.000,A,D*51
$GNGSA,A,3,31,03,28,02,04,21,32,26,25,19,17,,0.83,0.47,0.68,1*05
$GNGSA,A,3,66,76,,,,,,,,,,,0.83,0.47,0.68,2*05
$GNGSA,A,3,29,19,33,10,07,26,,,,,,,0.83,0.47,0.68,3*04
$GNGSA,A,3,41,25,32,33,24,30,23,27,14,40,,,0.83,0.47,0.68,4*01
$GPGSV,4,1,14,31,64,135,33,03,62,302,33,28,50,065,29,02,35,220,28,1*6C
$GPGSV,4,2,14,46,33,188,28,04,31,259,26,21,26,204,24,32,18,074,18,1*67
$GPGSV,4,3,14,26,15,131,26,25,14,042,23,19,08,317,22,17,07,294,17,1*69
$GPGSV,4,4,14,06,03,334,,09,01,259,,1*66
$GLGSV,2,1,07,67,59,314,,66,50,065,23,76,44,082,22,83,36,306,,1*70
$GLGSV,2,2,07,82,35,250,18,77,30,140,,68,15,282,,1*49
$GAGSV,3,1,10,29,78,050,31,19,51,260,23,12,44,293,16,33,43,210,24,7*74
$GAGSV,3,2,10,10,28,316,22,07,23,070,21,30,19,058,24,27,16,109,21,7*77
$GAGSV,3,3,10,26,07,175,14,11,06,332,16,7*74
$GBGSV,3,1,11,41,80,051,33,25,45,120,30,32,37,289,28,33,30,097,25,1*7D
$GBGSV,3,2,11,24,29,053,24,30,22,284,26,23,17,172,27,27,16,234,20,1*70
$GBGSV,3,3,11,29,07,336,17,14,06,100,15,40,06,300,17,1*4B
$GNRMC,192526.000,A,4910.427814,N,12304.400028,W,0.20,171.84,101024,,,D,V*13
$GNVTG,171.84,T,,M,0.20,N,0.36,K,D*2A
$GNGGA,192527.000,4910.427946,N,12304.400094,W,2,29,0.47,1.837,M,-16.816,M,,*42
