$GNGGA,193157.000,4910.426115,N,12304.401771,W,1,26,0.62,8.167,M,-16.816,M,,*4C
$GNRMC,193157.000,A,4910.426115,N,12304.401771,W,0.004,144.81,101024,,,A,V*23
$GNGLL,4910.426115,N,12304.401771,W,193157.000,A,A*54
$GNVTG,144.81,T,,M,0.004,N,0.007,K,A*28
$GNGSA,A,3,02,03,04,17,19,21,25,26,28,31,32,,1.06,0.62,0.86,1*0E
$GNGSA,A,3,,,,,,,,,,,,,1.06,0.62,0.86,2*0F
$GNGSA,A,3,10,12,19,29,33,,,,,,,,1.06,0.62,0.86,3*0F
$GNGSA,A,3,23,24,25,27,29,30,32,33,40,41,,,1.06,0.62,0.86,4*04
$GNGSA,A,3,,,,,,,,,,,,,1.06,0.62,0.86,5*08
$GPGSV,4,1,13,02,32,218,27,03,65,300,32,04,34,261,24,06,,,16,1*5D
$GPGSV,4,2,13,17,04,290,18,19,06,313,23,21,22,202,23,25,12,038,22,1*63
$GPGSV,4,3,13,26,18,128,21,28,47,061,31,31,66,125,32,32,14,075,19,1*63
$GPGSV,4,4,13,48,32,193,26,1*54
$GPGSV,1,1,03,03,65,300,24,04,34,261,19,28,47,061,22,8*5B
$GLGSV,1,1,00,1*78
$GAGSV,2,1,07,10,29,313,24,12,44,288,22,19,53,263,23,27,,,20,7*44
$GAGSV,2,2,07,29,75,054,28,30,,,21,33,39,208,24,7*70
$GAGSV,2,1,06,10,29,313,18,12,44,288,17,19,53,263,14,29,75,054,20,1*73
$GAGSV,2,2,06,30,,,17,33,39,208,21,1*45
$GBGSV,3,1,11,14,03,101,14,23,19,171,29,24,27,050,29,25,47,116,33,1*7D
$GBGSV,3,2,11,27,13,232,27,29,07,333,22,30,20,281,25,32,39,290,34,1*73
$GBGSV,3,3,11,33,27,099,31,40,04,299,20,41,78,064,37,1*4D
$GBGSV,1,1,04,24,27,050,17,25,47,116,21,32,39,290,21,41,78,064,23,5*7D
$GQGSV,1,1,00,1*65
$GQGSV,1,1,00,8*6C
$GNGGA,193158.000,4910.426113,N,12304.401774,W,1,26,0.61,8.167,M,-16.817,M,,*42
$GNRMC,193158.000,A,4910.426113,N,12304.401774,W,0.003,144.81,101024,,,A,V*28
$GNGLL,4910.426113,N,12304.401774,W,193158.000,A,A*58
$GNVTG,144.81,T,,M,0.003,N,0.006,K,A*2E
$GNGSA,A,3,02,03,04,17,19,21,25,26,28,31,32,,1.00,0.61,0.80,1*0D
$GNGSA,A,3,,,,,,,,,,,,,1.00,0.61,0.80,2*0C
$GNGSA,A,3,10,12,19,29,33,,,,,,,,1.00,0.61,0.80,3*0C
$GNGSA,A,3,23,24,25,27,29,30,32,33,40,41,,,1.00,0.61,0.80,4*07
$GNGSA,A,3,,,,,,,,,,,,,1.00,0.61,0.80,5*0B
$GPGSV,4,1,13,02,32,218,26,03,65,300,31,04,34,261,24,06,,,16,1*5F
$GPGSV,4,2,13,17,04,290,17,19,06,313,23,21,22,202,22,25,12,038,21,1*6E
$GPGSV,4,3,13,26,18,128,20,28,47,061,30,31,66,125,30,32,14,075,19,1*61
$GPGSV,4,4,13,48,32,193,26,1*54
$GPGSV,1,1,03,03,65,300,24,04,34,261,18,28,47,061,22,8*5A
$GLGSV,1,1,00,1*78
$GAGSV,2,1,07,10,29,313,21,12,44,288,20,19,53,263,22,27,,,20,7*42
$GAGSV,2,2,07,29,75,054,28,30,,,20,33,39,208,23,7*76
$GAGSV,2,1,06,10,29,313,19,12,44,288,17,19,53,263,14,29,75,054,22,1*70
$GAGSV,2,2,06,30,,,17,33,39,208,20,1*44
$GBGSV,3,1,11,14,03,101,15,23,19,171,31,24,27,050,30,25,47,116,35,1*7B
$GBGSV,3,2,11,27,13,232,28,29,07,333,23,30,20,281,25,32,39,290,35,1*7C
$GBGSV,3,3,11,33,27,099,34,40,04,299,20,41,78,064,38,1*47
$GBGSV,1,1,04,24,27,050,17,25,47,116,22,32,39,290,20,41,78,064,24,5*78
$GQGSV,1,1,00,1*65
$GQGSV,1,1,00,8*6C
$GNGGA,193159.000,4910.426113,N,12304.401781,W,1,26,0.54,8.165,M,-16.816,M,,*4C
$GNRMC,193159.000,A,4910.426113,N,12304.401781,W,0.004,144.81,101024,,,A,V*24
$GNGLL,4910.426113,N,12304.401781,W,193159.000,A,A*53
$GNVTG,144.81,T,,M,0.004,N,0.007,K,A*28
$GNGSA,A,3,02,03,04,17,19,21,25,26,28,31,32,,0.97,0.54,0.80,1*04
$GNGSA,A,3,,,,,,,,,,,,,0.97,0.54,0.80,2*05
$GNGSA,A,3,10,12,19,29,33,,,,,,,,0.97,0.54,0.80,3*05
$GNGSA,A,3,23,24,25,27,29,30,32,33,40,41,,,0.97,0.54,0.80,4*0E
$GNGSA,A,3,,,,,,,,,,,,,0.97,0.54,0.80,5*02
$GPGSV,4,1,13,02,32,218,27,03,65,300,31,04,34,261,24,06,,,17,1*5F
$GPGSV,4,2,13,17,04,290,17,19,06,313,23,21,22,202,23,25,12,038,22,1*6C
$GPGSV,4,3,13,26,18,128,20,28,47,061,30,31,66,125,31,32,14,075,18,1*61
$GPGSV,4,4,13,48,32,193,26,1*54
$GPGSV,1,1,03,03,65,300,23,04,34,261,18,28,47,061,22,8*5D
$GLGSV,1,1,00,1*78
$GAGSV,2,1,07,10,29,313,23,12,44,288,21,19,53,263,21,27,,,19,7*48
$GAGSV,2,2,07,29,75,054,28,30,,,20,33,39,208,24,7*71
$GAGSV,2,1,06,10,29,313,17,12,44,288,17,19,53,263,17,29,75,054,21,1*7E
$GAGSV,2,2,06,30,,,17,33,39,208,20,1*44
$GBGSV,3,1,11,14,03,101,14,23,19,171,29,24,27,050,30,25,47,116,34,1*72
$GBGSV,3,2,11,27,13,232,27,29,07,333,25,30,20,281,26,32,39,290,34,1*77
$GBGSV,3,3,11,33,27,099,31,40,04,299,19,41,78,064,37,1*47
$GBGSV,1,1,04,24,27,050,17,25,47,116,22,32,39,290,22,41,78,064,22,5*7C
$GQGSV,1,1,00,1*65
$GQGSV,1,1,00,8*6C
$GNGGA,193200.000,4910.426111,N,12304.401785,W,1,26,0.57,8.164,M,-16.817,M,,*46
$GNRMC,193200.000,A,4910.426111,N,12304.401785,W,0.014,144.81,101024,,,A,V*2C
$GNGLL,4910.426111,N,12304.401785,W,193200.000,A,A*5A
$GNVTG,144.81,T,,M,0.014,N,0.026,K,A*2A
$GNGSA,A,3,02,03,04,17,19,21,25,26,28,31,32,,0.96,0.57,0.77,1*0E
$GNGSA,A,3,,,,,,,,,,,,,0.96,0.57,0.77,2*0F
$GNGSA,A,3,10,12,19,29,33,,,,,,,,0.96,0.57,0.77,3*0F
$GNGSA,A,3,23,24,25,27,29,30,32,33,40,41,,,0.96,0.57,0.77,4*04
$GNGSA,A,3,,,,,,,,,,,,,0.96,0.57,0.77,5*08
$GPGSV,4,1,13,02,32,218,29,03,65,300,34,04,34,261,25,06,,,17,1*55
$GPGSV,4,2,13,17,04,290,18,19,06,313,24,21,22,202,23,25,12,038,20,1*66
$GPGSV,4,3,13,26,18,128,21,28,47,061,32,31,66,125,33,32,14,075,18,1*60
$GPGSV,4,4,13,48,32,193,26,1*54
$GPGSV,1,1,03,03,65,300,23,04,34,261,17,28,47,061,22,8*52
$GLGSV,1,1,00,1*78
$GAGSV,2,1,07,10,29,313,25,12,44,288,23,19,53,263,23,27,,,18,7*4F
$GAGSV,2,2,07,29,75,054,30,30,,,22,33,39,208,26,7*78
$GAGSV,2,1,06,10,29,313,16,12,44,288,17,19,53,263,14,29,75,054,21,1*7C
$GAGSV,2,2,06,30,,,15,33,39,208,19,1*4C
$GBGSV,3,1,11,14,03,101,14,23,19,171,28,24,27,050,30,25,47,116,33,1*74
$GBGSV,3,2,11,27,13,232,27,29,07,333,22,30,20,281,26,32,39,290,34,1*70
$GBGSV,3,3,11,33,27,099,32,40,04,299,20,41,78,064,37,1*4E
$GBGSV,1,1,04,24,27,050,17,25,47,116,20,32,39,290,20,41,78,064,21,5*7F
$GQGSV,1,1,00,1*65
$GQGSV,1,1,00,8*6C
$GNGGA,193201.000,4910.426110,N,12304.401789,W,1,26,0.62,8.161,M,-16.816,M,,*48
$GNRMC,193201.000,A,4910.426110,N,12304.401789,W,0.004,144.81,101024,,,A,V*21
$GNGLL,4910.426110,N,12304.401789,W,193201.000,A,A*56
$GNVTG,144.81,T,,M,0.004,N,0.008,K,A*27
$GNGSA,A,3,02,03,04,17,19,21,25,26,28,31,32,,1.04,0.62,0.84,1*0E
$GNGSA,A,3,,,,,,,,,,,,,1.04,0.62,0.84,2*0F
$GNGSA,A,3,10,12,19,29,33,,,,,,,,1.04,0.62,0.84,3*0F
$GNGSA,A,3,23,24,25,27,29,30,32,33,40,41,,,1.04,0.62,0.84,4*04
$GNGSA,A,3,,,,,,,,,,,,,1.04,0.62,0.84,5*08
$GPGSV,4,1,13,02,32,218,29,03,65,300,34,04,34,261,26,06,,,18,1*59
$GPGSV,4,2,13,17,04,290,19,19,06,313,24,21,22,202,24,25,12,038,21,1*61
$GPGSV,4,3,13,26,18,128,22,28,47,061,32,31,66,125,33,32,14,075,21,1*69
$GPGSV,4,4,13,48,32,193,26,1*54
$GPGSV,1,1,03,03,65,300,23,04,34,261,18,28,47,061,20,8*5F
$GLGSV,1,1,00,1*78
$GAGSV,2,1,07,10,29,313,24,12,44,288,23,19,53,263,23,27,,,21,7*44
$GAGSV,2,2,07,29,75,054,31,30,,,19,33,39,208,27,7*70
$GAGSV,2,1,06,10,29,313,16,12,44,288,17,19,53,263,14,29,75,054,20,1*7D
$GAGSV,2,2,06,30,,,14,33,39,208,18,1*4C
$GBGSV,3,1,11,14,03,101,16,23,19,171,29,24,27,050,30,25,47,116,33,1*77
$GBGSV,3,2,11,27,13,232,27,29,07,333,24,30,20,281,26,32,39,290,35,1*77
$GBGSV,3,3,11,33,27,099,32,40,04,299,19,41,78,064,37,1*44
$GBGSV,1,1,04,24,27,050,17,25,47,116,20,32,39,290,20,41,78,064,21,5*7F
$GQGSV,1,1,00,1*65
$GQGSV,1,1,00,8*6C
$GNGGA,193202.000,4910.426109,N,12304.401794,W,1,26,0.48,8.159,M,-16.816,M,,*4C
$GNRMC,193202.000,A,4910.426109,N,12304.401794,W,0.005,144.81,101024,,,A,V*27
$GNGLL,4910.426109,N,12304.401794,W,193202.000,A,A*51
$GNVTG,144.81,T,,M,0.005,N,0.009,K,A*27
$GNGSA,A,3,02,03,04,17,19,21,25,26,28,31,32,,0.85,0.48,0.70,1*05
$GNGSA,A,3,,,,,,,,,,,,,0.85,0.48,0.70,2*04
$GNGSA,A,3,10,12,19,29,33,,,,,,,,0.85,0.48,0.70,3*04
$GNGSA,A,3,23,24,25,27,29,30,32,33,40,41,,,0.85,0.48,0.70,4*0F
$GNGSA,A,3,,,,,,,,,,,,,0.85,0.48,0.70,5*03
$GPGSV,4,1,13,02,32,218,30,03,65,300,35,04,34,261,26,06,,,17,1*5F
$GPGSV,4,2,13,17,04,290,20,19,06,313,24,21,22,202,25,25,12,038,23,1*68
$GPGSV,4,3,13,26,18,128,24,28,47,061,33,31,66,125,34,32,14,075,21,1*69
$GPGSV,4,4,13,48,32,193,26,1*54
$GPGSV,1,1,03,03,65,300,24,04,34,261,20,28,47,061,22,8*51
$GLGSV,1,1,00,1*78
$GAGSV,2,1,07,10,29,313,24,12,44,288,23,19,53,263,24,27,,,21,7*43
$GAGSV,2,2,07,29,75,054,30,30,,,23,33,39,208,27,7*78
$GAGSV,2,1,06,10,29,313,16,12,44,288,18,19,53,263,16,29,75,054,22,1*72
$GAGSV,2,2,06,30,,,16,33,39,208,20,1*45
$GBGSV,3,1,11,14,03,101,15,23,19,171,28,24,27,050,27,25,47,116,32,1*72
$GBGSV,3,2,11,27,13,232,26,29,07,333,23,30,20,281,24,32,39,290,33,1*75
$GBGSV,3,3,11,33,27,099,32,40,04,299,19,41,78,064,36,1*45
$GBGSV,1,1,04,24,27,050,16,25,47,116,21,32,39,290,21,41,78,064,21,5*7E
$GQGSV,1,1,00,1*65
$GQGSV,1,1,00,8*6C
$GNGGA,193203.000,4910.426108,N,12304.401797,W,1,26,0.53,8.158,M,-16.817,M,,*45
$GNRMC,193203.000,A,4910.426108,N,12304.401797,W,0.008,144.81,101024,,,A,V*29
$GNGLL,4910.426108,N,12304.401797,W,193203.000,A,A*52
$GNVTG,144.81,T,,M,0.008,N,0.015,K,A*27
$GNGSA,A,3,02,03,04,17,19,21,25,26,28,31,32,,0.92,0.53,0.75,1*0C
$GNGSA,A,3,,,,,,,,,,,,,0.92,0.53,0.75,2*0D
$GNGSA,A,3,10,12,19,29,33,,,,,,,,0.92,0.53,0.75,3*0D
$GNGSA,A,3,23,24,25,27,29,30,32,33,40,41,,,0.92,0.53,0.75,4*06
$GNGSA,A,3,,,,,,,,,,,,,0.92,0.53,0.75,5*0A
$GPGSV,4,1,13,02,32,218,29,03,65,300,34,04,34,261,27,06,,,17,1*57
$GPGSV,4,2,13,17,04,290,20,19,06,313,25,21,22,202,25,25,12,038,23,1*69
$GPGSV,4,3,13,26,18,128,24,28,47,061,32,31,66,125,34,32,14,075,23,1*6A
$GPGSV,4,4,13,48,32,193,26,1*54
$GPGSV,1,1,03,03,65,300,24,04,34,261,20,28,47,061,24,8*57
$GLGSV,1,1,00,1*78
$GAGSV,2,1,07,10,29,313,25,12,44,288,23,19,53,263,22,27,,,23,7*46
$GAGSV,2,2,07,29,75,054,30,30,,,21,33,39,208,26,7*7B
$GAGSV,2,1,06,10,29,313,17,12,44,288,18,19,53,263,15,29,75,054,22,1*70
$GAGSV,2,2,06,30,,,17,33,39,208,20,1*44
$GBGSV,3,1,11,14,03,102,13,23,19,171,29,24,27,050,28,25,47,116,33,1*78
$GBGSV,3,2,11,27,13,232,28,29,07,333,23,30,20,281,26,32,39,290,34,1*7E
$GBGSV,3,3,11,33,27,099,32,40,04,299,20,41,78,064,36,1*4F
$GBGSV,1,1,04,24,27,050,17,25,47,116,23,32,39,290,21,41,78,064,22,5*7E
$GQGSV,1,1,00,1*65
$GQGSV,1,1,00,8*6C
$GNGGA,193204.000,4910.426107,N,12304.401803,W,1,26,0.48,8.155,M,-16.816,M,,*49
$GNRMC,193204.000,A,4910.426107,N,12304.401803,W,0.008,144.81,101024,,,A,V*23
$GNGLL,4910.426107,N,12304.401803,W,193204.000,A,A*58
$GNVTG,144.81,T,,M,0.008,N,0.015,K,A*27
$GNGSA,A,3,02,03,04,17,19,21,25,26,28,31,32,,0.86,0.48,0.72,1*04
$GNGSA,A,3,,,,,,,,,,,,,0.86,0.48,0.72,2*05
$GNGSA,A,3,10,12,19,29,33,,,,,,,,0.86,0.48,0.72,3*05
$GNGSA,A,3,23,24,25,27,29,30,32,33,40,41,,,0.86,0.48,0.72,4*0E
$GNGSA,A,3,,,,,,,,,,,,,0.86,0.48,0.72,5*02
$GPGSV,4,1,13,02,32,218,29,03,65,300,35,04,34,261,28,06,,,18,1*56
$GPGSV,4,2,13,17,04,290,19,19,06,313,25,21,22,202,25,25,12,038,21,1*61
$GPGSV,4,3,13,26,18,128,23,28,47,061,34,31,66,125,35,32,14,075,24,1*6D
$GPGSV,4,4,13,48,32,193,26,1*54
$GPGSV,1,1,03,03,65,300,23,04,34,261,18,28,47,061,22,8*5D
$GLGSV,1,1,00,1*78
$GAGSV,2,1,07,10,29,313,25,12,44,288,24,19,53,263,25,27,,,21,7*44
$GAGSV,2,2,07,29,75,054,30,30,,,22,33,39,208,27,7*79
$GAGSV,2,1,06,10,29,313,16,12,44,288,17,19,53,263,15,29,75,054,22,1*7E
$GAGSV,2,2,06,30,,,17,33,39,208,19,1*4E
$GBGSV,3,1,11,14,03,102,14,23,19,171,29,24,27,050,29,25,47,116,34,1*79
$GBGSV,3,2,11,27,13,232,28,29,07,333,23,30,20,281,27,32,39,290,34,1*7F
$GBGSV,3,3,11,33,27,099,32,40,04,299,19,41,78,064,37,1*44
$GBGSV,1,1,04,24,27,050,15,25,47,116,22,32,39,290,20,41,78,064,23,5*7D
$GQGSV,1,1,00,1*65
$GQGSV,1,1,00,8*6C
$GNGGA,193205.000,4910.426107,N,12304.401806,W,1,26,0.54,8.155,M,-16.816,M,,*40
$GNRMC,193205.000,A,4910.426107,N,12304.401806,W,0.006,144.81,101024,,,A,V*29
$GNGLL,4910.426107,N,12304.401806,W,193205.000,A,A*5C
$GNVTG,144.81,T,,M,0.006,N,0.011,K,A*2D
$GNGSA,A,3,02,03,04,17,19,21,25,26,28,31,32,,0.93,0.54,0.76,1*09
$GNGSA,A,3,,,,,,,,,,,,,0.93,0.54,0.76,2*08
$GNGSA,A,3,10,12,19,29,33,,,,,,,,0.93,0.54,0.76,3*08
$GNGSA,A,3,23,24,25,27,29,30,32,33,40,41,,,0.93,0.54,0.76,4*03
$GNGSA,A,3,,,,,,,,,,,,,0.93,0.54,0.76,5*0F
$GPGSV,4,1,13,02,32,218,29,03,65,300,35,04,34,261,27,06,,,20,1*52
$GPGSV,4,2,13,17,04,290,20,19,06,313,26,21,22,202,25,25,12,038,24,1*6D
$GPGSV,4,3,13,26,18,128,24,28,47,061,34,31,66,125,35,32,14,075,24,1*6A
$GPGSV,4,4,13,48,32,193,26,1*54
$GPGSV,1,1,03,03,65,300,24,04,34,261,19,28,47,061,23,8*5A
$GLGSV,1,1,00,1*78
$GAGSV,2,1,07,10,29,313,26,12,44,288,24,19,53,263,25,27,,,23,7*45
$GAGSV,2,2,07,29,75,054,31,30,,,22,33,39,208,27,7*78
$GAGSV,2,1,06,10,29,313,17,12,44,288,16,19,53,263,14,29,75,054,23,1*7E
$GAGSV,2,2,06,30,,,16,33,39,208,19,1*4F
$GBGSV,3,1,11,14,03,102,14,23,19,171,28,24,27,050,29,25,47,116,33,1*7F
$GBGSV,3,2,11,27,13,232,27,29,07,333,23,30,20,281,25,32,39,290,33,1*75
$GBGSV,3,3,11,33,27,099,33,40,04,299,18,41,78,064,37,1*44
$GBGSV,1,1,04,24,27,050,16,25,47,116,21,32,39,290,20,41,78,064,23,5*7D
$GQGSV,1,1,00,1*65
$GQGSV,1,1,00,8*6C
$GNGGA,193206.000,4910.426107,N,12304.401807,W,1,26,0.53,8.154,M,-16.816,M,,*44
$GNRMC,193206.000,A,4910.426107,N,12304.401807,W,0.004,144.81,101024,,,A,V*29
$GNGLL,4910.426107,N,12304.401807,W,193206.000,A,A*5E
$GNVTG,144.81,T,,M,0.004,N,0.008,K,A*27
$GNGSA,A,3,02,03,04,17,19,21,25,26,28,31,32,,0.90,0.53,0.73,1*08
$GNGSA,A,3,,,,,,,,,,,,,0.90,0.53,0.73,2*09
$GNGSA,A,3,10,12,19,29,33,,,,,,,,0.90,0.53,0.73,3*09
$GNGSA,A,3,23,24,25,27,29,30,32,33,40,41,,,0.90,0.53,0.73,4*02
$GNGSA,A,3,,,,,,,,,,,,,0.90,0.53,0.73,5*0E
$GPGSV,4,1,13,02,32,218,28,03,65,300,34,04,34,261,26,06,,,18,1*58
$GPGSV,4,2,13,17,04,290,19,19,06,313,24,21,22,202,25,25,12,038,21,1*60
$GPGSV,4,3,13,26,18,128,23,28,47,061,33,31,66,125,34,32,14,075,23,1*6C
$GPGSV,4,4,13,48,32,193,27,1*55
$GPGSV,1,1,03,03,65,300,25,04,34,261,20,28,47,061,23,8*51
$GLGSV,1,1,00,1*78
$GAGSV,2,1,07,10,29,313,25,12,44,288,23,19,53,263,25,27,,,20,7*42
$GAGSV,2,2,07,29,75,054,31,30,,,23,33,39,208,26,7*78
$GAGSV,2,1,06,10,29,313,18,12,44,288,17,19,53,263,16,29,75,054,23,1*72
$GAGSV,2,2,06,30,,,17,33,39,208,20,1*44
$GBGSV,3,1,11,14,03,102,15,23,19,171,29,24,27,050,30,25,47,116,34,1*70
$GBGSV,3,2,11,27,13,232,28,29,07,333,22,30,20,281,25,32,39,290,34,1*7C
$GBGSV,3,3,11,33,27,099,32,40,04,299,20,41,78,064,37,1*4E
$GBGSV,1,1,04,24,27,050,17,25,47,116,22,32,39,290,21,41,78,064,23,5*7E
$GQGSV,1,1,00,1*65
$GQGSV,1,1,00,8*6C
$GNGGA,193207.000,4910.426109,N,12304.401812,W,1,26,0.47,8.151,M,-16.816,M,,*4F
$GNRMC,193207.000,A,4910.426109,N,12304.401812,W,0.011,144.81,101024,,,A,V*26
$GNGLL,4910.426109,N,12304.401812,W,193207.000,A,A*55
$GNVTG,144.81,T,,M,0.011,N,0.020,K,A*29
$GNGSA,A,3,02,03,04,17,19,21,25,26,28,31,32,,0.83,0.47,0.68,1*05
$GNGSA,A,3,,,,,,,,,,,,,0.83,0.47,0.68,2*04
$GNGSA,A,3,10,12,19,29,33,,,,,,,,0.83,0.47,0.68,3*04
$GNGSA,A,3,23,24,25,27,29,30,32,33,40,41,,,0.83,0.47,0.68,4*0F
$GNGSA,A,3,,,,,,,,,,,,,0.83,0.47,0.68,5*03
$GPGSV,4,1,13,02,32,218,29,03,65,300,34,04,34,261,26,06,,,18,1*59
$GPGSV,4,2,13,17,04,290,19,19,06,313,25,21,22,202,26,25,12,038,22,1*61
$GPGSV,4,3,13,26,18,128,24,28,47,061,33,31,66,125,35,32,14,075,24,1*6D
$GPGSV,4,4,13,48,32,193,27,1*55
$GPGSV,1,1,03,03,65,300,22,04,34,261,19,28,47,061,21,8*5E
$GLGSV,1,1,00,1*78
$GAGSV,2,1,07,10,29,313,25,12,44,288,25,19,53,263,24,27,,,21,7*44
$GAGSV,2,2,07,29,75,054,31,30,,,22,33,39,208,28,7*77
$GAGSV,2,1,06,10,29,313,16,12,44,288,14,19,53,263,15,29,75,054,21,1*7E
$GAGSV,2,2,06,30,,,16,33,39,208,19,1*4F
$GBGSV,3,1,11,14,03,102,14,23,19,171,29,24,27,050,28,25,47,116,32,1*7E
$GBGSV,3,2,11,27,13,232,27,29,07,333,22,30,20,281,25,32,39,290,34,1*73
$GBGSV,3,3,11,33,27,099,32,40,04,299,20,41,78,064,36,1*4F
$GBGSV,1,1,04,24,27,050,17,25,47,116,21,32,39,290,20,41,78,064,22,5*7D
$GQGSV,1,1,00,1*65
$GQGSV,1,1,00,8*6C
$GNGGA,193208.000,4910.426109,N,12304.401817,W,1,26,0.46,8.150,M,-16.816,M,,*45
$GNRMC,193208.000,A,4910.426109,N,12304.401817,W,0.003,144.81,101024,,,A,V*2F
$GNGLL,4910.426109,N,12304.401817,W,193208.000,A,A*5F
$GNVTG,144.81,T,,M,0.003,N,0.005,K,A*2D
$GNGSA,A,3,02,03,04,17,19,21,25,26,28,31,32,,0.82,0.46,0.68,1*05
$GNGSA,A,3,,,,,,,,,,,,,0.82,0.46,0.68,2*04
$GNGSA,A,3,10,12,19,29,33,,,,,,,,0.82,0.46,0.68,3*04
$GNGSA,A,3,23,24,25,27,29,30,32,33,40,41,,,0.82,0.46,0.68,4*0F
$GNGSA,A,3,,,,,,,,,,,,,0.82,0.46,0.68,5*03
$GPGSV,4,1,13,02,32,218,27,03,65,300,33,04,34,261,25,06,,,18,1*53
$GPGSV,4,2,13,17,04,290,19,19,06,313,25,21,22,202,24,25,12,038,21,1*60
$GPGSV,4,3,13,26,18,128,24,28,47,061,33,31,66,125,32,32,14,075,21,1*6F
$GPGSV,4,4,13,48,32,193,27,1*55
$GPGSV,1,1,03,03,65,300,24,04,34,261,19,28,47,061,22,8*5B
$GLGSV,1,1,00,1*78
$GAGSV,2,1,07,10,29,313,23,12,44,288,22,19,53,263,22,27,,,21,7*43
$GAGSV,2,2,07,29,75,054,29,30,,,20,33,39,208,26,7*72
$GAGSV,2,1,06,10,29,313,17,12,44,288,16,19,53,263,15,29,75,054,22,1*7E
$GAGSV,2,2,06,30,,,15,33,39,208,19,1*4C
$GBGSV,3,1,11,14,03,102,12,23,19,171,29,24,27,050,30,25,47,116,33,1*70
$GBGSV,3,2,11,27,13,232,27,29,07,333,24,30,20,281,26,32,39,290,34,1*76
$GBGSV,3,3,11,33,27,099,32,40,04,299,19,41,78,064,37,1*44
$GBGSV,1,1,04,24,27,050,16,25,47,116,20,32,39,290,20,41,78,064,23,5*7C
$GQGSV,1,1,00,1*65
$GQGSV,1,1,00,8*6C
$GNGGA,193209.000,4910.426110,N,12304.401826,W,1,26,0.46,8.149,M,-16.816,M,,*46
$GNRMC,193209.000,A,4910.426110,N,12304.401826,W,0.009,144.81,101024,,,A,V*2E
$GNGLL,4910.426110,N,12304.401826,W,193209.000,A,A*54
$GNVTG,144.81,T,,M,0.009,N,0.016,K,A*25
$GNGSA,A,3,02,03,04,17,19,21,25,26,28,31,32,,0.82,0.46,0.68,1*05
$GNGSA,A,3,,,,,,,,,,,,,0.82,0.46,0.68,2*04
$GNGSA,A,3,10,12,19,29,33,,,,,,,,0.82,0.46,0.68,3*04
$GNGSA,A,3,23,24,25,27,29,30,32,33,40,41,,,0.82,0.46,0.68,4*0F
$GNGSA,A,3,,,,,,,,,,,,,0.82,0.46,0.68,5*03
$GPGSV,4,1,13,02,32,218,29,03,65,300,36,04,34,261,27,06,,,19,1*5B
$GPGSV,4,2,13,17,04,290,20,19,06,313,26,21,22,202,26,25,12,038,22,1*68
$GPGSV,4,3,13,26,18,128,25,28,47,060,34,31,66,125,35,32,14,075,24,1*6A
$GPGSV,4,4,13,48,32,193,27,1*55
$GPGSV,1,1,03,03,65,300,24,04,34,261,18,28,47,060,22,8*5B
$GLGSV,1,1,00,1*78
$GAGSV,2,1,07,10,29,313,25,12,44,288,24,19,53,263,25,27,,,22,7*47
$GAGSV,2,2,07,29,75,054,33,30,,,21,33,39,208,28,7*76
$GAGSV,2,1,06,10,29,313,17,12,44,288,17,19,53,263,15,29,75,054,23,1*7E
$GAGSV,2,2,06,30,,,16,33,39,208,20,1*45
$GBGSV,3,1,11,14,03,102,15,23,19,171,29,24,27,050,29,25,47,116,34,1*78
$GBGSV,3,2,11,27,13,232,29,29,07,333,24,30,20,281,26,32,39,290,34,1*78
$GBGSV,3,3,11,33,27,099,32,40,04,299,20,41,78,064,37,1*4E
$GBGSV,1,1,04,24,27,050,16,25,47,116,23,32,39,290,20,41,78,064,22,5*7E
$GQGSV,1,1,00,1*65
$GQGSV,1,1,00,8*6C
$GNGGA,193210.000,4910.426111,N,12304.401829,W,1,26,0.46,8.148,M,-16.816,M,,*41
$GNRMC,193210.000,A,4910.426111,N,12304.401829,W,0.028,144.81,101024,,,A,V*2B
$GNGLL,4910.426111,N,12304.401829,W,193210.000,A,A*52
$GNVTG,144.81,T,,M,0.028,N,0.051,K,A*25
$GNGSA,A,3,02,03,04,17,19,21,25,26,28,31,32,,0.82,0.46,0.68,1*05
$GNGSA,A,3,,,,,,,,,,,,,0.82,0.46,0.68,2*04
$GNGSA,A,3,10,12,19,29,33,,,,,,,,0.82,0.46,0.68,3*04
$GNGSA,A,3,23,24,25,27,29,30,32,33,40,41,,,0.82,0.46,0.68,4*0F
$GNGSA,A,3,,,,,,,,,,,,,0.82,0.46,0.68,5*03
$GPGSV,4,1,13,02,32,218,30,03,65,300,37,04,34,261,27,06,,,20,1*58
$GPGSV,4,2,13,17,04,290,20,19,06,313,26,21,22,202,27,25,12,038,22,1*69
$GPGSV,4,3,13,26,18,128,25,28,47,060,35,31,66,125,36,32,14,075,24,1*68
$GPGSV,4,4,13,48,32,193,27,1*55
$GPGSV,1,1,03,03,65,300,24,04,34,261,19,28,47,060,22,8*5A
$GLGSV,1,1,00,1*78
$GAGSV,2,1,07,10,29,313,25,12,44,288,25,19,53,263,24,27,,,21,7*44
$GAGSV,2,2,07,29,75,054,34,30,,,21,33,39,208,28,7*71
$GAGSV,2,1,06,10,29,313,17,12,44,288,16,19,53,263,13,29,75,054,22,1*78
$GAGSV,2,2,06,30,,,15,33,39,208,18,1*4D
$GBGSV,3,1,11,14,03,102,15,23,19,171,29,24,27,050,30,25,47,116,33,1*77
$GBGSV,3,2,11,27,13,232,28,29,07,333,24,30,20,281,28,32,39,290,35,1*76
$GBGSV,3,3,11,33,27,099,32,40,04,299,20,41,78,064,38,1*41
$GBGSV,1,1,04,24,27,050,17,25,47,116,21,32,39,290,20,41,78,064,23,5*7C
$GQGSV,1,1,00,1*65
$GQGSV,1,1,00,8*6C
$GNGGA,193211.000,4910.426112,N,12304.401828,W,1,26,0.46,8.147,M,-16.816,M,,*4D
$GNRMC,193211.000,A,4910.426112,N,12304.401828,W,0.004,144.81,101024,,,A,V*26
$GNGLL,4910.426112,N,12304.401828,W,193211.000,A,A*51
$GNVTG,144.81,T,,M,0.004,N,0.007,K,A*28
$GNGSA,A,3,02,03,04,17,19,21,25,26,28,31,32,,0.82,0.46,0.68,1*05
$GNGSA,A,3,,,,,,,,,,,,,0.82,0.46,0.68,2*04
$GNGSA,A,3,10,12,19,29,33,,,,,,,,0.82,0.46,0.68,3*04
$GNGSA,A,3,23,24,25,27,29,30,32,33,40,41,,,0.82,0.46,0.68,4*0F
$GNGSA,A,3,,,,,,,,,,,,,0.82,0.46,0.68,5*03
$GPGSV,4,1,13,02,32,218,31,03,65,300,37,04,34,261,28,06,,,20,1*56
$GPGSV,4,2,13,17,04,290,22,19,06,313,27,21,22,202,26,25,12,038,24,1*6D
$GPGSV,4,3,13,26,18,127,25,28,47,060,35,31,66,125,36,32,14,075,25,1*66
$GPGSV,4,4,13,48,32,193,27,1*55
$GPGSV,1,1,03,03,65,300,24,04,34,261,21,28,47,060,22,8*51
$GLGSV,1,1,00,1*78
$GAGSV,2,1,07,10,29,313,27,12,44,288,25,19,53,263,27,27,,,24,7*40
$GAGSV,2,2,07,29,75,054,35,30,,,21,33,39,208,29,7*71
$GAGSV,2,1,06,10,29,313,17,12,44,288,17,19,53,263,13,29,75,054,24,1*7F
$GAGSV,2,2,06,30,,,16,33,39,208,20,1*45
$GBGSV,3,1,11,14,03,102,13,23,19,171,29,24,27,050,30,25,47,116,34,1*76
$GBGSV,3,2,11,27,13,232,27,29,07,333,24,30,20,281,27,32,39,290,34,1*77
$GBGSV,3,3,11,33,27,099,32,40,04,299,20,41,78,064,37,1*4E
$GBGSV,1,1,04,24,27,050,16,25,47,116,23,32,39,290,20,41,78,064,22,5*7E
$GQGSV,1,1,00,1*65
$GQGSV,1,1,00,8*6C
$GNGGA,193212.000,4910.426113,N,12304.401833,W,1,26,0.46,8.145,M,-16.816,M,,*47
$GNRMC,193212.000,A,4910.426113,N,12304.401833,W,0.009,144.81,101024,,,A,V*23
$GNGLL,4910.426113,N,12304.401833,W,193212.000,A,A*59
$GNVTG,144.81,T,,M,0.009,N,0.017,K,A*24
$GNGSA,A,3,02,03,04,17,19,21,25,26,28,31,32,,0.82,0.46,0.68,1*05
$GNGSA,A,3,,,,,,,,,,,,,0.82,0.46,0.68,2*04
$GNGSA,A,3,10,12,19,29,33,,,,,,,,0.82,0.46,0.68,3*04
$GNGSA,A,3,23,24,25,27,29,30,32,33,40,41,,,0.82,0.46,0.68,4*0F
$GNGSA,A,3,,,,,,,,,,,,,0.82,0.46,0.68,5*03
$GPGSV,4,1,13,02,32,218,31,03,65,300,36,04,34,261,28,06,,,21,1*56
$GPGSV,4,2,13,17,04,290,22,19,06,313,27,21,22,202,26,25,12,038,23,1*6A
$GPGSV,4,3,13,26,18,127,27,28,47,060,35,31,66,125,37,32,14,075,25,1*65
$GPGSV,4,4,13,48,32,193,27,1*55
$GPGSV,1,1,03,03,65,300,23,04,34,261,20,28,47,060,23,8*56
$GLGSV,1,1,00,1*78
$GAGSV,2,1,07,10,29,313,26,12,44,288,25,19,53,263,25,27,,,22,7*45
$GAGSV,2,2,07,29,75,054,32,30,,,23,33,39,208,28,7*75
$GAGSV,2,1,06,10,29,313,17,12,44,288,18,19,53,263,15,29,75,054,24,1*76
$GAGSV,2,2,06,30,,,16,33,39,208,20,1*45
$GBGSV,3,1,11,14,03,102,14,23,19,171,31,24,27,050,31,25,47,116,35,1*78
$GBGSV,3,2,11,27,13,232,30,29,07,333,25,30,20,281,27,32,39,290,35,1*71
$GBGSV,3,3,11,33,27,099,33,40,04,299,19,41,78,064,38,1*4A
$GBGSV,1,1,04,24,27,050,15,25,47,116,20,32,39,290,22,41,78,064,22,5*7C
$GQGSV,1,1,00,1*65
$GQGSV,1,1,00,8*6C
$GNGGA,193213.000,4910.426113,N,12304.401835,W,1,26,0.47,8.143,M,-16.816,M,,*47
$GNRMC,193213.000,A,4910.426113,N,12304.401835,W,0.004,144.81,101024,,,A,V*29
$GNGLL,4910.426113,N,12304.401835,W,193213.000,A,A*5E
$GNVTG,144.81,T,,M,0.004,N,0.007,K,A*28
$GNGSA,A,3,02,03,04,17,19,21,25,26,28,31,32,,0.83,0.47,0.68,1*05
$GNGSA,A,3,,,,,,,,,,,,,0.83,0.47,0.68,2*04
$GNGSA,A,3,10,12,19,29,33,,,,,,,,0.83,0.47,0.68,3*04
$GNGSA,A,3,23,24,25,27,29,30,32,33,40,41,,,0.83,0.47,0.68,4*0F
$GNGSA,A,3,,,,,,,,,,,,,0.83,0.47,0.68,5*03
$GPGSV,4,1,13,02,32,218,31,03,65,300,37,04,34,261,29,06,,,22,1*55
$GPGSV,4,2,13,17,04,290,22,19,06,313,27,21,22,202,27,25,12,038,23,1*6B
$GPGSV,4,3,13,26,18,127,25,28,47,060,35,31,66,125,36,32,14,075,25,1*66
$GPGSV,4,4,13,48,32,193,27,1*55
$GPGSV,1,1,03,03,65,300,23,04,34,261,18,28,47,060,22,8*5C
$GLGSV,1,1,00,1*78
$GAGSV,2,1,07,10,29,313,27,12,44,288,25,19,53,263,27,27,,,23,7*47
$GAGSV,2,2,07,29,75,054,33,30,,,22,33,39,208,29,7*74
$GAGSV,2,1,06,10,29,313,16,12,44,288,17,19,53,263,12,29,75,054,22,1*79
$GAGSV,2,2,06,30,,,13,33,39,208,20,1*40
$GBGSV,3,1,11,14,03,102,14,23,19,171,29,24,27,050,30,25,47,116,35,1*70
$GBGSV,3,2,11,27,13,232,28,29,07,333,24,30,20,281,27,32,39,290,35,1*79
$GBGSV,3,3,11,33,27,099,33,40,04,299,20,41,78,064,38,1*40
$GBGSV,1,1,04,24,27,050,16,25,47,116,21,32,39,290,20,41,78,064,22,5*7C
$GQGSV,1,1,00,1*65
$GQGSV,1,1,00,8*6C
$GNGGA,193214.000,4910.426113,N,12304.401832,W,1,26,0.51,8.140,M,-16.816,M,,*43
$GNRMC,193214.000,A,4910.426113,N,12304.401832,W,0.009,144.81,101024,,,A,V*24
$GNGLL,4910.426113,N,12304.401832,W,193214.000,A,A*5E
$GNVTG,144.81,T,,M,0.009,N,0.017,K,A*24
$GNGSA,A,3,02,03,04,17,19,21,25,26,28,31,32,,0.87,0.51,0.70,1*0F
$GNGSA,A,3,,,,,,,,,,,,,0.87,0.51,0.70,2*0E
$GNGSA,A,3,10,12,19,29,33,,,,,,,,0.87,0.51,0.70,3*0E
$GNGSA,A,3,23,24,25,27,29,30,32,33,40,41,,,0.87,0.51,0.70,4*05
$GNGSA,A,3,,,,,,,,,,,,,0.87,0.51,0.70,5*09
$GPGSV,4,1,13,02,32,218,30,03,65,300,36,04,34,261,28,06,,,19,1*5C
$GPGSV,4,2,13,17,04,290,20,19,06,313,25,21,22,202,26,25,12,038,22,1*6B
$GPGSV,4,3,13,26,18,127,24,28,47,060,35,31,66,125,36,32,14,075,25,1*67
$GPGSV,4,4,13,48,32,193,28,1*5A
$GPGSV,1,1,03,03,65,300,24,04,34,261,19,28,47,060,23,8*5B
$GLGSV,1,1,00,1*78
$GAGSV,2,1,07,10,29,313,26,12,44,288,23,19,53,263,26,27,,,23,7*41
$GAGSV,2,2,07,29,75,054,33,30,,,21,33,39,208,27,7*79
$GAGSV,2,1,06,10,29,313,17,12,44,288,17,19,53,263,14,29,75,054,23,1*7F
$GAGSV,2,2,06,30,,,15,33,39,208,19,1*4C
$GBGSV,3,1,11,14,03,102,12,23,19,171,29,24,27,050,29,25,47,116,34,1*7F
$GBGSV,3,2,11,27,13,232,27,29,07,333,24,30,20,281,26,32,39,290,33,1*71
$GBGSV,3,3,11,33,27,099,30,40,04,299,19,41,78,064,37,1*46
$GBGSV,1,1,04,24,27,050,15,25,47,116,23,32,39,290,20,41,78,064,21,5*7E
$GQGSV,1,1,00,1*65
$GQGSV,1,1,00,8*6C
$GNGGA,193215.000,4910.426114,N,12304.401826,W,1,26,0.51,8.137,M,-16.816,M,,*40
$GNRMC,193215.000,A,4910.426114,N,12304.401826,W,0.018,144.81,101024,,,A,V*27
$GNGLL,4910.426114,N,12304.401826,W,193215.000,A,A*5D
$GNVTG,144.81,T,,M,0.018,N,0.033,K,A*22
$GNGSA,A,3,02,03,04,17,19,21,25,26,28,31,32,,0.87,0.51,0.70,1*0F
$GNGSA,A,3,,,,,,,,,,,,,0.87,0.51,0.70,2*0E
$GNGSA,A,3,10,12,19,29,33,,,,,,,,0.87,0.51,0.70,3*0E
$GNGSA,A,3,23,24,25,27,29,30,32,33,40,41,,,0.87,0.51,0.70,4*05
$GNGSA,A,3,,,,,,,,,,,,,0.87,0.51,0.70,5*09
$GPGSV,4,1,13,02,32,218,30,03,65,300,36,04,34,261,27,06,,,19,1*53
$GPGSV,4,2,13,17,04,290,21,19,06,313,27,21,22,202,26,25,12,038,22,1*68
$GPGSV,4,3,13,26,18,127,25,28,47,060,35,31,66,125,35,32,14,075,24,1*64
$GPGSV,4,4,13,48,32,193,28,1*5A
$GPGSV,1,1,03,03,65,300,25,04,34,261,20,28,47,060,22,8*51
$GLGSV,1,1,00,1*78
$GAGSV,2,1,07,10,29,313,26,12,44,288,24,19,53,263,26,27,,,23,7*46
$GAGSV,2,2,07,29,75,054,33,30,,,21,33,39,208,29,7*77
$GAGSV,2,1,05,10,29,313,16,12,44,288,18,29,75,054,23,30,,,14,1*48
$GAGSV,2,2,05,33,39,208,21,1*43
$GBGSV,3,1,11,14,03,102,12,23,19,171,29,24,27,050,30,25,47,116,35,1*76
$GBGSV,3,2,11,27,13,232,29,29,07,333,25,30,20,281,27,32,39,290,34,1*78
$GBGSV,3,3,11,33,27,099,33,40,04,299,20,41,78,064,38,1*40
$GBGSV,1,1,04,24,27,050,17,25,47,116,23,32,39,290,20,41,78,064,24,5*79
$GQGSV,1,1,00,1*65
$GQGSV,1,1,00,8*6C
$GNGGA,193216.000,4910.426115,N,12304.401819,W,1,26,0.49,8.137,M,-16.817,M,,*46
$GNRMC,193216.000,A,4910.426115,N,12304.401819,W,0.011,144.81,101024,,,A,V*20
$GNGLL,4910.426115,N,12304.401819,W,193216.000,A,A*53
$GNVTG,144.81,T,,M,0.011,N,0.020,K,A*29
$GNGSA,A,3,02,03,04,17,19,21,25,26,28,31,32,,0.86,0.49,0.70,1*07
$GNGSA,A,3,,,,,,,,,,,,,0.86,0.49,0.70,2*06
$GNGSA,A,3,10,12,19,29,33,,,,,,,,0.86,0.49,0.70,3*06
$GNGSA,A,3,23,24,25,27,29,30,32,33,40,41,,,0.86,0.49,0.70,4*0D
$GNGSA,A,3,,,,,,,,,,,,,0.86,0.49,0.70,5*01
$GPGSV,4,1,13,02,32,218,29,03,65,300,35,04,34,261,28,06,,,20,1*5D
$GPGSV,4,2,13,17,04,290,19,19,06,313,25,21,22,202,25,25,12,038,23,1*63
$GPGSV,4,3,13,26,18,127,25,28,47,060,35,31,66,125,35,32,14,075,24,1*64
$GPGSV,4,4,13,48,32,193,28,1*5A
$GPGSV,1,1,03,03,65,300,24,04,34,261,20,28,47,060,23,8*51
$GLGSV,1,1,00,1*78
$GAGSV,2,1,07,10,29,313,25,12,44,288,25,19,53,263,25,27,,,23,7*47
$GAGSV,2,2,07,29,75,054,32,30,,,22,33,39,208,27,7*7B
$GAGSV,2,1,05,10,29,313,17,12,44,288,17,29,75,054,23,30,,,16,1*44
$GAGSV,2,2,05,33,39,208,21,1*43
$GBGSV,3,1,11,14,03,102,12,23,19,171,27,24,27,050,29,25,47,116,33,1*76
$GBGSV,3,2,11,27,13,232,27,29,07,333,24,30,20,281,27,32,39,290,33,1*70
$GBGSV,3,3,11,33,27,099,31,40,04,299,19,41,78,064,36,1*46
$GBGSV,1,1,04,24,27,050,17,25,47,116,21,32,39,290,20,41,78,064,23,5*7C
$GQGSV,1,1,00,1*65
$GQGSV,1,1,00,8*6C
$GNGGA,193217.000,4910.426114,N,12304.401814,W,1,26,0.51,8.135,M,-16.816,M,,*41
$GNRMC,193217.000,A,4910.426114,N,12304.401814,W,0.013,144.81,101024,,,A,V*2F
$GNGLL,4910.426114,N,12304.401814,W,193217.000,A,A*5E
$GNVTG,144.81,T,,M,0.013,N,0.025,K,A*2E
$GNGSA,A,3,02,03,04,17,19,21,25,26,28,31,32,,0.87,0.51,0.70,1*0F
$GNGSA,A,3,,,,,,,,,,,,,0.87,0.51,0.70,2*0E
$GNGSA,A,3,10,12,19,29,33,,,,,,,,0.87,0.51,0.70,3*0E
$GNGSA,A,3,23,24,25,27,29,30,32,33,40,41,,,0.87,0.51,0.70,4*05
$GNGSA,A,3,,,,,,,,,,,,,0.87,0.51,0.70,5*09
$GPGSV,4,1,13,02,32,218,29,03,65,300,34,04,34,261,26,06,,,19,1*58
$GPGSV,4,2,13,17,04,290,20,19,06,313,24,21,22,202,24,25,12,038,22,1*68
$GPGSV,4,3,13,26,18,127,24,28,47,060,33,31,66,125,33,32,14,075,23,1*62
$GPGSV,4,4,13,48,32,193,28,1*5A
$GPGSV,1,1,03,03,65,300,25,04,34,261,20,28,47,060,21,8*52
$GLGSV,1,1,00,1*78
$GAGSV,2,1,07,10,29,313,25,12,44,288,22,19,53,263,25,27,,,22,7*41
$GAGSV,2,2,07,29,75,054,32,30,,,21,33,39,208,28,7*77
$GAGSV,2,1,05,10,29,313,17,12,44,288,17,29,75,054,24,30,,,15,1*40
$GAGSV,2,2,05,33,39,208,20,1*42
$GBGSV,3,1,11,14,03,102,13,23,19,171,27,24,27,050,30,25,47,116,33,1*7F
$GBGSV,3,2,11,27,13,232,28,29,07,333,24,30,20,281,26,32,39,290,33,1*7E
$GBGSV,3,3,11,33,27,099,31,40,04,299,18,41,78,065,36,1*46
$GBGSV,1,1,04,24,27,050,17,25,47,116,23,32,39,290,21,41,78,065,24,5*79
$GQGSV,1,1,00,1*65
$GQGSV,1,1,00,8*6C
$GNGGA,193218.000,4910.426114,N,12304.401809,W,1,26,0.57,8.133,M,-16.816,M,,*42
$GNRMC,193218.000,A,4910.426114,N,12304.401809,W,0.009,144.81,101024,,,A,V*27
$GNGLL,4910.426114,N,12304.401809,W,193218.000,A,A*5D
$GNVTG,144.81,T,,M,0.009,N,0.017,K,A*24
$GNGSA,A,3,02,03,04,17,19,21,25,26,28,31,32,,0.98,0.57,0.80,1*08
$GNGSA,A,3,,,,,,,,,,,,,0.98,0.57,0.80,2*09
$GNGSA,A,3,10,12,19,29,33,,,,,,,,0.98,0.57,0.80,3*09
$GNGSA,A,3,23,24,25,27,29,30,32,33,40,41,,,0.98,0.57,0.80,4*02
$GNGSA,A,3,,,,,,,,,,,,,0.98,0.57,0.80,5*0E
$GPGSV,4,1,13,02,32,218,30,03,65,300,36,04,34,261,28,06,,,21,1*57
$GPGSV,4,2,13,17,04,290,19,19,06,313,26,21,22,202,25,25,12,038,22,1*61
$GPGSV,4,3,13,26,18,127,25,28,47,060,35,31,66,125,36,32,14,075,25,1*66
$GPGSV,4,4,13,48,32,193,28,1*5A
$GPGSV,1,1,03,03,65,300,24,04,34,261,20,28,47,060,22,8*50
$GLGSV,1,1,00,1*78
$GAGSV,2,1,07,10,29,313,27,12,44,288,24,19,53,263,28,27,,,22,7*48
$GAGSV,2,2,07,29,75,054,33,30,,,22,33,39,208,28,7*75
$GAGSV,2,1,05,10,29,313,16,12,44,288,18,29,75,054,23,30,,,13,1*4F
$GAGSV,2,2,05,33,39,208,21,1*43
$GBGSV,3,1,11,14,03,102,13,23,19,171,27,24,27,050,30,25,47,116,33,1*7F
$GBGSV,3,2,11,27,13,232,27,29,07,333,25,30,20,281,25,32,39,290,33,1*73
$GBGSV,3,3,11,33,27,099,31,40,04,299,18,41,78,065,36,1*46
$GBGSV,1,1,04,24,27,050,16,25,47,116,22,32,39,290,20,41,78,065,24,5*78
$GQGSV,1,1,00,1*65
$GQGSV,1,1,00,8*6C
$GNGGA,193219.000,4910.426116,N,12304.401805,W,1,26,0.49,8.131,M,-16.816,M,,*40
$GNRMC,193219.000,A,4910.426116,N,12304.401805,W,0.008,144.81,101024,,,A,V*29
$GNGLL,4910.426116,N,12304.401805,W,193219.000,A,A*52
$GNVTG,144.81,T,,M,0.008,N,0.015,K,A*27
$GNGSA,A,3,02,03,04,17,19,21,25,26,28,31,32,,0.85,0.49,0.70,1*04
$GNGSA,A,3,,,,,,,,,,,,,0.85,0.49,0.70,2*05
$GNGSA,A,3,10,12,19,29,33,,,,,,,,0.85,0.49,0.70,3*05
$GNGSA,A,3,23,24,25,27,29,30,32,33,40,41,,,0.85,0.49,0.70,4*0E
$GNGSA,A,3,,,,,,,,,,,,,0.85,0.49,0.70,5*02
$GPGSV,4,1,13,02,32,218,29,03,65,300,35,04,34,261,27,06,,,18,1*59
$GPGSV,4,2,13,17,04,290,19,19,06,313,25,21,22,202,25,25,12,038,20,1*60
$GPGSV,4,3,13,26,18,127,22,28,47,060,34,31,66,125,34,32,14,075,24,1*63
$GPGSV,4,4,13,48,32,193,28,1*5A
$GPGSV,1,1,03,03,65,300,25,04,34,261,20,28,47,060,24,8*57
$GLGSV,1,1,00,1*78
$GAGSV,2,1,07,10,29,313,23,12,44,288,23,19,53,263,25,27,,,21,7*45
$GAGSV,2,2,07,29,75,054,30,30,,,21,33,39,208,27,7*7A
$GAGSV,2,1,05,10,29,313,17,12,44,288,19,29,75,054,23,30,,,16,1*4A
$GAGSV,2,2,05,33,39,208,21,1*43
$GBGSV,3,1,11,14,03,102,13,23,19,171,28,24,27,050,30,25,47,116,34,1*77
$GBGSV,3,2,11,27,13,232,29,29,07,333,25,30,20,281,27,32,39,290,33,1*7F
$GBGSV,3,3,11,33,27,099,32,40,04,299,17,41,78,065,37,1*4B
$GBGSV,1,1,04,24,27,050,17,25,47,116,23,32,39,290,19,41,78,065,24,5*72
$GQGSV,1,1,00,1*65
$GQGSV,1,1,00,8*6C
$GNGGA,193220.000,4910.426117,N,12304.401803,W,1,26,0.58,8.129,M,-16.816,M,,*44
$GNRMC,193220.000,A,4910.426117,N,12304.401803,W,0.007,144.81,101024,,,A,V*2B
$GNGLL,4910.426117,N,12304.401803,W,193220.000,A,A*5F
$GNVTG,144.81,T,,M,0.007,N,0.013,K,A*2E
$GNGSA,A,3,02,03,04,17,19,21,25,26,28,31,32,,0.99,0.58,0.80,1*06
$GNGSA,A,3,,,,,,,,,,,,,0.99,0.58,0.80,2*07
$GNGSA,A,3,10,12,19,29,33,,,,,,,,0.99,0.58,0.80,3*07
$GNGSA,A,3,23,24,25,27,29,30,32,33,40,41,,,0.99,0.58,0.80,4*0C
$GNGSA,A,3,,,,,,,,,,,,,0.99,0.58,0.80,5*00
$GPGSV,4,1,13,02,32,218,30,03,65,300,35,04,34,261,28,06,,,17,1*51
$GPGSV,4,2,13,17,04,290,19,19,06,313,23,21,22,202,25,25,12,038,21,1*67
$GPGSV,4,3,13,26,18,127,23,28,47,060,34,31,66,125,35,32,14,075,24,1*63
$GPGSV,4,4,13,48,32,193,28,1*5A
$GPGSV,1,1,03,03,65,300,23,04,34,261,20,28,47,060,22,8*57
$GLGSV,1,1,00,1*78
$GAGSV,2,1,07,10,29,313,25,12,44,288,22,19,53,263,25,27,,,21,7*42
$GAGSV,2,2,07,29,75,054,33,30,,,22,33,39,208,27,7*7A
$GAGSV,2,1,05,10,29,313,17,12,44,288,17,29,75,054,22,30,,,14,1*47
$GAGSV,2,2,05,33,39,208,20,1*42
$GBGSV,3,1,11,14,03,102,13,23,19,171,28,24,27,050,30,25,47,116,35,1*76
$GBGSV,3,2,11,27,13,232,29,29,07,333,25,30,20,281,28,32,39,290,34,1*77
$GBGSV,3,3,11,33,27,099,32,40,04,299,19,41,78,065,37,1*45
$GBGSV,1,1,04,24,27,050,16,25,47,116,22,32,39,290,20,41,78,065,22,5*7E
$GQGSV,1,1,00,1*65
$GQGSV,1,1,00,8*6C
$GNGGA,193221.000,4910.426116,N,12304.401796,W,1,26,0.53,8.127,M,-16.817,M,,*43
$GNRMC,193221.000,A,4910.426116,N,12304.401796,W,0.017,144.81,101024,,,A,V*29
$GNGLL,4910.426116,N,12304.401796,W,193221.000,A,A*5C
$GNVTG,144.81,T,,M,0.017,N,0.031,K,A*2F
$GNGSA,A,3,02,03,04,17,19,21,25,26,28,31,32,,0.90,0.53,0.72,1*09
$GNGSA,A,3,,,,,,,,,,,,,0.90,0.53,0.72,2*08
$GNGSA,A,3,10,12,19,29,33,,,,,,,,0.90,0.53,0.72,3*08
$GNGSA,A,3,23,24,25,27,29,30,32,33,40,41,,,0.90,0.53,0.72,4*03
$GNGSA,A,3,,,,,,,,,,,,,0.90,0.53,0.72,5*0F
$GPGSV,4,1,13,02,32,218,30,03,65,300,34,04,34,261,27,06,,,18,1*50
$GPGSV,4,2,13,17,04,290,18,19,06,313,24,21,22,202,25,25,12,038,21,1*61
$GPGSV,4,3,13,26,18,127,23,28,47,060,33,31,66,125,33,32,14,075,25,1*63
$GPGSV,4,4,13,48,32,193,28,1*5A
$GPGSV,1,1,03,03,65,300,23,04,34,261,20,28,47,060,22,8*57
$GLGSV,1,1,00,1*78
$GAGSV,2,1,07,10,29,313,25,12,44,288,23,19,53,263,25,27,,,21,7*43
$GAGSV,2,2,07,29,75,054,30,30,,,20,33,39,208,25,7*79
$GAGSV,2,1,05,10,29,313,17,12,44,288,16,29,75,054,22,30,,,14,1*46
$GAGSV,2,2,05,33,39,208,19,1*48
$GBGSV,3,1,11,14,03,102,13,23,19,171,29,24,27,050,31,25,47,116,35,1*76
$GBGSV,3,2,11,27,13,232,30,29,07,333,27,30,20,281,29,32,39,290,34,1*7C
$GBGSV,3,3,11,33,27,099,33,40,04,299,20,41,78,065,38,1*41
$GBGSV,1,1,04,24,27,050,15,25,47,116,23,32,39,290,19,41,78,065,22,5*76
$GQGSV,1,1,00,1*65
$GQGSV,1,1,00,8*6C
$GNGGA,193222.000,4910.426117,N,12304.401791,W,1,26,0.57,8.124,M,-16.817,M,,*41
$GNRMC,193222.000,A,4910.426117,N,12304.401791,W,0.015,144.81,101024,,,A,V*2E
$GNGLL,4910.426117,N,12304.401791,W,193222.000,A,A*59
$GNVTG,144.81,T,,M,0.015,N,0.027,K,A*2A
$GNGSA,A,3,02,03,04,17,19,21,25,26,28,31,32,,0.98,0.57,0.79,1*0E
$GNGSA,A,3,,,,,,,,,,,,,0.98,0.57,0.79,2*0F
$GNGSA,A,3,10,12,19,29,33,,,,,,,,0.98,0.57,0.79,3*0F
$GNGSA,A,3,23,24,25,27,29,30,32,33,40,41,,,0.98,0.57,0.79,4*04
$GNGSA,A,3,,,,,,,,,,,,,0.98,0.57,0.79,5*08
$GPGSV,4,1,13,02,32,218,32,03,65,300,37,04,34,261,30,06,,,18,1*57
$GPGSV,4,2,13,17,04,290,20,19,06,313,26,21,22,202,28,25,12,038,25,1*61
$GPGSV,4,3,13,26,18,127,25,28,47,060,37,31,66,125,37,32,14,075,27,1*67
$GPGSV,4,4,13,48,32,193,28,1*5A
$GPGSV,1,1,03,03,65,300,25,04,34,261,21,28,47,060,23,8*51
$GLGSV,1,1,00,1*78
$GAGSV,2,1,07,10,29,313,26,12,44,288,27,19,53,263,27,27,,,23,7*44
$GAGSV,2,2,07,29,75,054,34,30,,,24,33,39,208,30,7*7D
$GAGSV,2,1,05,10,29,313,16,12,44,288,18,29,75,054,23,30,,,11,1*4D
$GAGSV,2,2,05,33,39,208,21,1*43
$GBGSV,3,1,10,23,19,171,28,24,27,050,30,25,47,116,33,27,13,232,28,1*78
$GBGSV,3,2,10,29,07,333,25,30,20,281,28,32,39,290,33,33,27,099,31,1*79
$GBGSV,3,3,10,40,04,299,20,41,78,065,36,1*7B
$GBGSV,1,1,04,24,27,050,17,25,47,116,22,32,39,290,21,41,78,065,24,5*78
$GQGSV,1,1,00,1*65
$GQGSV,1,1,00,8*6C
$GNGGA,193223.000,4910.426117,N,12304.401786,W,1,26,0.49,8.121,M,-16.817,M,,*4C
$GNRMC,193223.000,A,4910.426117,N,12304.401786,W,0.003,144.81,101024,,,A,V*2E
$GNGLL,4910.426117,N,12304.401786,W,193223.000,A,A*5E
$GNVTG,144.81,T,,M,0.003,N,0.006,K,A*2E
$GNGSA,A,3,02,03,04,17,19,21,25,26,28,31,32,,0.86,0.49,0.71,1*06
$GNGSA,A,3,,,,,,,,,,,,,0.86,0.49,0.71,2*07
$GNGSA,A,3,10,12,19,29,33,,,,,,,,0.86,0.49,0.71,3*07
$GNGSA,A,3,23,24,25,27,29,30,32,33,40,41,,,0.86,0.49,0.71,4*0C
$GNGSA,A,3,,,,,,,,,,,,,0.86,0.49,0.71,5*00
$GPGSV,4,1,13,02,32,218,28,03,65,300,33,04,34,261,27,06,,,18,1*5E
$GPGSV,4,2,13,17,04,290,18,19,06,313,24,21,22,202,25,25,12,038,21,1*61
$GPGSV,4,3,13,26,18,127,23,28,47,060,34,31,66,124,33,32,14,075,25,1*65
$GPGSV,4,4,13,48,32,193,28,1*5A
$GPGSV,1,1,03,03,65,300,24,04,34,261,21,28,47,060,22,8*51
$GLGSV,1,1,00,1*78
$GAGSV,2,1,07,10,29,313,23,12,44,288,23,19,53,263,23,27,,,21,7*43
$GAGSV,2,2,07,29,75,055,30,30,,,21,33,39,208,25,7*79
$GAGSV,2,1,05,10,29,313,17,12,44,288,18,29,75,055,23,30,,,13,1*4F
$GAGSV,2,2,05,33,39,208,22,1*40
$GBGSV,3,1,10,23,19,171,28,24,27,050,29,25,47,116,34,27,13,232,29,1*76
$GBGSV,3,2,10,29,07,333,25,30,20,281,29,32,39,290,33,33,27,099,32,1*7B
$GBGSV,3,3,10,40,04,299,18,41,78,065,37,1*71
$GBGSV,1,1,04,24,27,050,15,25,47,116,22,32,39,290,20,41,78,065,24,5*7B
$GQGSV,1,1,00,1*65
$GQGSV,1,1,00,8*6C
$GNGGA,193224.000,4910.426117,N,12304.401782,W,1,26,0.49,8.117,M,-16.816,M,,*4B
$GNRMC,193224.000,A,4910.426117,N,12304.401782,W,0.016,144.81,101024,,,A,V*29
$GNGLL,4910.426117,N,12304.401782,W,193224.000,A,A*5D
$GNVTG,144.81,T,,M,0.016,N,0.029,K,A*27
$GNGSA,A,3,02,03,04,17,19,21,25,26,28,31,32,,0.86,0.49,0.71,1*06
$GNGSA,A,3,,,,,,,,,,,,,0.86,0.49,0.71,2*07
$GNGSA,A,3,10,12,19,29,33,,,,,,,,0.86,0.49,0.71,3*07
$GNGSA,A,3,23,24,25,27,29,30,32,33,40,41,,,0.86,0.49,0.71,4*0C
$GNGSA,A,3,,,,,,,,,,,,,0.86,0.49,0.71,5*00
$GPGSV,4,1,13,02,32,218,30,03,65,300,35,04,34,261,28,06,,,19,1*5F
$GPGSV,4,2,13,17,04,290,18,19,06,313,24,21,22,202,27,25,12,038,23,1*61
$GPGSV,4,3,13,26,18,127,24,28,47,060,35,31,66,124,36,32,14,075,26,1*65
$GPGSV,4,4,13,48,32,193,28,1*5A
$GPGSV,1,1,03,03,65,300,24,04,34,261,19,28,47,060,23,8*5B
$GLGSV,1,1,00,1*78
$GAGSV,2,1,07,10,29,313,25,12,44,288,25,19,53,263,26,27,,,22,7*45
$GAGSV,2,2,07,29,75,055,33,30,,,24,33,39,208,29,7*73
$GAGSV,2,1,05,10,29,313,16,12,44,288,18,29,75,055,23,30,,,12,1*4F
$GAGSV,2,2,05,33,39,208,20,1*42
$GBGSV,3,1,10,23,19,171,29,24,27,050,30,25,47,116,34,27,13,232,29,1*7F
$GBGSV,3,2,10,29,07,333,25,30,20,281,27,32,39,290,33,33,27,099,32,1*75
$GBGSV,3,3,10,40,04,299,21,41,78,065,37,1*7B
$GBGSV,1,1,04,24,27,050,15,25,47,116,21,32,39,290,19,41,78,065,23,5*75
$GQGSV,1,1,00,1*65
$GQGSV,1,1,00,8*6C
$GNGGA,193225.000,4910.426116,N,12304.401779,W,1,26,0.49,8.114,M,-16.816,M,,*4C
$GNRMC,193225.000,A,4910.426116,N,12304.401779,W,0.001,144.81,101024,,,A,V*2B
$GNGLL,4910.426116,N,12304.401779,W,193225.000,A,A*59
$GNVTG,144.81,T,,M,0.001,N,0.002,K,A*28
$GNGSA,A,3,02,03,04,17,19,21,25,26,28,31,32,,0.86,0.49,0.71,1*06
$GNGSA,A,3,,,,,,,,,,,,,0.86,0.49,0.71,2*07
$GNGSA,A,3,10,12,19,29,33,,,,,,,,0.86,0.49,0.71,3*07
$GNGSA,A,3,23,24,25,27,29,30,32,33,40,41,,,0.86,0.49,0.71,4*0C
$GNGSA,A,3,,,,,,,,,,,,,0.86,0.49,0.71,5*00
$GPGSV,4,1,13,02,32,217,29,03,65,300,34,04,34,261,26,06,,,19,1*57
$GPGSV,4,2,13,17,04,290,18,19,06,313,24,21,22,202,25,25,12,038,22,1*62
$GPGSV,4,3,13,26,18,127,22,28,47,060,34,31,66,124,33,32,14,075,25,1*64
$GPGSV,4,4,13,48,32,193,28,1*5A
$GPGSV,1,1,03,03,65,300,23,04,34,261,18,28,47,060,21,8*5F
$GLGSV,1,1,00,1*78
$GAGSV,2,1,07,10,29,313,24,12,44,288,23,19,54,263,24,27,,,21,7*44
$GAGSV,2,2,07,29,75,055,29,30,,,22,33,39,208,25,7*72
$GAGSV,2,1,05,10,29,313,15,12,44,288,17,29,75,055,21,30,,,13,1*40
$GAGSV,2,2,05,33,39,208,18,1*49
$GBGSV,3,1,10,23,19,171,29,24,27,050,30,25,47,116,34,27,13,232,28,1*7E
$GBGSV,3,2,10,29,07,333,24,30,20,281,28,32,39,290,34,33,27,099,33,1*7D
$GBGSV,3,3,10,40,04,299,20,41,78,065,37,1*7A
$GBGSV,1,1,04,24,27,050,14,25,47,116,22,32,39,290,17,41,78,065,22,5*78
$GQGSV,1,1,00,1*65
$GQGSV,1,1,00,8*6C
$GNGGA,193226.000,4910.426116,N,12304.401775,W,1,26,0.49,8.111,M,-16.816,M,,*46
$GNRMC,193226.000,A,4910.426116,N,12304.401775,W,0.012,144.81,101024,,,A,V*26
$GNGLL,4910.426116,N,12304.401775,W,193226.000,A,A*56
$GNVTG,144.81,T,,M,0.012,N,0.021,K,A*2B
$GNGSA,A,3,02,03,04,17,19,21,25,26,28,31,32,,0.86,0.49,0.71,1*06
$GNGSA,A,3,,,,,,,,,,,,,0.86,0.49,0.71,2*07
$GNGSA,A,3,10,12,19,29,33,,,,,,,,0.86,0.49,0.71,3*07
$GNGSA,A,3,23,24,25,27,29,30,32,33,40,41,,,0.86,0.49,0.71,4*0C
$GNGSA,A,3,,,,,,,,,,,,,0.86,0.49,0.71,5*00
$GPGSV,4,1,13,02,32,217,29,03,65,300,34,04,34,261,24,06,,,17,1*5B
$GPGSV,4,2,13,17,04,290,17,19,06,313,23,21,22,202,24,25,12,038,20,1*69
$GPGSV,4,3,13,26,18,127,21,28,47,060,34,31,66,124,34,32,14,075,24,1*61
$GPGSV,4,4,13,48,32,193,28,1*5A
$GPGSV,1,1,03,03,65,300,26,04,34,261,20,28,47,060,24,8*54
$GLGSV,1,1,00,1*78
$GAGSV,2,1,07,10,29,313,25,12,44,288,22,19,54,263,24,27,,,20,7*45
$GAGSV,2,2,07,29,75,055,31,30,,,22,33,39,208,27,7*79
$GAGSV,2,1,05,10,29,313,17,12,44,288,18,29,75,055,24,30,,,14,1*4F
$GAGSV,2,2,05,33,39,208,20,1*42
$GBGSV,3,1,10,23,19,171,28,24,27,050,31,25,47,116,35,27,13,232,28,1*7F
$GBGSV,3,2,10,29,07,333,25,30,20,281,28,32,39,290,34,33,27,099,33,1*7C
$GBGSV,3,3,10,40,04,299,18,41,78,065,37,1*71
$GBGSV,1,1,04,24,27,050,16,25,47,116,25,32,39,290,21,41,78,065,24,5*7E
$GQGSV,1,1,00,1*65
$GQGSV,1,1,00,8*6C
$GNGGA,193227.000,4910.426116,N,12304.401771,W,1,26,0.49,8.108,M,-16.816,M,,*4B
$GNRMC,193227.000,A,4910.426116,N,12304.401771,W,0.005,144.81,101024,,,A,V*25
$GNGLL,4910.426116,N,12304.401771,W,193227.000,A,A*53
$GNVTG,144.81,T,,M,0.005,N,0.009,K,A*27
$GNGSA,A,3,02,03,04,17,19,21,25,26,28,31,32,,0.86,0.49,0.71,1*06
$GNGSA,A,3,,,,,,,,,,,,,0.86,0.49,0.71,2*07
$GNGSA,A,3,10,12,19,29,33,,,,,,,,0.86,0.49,0.71,3*07
$GNGSA,A,3,23,24,25,27,29,30,32,33,40,41,,,0.86,0.49,0.71,4*0C
$GNGSA,A,3,,,,,,,,,,,,,0.86,0.49,0.71,5*00
$GPGSV,4,1,13,02,32,217,28,03,65,300,33,04,35,261,25,06,,,18,1*52
$GPGSV,4,2,13,17,04,290,18,19,06,313,23,21,22,202,25,25,12,038,21,1*66
$GPGSV,4,3,13,26,18,127,23,28,47,060,32,31,66,124,33,32,14,075,24,1*62
$GPGSV,4,4,13,48,32,193,27,1*55
$GPGSV,1,1,03,03,65,300,23,04,35,261,19,28,47,060,20,8*5E
$GLGSV,1,1,00,1*78
$GAGSV,2,1,07,10,29,313,23,12,44,288,23,19,54,263,24,27,,,21,7*43
$GAGSV,2,2,07,29,75,055,30,30,,,20,33,39,208,27,7*7A
$GAGSV,2,1,05,10,29,313,17,12,44,288,17,29,75,055,22,30,,,11,1*43
$GAGSV,2,2,05,33,39,208,20,1*42
$GBGSV,3,1,10,23,19,171,29,24,27,050,31,25,47,116,36,27,13,232,29,1*7C
$GBGSV,3,2,10,29,07,333,25,30,20,281,29,32,39,290,35,33,27,099,34,1*7B
$GBGSV,3,3,10,40,04,299,20,41,78,065,37,1*7A
$GBGSV,1,1,04,24,27,050,17,25,47,116,22,32,39,290,20,41,78,065,23,5*7E
$GQGSV,1,1,00,1*65
$GQGSV,1,1,00,8*6C
$GNGGA,193228.000,4910.426117,N,12304.401774,W,1,26,0.49,8.103,M,-16.816,M,,*4B
$GNRMC,193228.000,A,4910.426117,N,12304.401774,W,0.013,144.81,101024,,,A,V*29
$GNGLL,4910.426117,N,12304.401774,W,193228.000,A,A*58
$GNVTG,144.81,T,,M,0.013,N,0.023,K,A*28
$GNGSA,A,3,02,03,04,17,19,21,25,26,28,31,32,,0.86,0.49,0.71,1*06
$GNGSA,A,3,,,,,,,,,,,,,0.86,0.49,0.71,2*07
$GNGSA,A,3,10,12,19,29,33,,,,,,,,0.86,0.49,0.71,3*07
$GNGSA,A,3,23,24,25,27,29,30,32,33,40,41,,,0.86,0.49,0.71,4*0C
$GNGSA,A,3,,,,,,,,,,,,,0.86,0.49,0.71,5*00
$GPGSV,4,1,13,02,32,217,29,03,65,300,34,04,35,261,25,06,,,18,1*54
$GPGSV,4,2,13,17,04,290,17,19,06,313,23,21,22,202,25,25,12,038,22,1*6A
$GPGSV,4,3,13,26,18,127,23,28,47,060,34,31,66,124,34,32,14,075,24,1*63
$GPGSV,4,4,13,48,32,193,27,1*55
$GPGSV,1,1,03,03,65,300,25,04,35,261,21,28,47,060,23,8*50
$GLGSV,1,1,00,1*78
$GAGSV,2,1,07,10,29,313,25,12,44,288,22,19,54,263,26,27,,,21,7*46
$GAGSV,2,2,07,29,75,055,32,30,,,22,33,39,208,26,7*7B
$GAGSV,1,1,04,10,29,313,18,12,44,288,18,29,75,055,24,33,39,208,21,1*77
$GBGSV,3,1,10,23,19,171,28,24,27,050,30,25,47,116,35,27,13,232,27,1*71
$GBGSV,3,2,10,29,07,333,25,30,20,281,29,32,39,290,34,33,27,099,33,1*7D
$GBGSV,3,3,10,40,04,299,19,41,78,065,38,1*7F
$GBGSV,1,1,04,24,27,050,16,25,47,116,23,32,39,290,22,41,78,065,23,5*7C
$GQGSV,1,1,00,1*65
$GQGSV,1,1,00,8*6C
$GNGGA,193229.000,4910.426117,N,12304.401773,W,1,26,0.52,8.099,M,-16.816,M,,*45
$GNRMC,193229.000,A,4910.426117,N,12304.401773,W,0.009,144.81,101024,,,A,V*24
$GNGLL,4910.426117,N,12304.401773,W,193229.000,A,A*5E
$GNVTG,144.81,T,,M,0.009,N,0.017,K,A*24
$GNGSA,A,3,02,03,04,17,19,21,25,26,28,31,32,,0.89,0.52,0.73,1*01
$GNGSA,A,3,,,,,,,,,,,,,0.89,0.52,0.73,2*00
$GNGSA,A,3,10,12,19,29,33,,,,,,,,0.89,0.52,0.73,3*00
$GNGSA,A,3,23,24,25,27,29,30,32,33,40,41,,,0.89,0.52,0.73,4*0B
$GNGSA,A,3,,,,,,,,,,,,,0.89,0.52,0.73,5*07
$GPGSV,4,1,13,02,32,217,30,03,65,300,36,04,35,261,27,06,,,19,1*5D
$GPGSV,4,2,13,17,04,290,17,19,06,313,24,21,22,202,26,25,12,038,24,1*68
$GPGSV,4,3,13,26,18,127,24,28,47,060,35,31,66,124,36,32,14,075,25,1*66
$GPGSV,4,4,13,48,32,193,27,1*55
$GPGSV,1,1,03,03,65,300,24,04,35,261,19,28,47,060,22,8*5B
$GLGSV,1,1,00,1*78
$GAGSV,2,1,07,10,29,313,25,12,44,288,25,19,54,263,26,27,,,23,7*43
$GAGSV,2,2,07,29,75,055,34,30,,,24,33,39,208,28,7*75
$GAGSV,1,1,04,10,29,313,17,12,44,288,18,29,75,055,22,33,39,208,19,1*75
$GBGSV,3,1,10,23,19,171,28,24,27,050,30,25,47,115,34,27,13,232,29,1*7D
$GBGSV,3,2,10,29,07,333,26,30,20,281,28,32,39,290,34,33,27,099,32,1*7E
$GBGSV,3,3,10,40,04,299,20,41,78,065,37,1*7A
$GBGSV,1,1,04,24,27,050,15,25,47,115,21,32,39,290,19,41,78,065,21,5*74
$GQGSV,1,1,00,1*65
$GQGSV,1,1,00,8*6C
$GNGGA,193230.000,4910.426117,N,12304.401768,W,1,26,0.50,8.095,M,-16.816,M,,*49
$GNRMC,193230.000,A,4910.426117,N,12304.401768,W,0.007,144.81,101024,,,A,V*28
$GNGLL,4910.426117,N,12304.401768,W,193230.000,A,A*5C
$GNVTG,144.81,T,,M,0.007,N,0.014,K,A*29
$GNGSA,A,3,02,03,04,17,19,21,25,26,28,31,32,,0.87,0.50,0.71,1*0F
$GNGSA,A,3,,,,,,,,,,,,,0.87,0.50,0.71,2*0E
$GNGSA,A,3,10,12,19,29,33,,,,,,,,0.87,0.50,0.71,3*0E
$GNGSA,A,3,23,24,25,27,29,30,32,33,40,41,,,0.87,0.50,0.71,4*05
$GNGSA,A,3,,,,,,,,,,,,,0.87,0.50,0.71,5*09
$GPGSV,4,1,13,02,32,217,30,03,65,300,34,04,35,261,26,06,,,19,1*5E
$GPGSV,4,2,13,17,04,290,18,19,06,313,23,21,22,202,26,25,12,038,22,1*66
$GPGSV,4,3,13,26,18,127,24,28,47,060,35,31,66,124,34,32,14,075,25,1*64
$GPGSV,4,4,13,48,32,193,27,1*55
$GPGSV,1,1,03,03,65,300,23,04,35,261,19,28,47,060,22,8*5C
$GLGSV,1,1,00,1*78
$GAGSV,2,1,07,10,29,313,25,12,44,288,23,19,54,263,25,27,,,22,7*47
$GAGSV,2,2,07,29,75,055,32,30,,,22,33,39,208,26,7*7B
$GAGSV,1,1,04,10,29,313,16,12,44,288,17,29,75,055,22,33,39,208,19,1*7B
$GBGSV,3,1,10,23,19,171,28,24,27,050,30,25,47,115,35,27,13,232,28,1*7D
$GBGSV,3,2,10,29,07,333,25,30,20,281,29,32,39,290,35,33,27,099,33,1*7C
$GBGSV,3,3,10,40,04,299,19,41,78,065,37,1*70
$GBGSV,1,1,04,24,27,050,15,25,47,115,22,32,39,290,18,41,78,065,22,5*75
$GQGSV,1,1,00,1*65
$GQGSV,1,1,00,8*6C
$GNGGA,193231.000,4910.426116,N,12304.401766,W,1,26,0.55,8.092,M,-16.816,M,,*45
$GNRMC,193231.000,A,4910.426116,N,12304.401766,W,0.003,144.81,101024,,,A,V*22
$GNGLL,4910.426116,N,12304.401766,W,193231.000,A,A*52
$GNVTG,144.81,T,,M,0.003,N,0.005,K,A*2D
$GNGSA,A,3,02,03,04,17,19,21,25,26,28,31,32,,0.93,0.55,0.75,1*0B
$GNGSA,A,3,,,,,,,,,,,,,0.93,0.55,0.75,2*0A
$GNGSA,A,3,10,12,19,29,33,,,,,,,,0.93,0.55,0.75,3*0A
$GNGSA,A,3,23,24,25,27,29,30,32,33,40,41,,,0.93,0.55,0.75,4*01
$GNGSA,A,3,,,,,,,,,,,,,0.93,0.55,0.75,5*0D
$GPGSV,4,1,13,02,32,217,31,03,65,300,36,04,35,261,27,06,,,20,1*56
$GPGSV,4,2,13,17,04,290,17,19,06,313,24,21,22,202,27,25,12,038,22,1*6F
$GPGSV,4,3,13,26,18,127,24,28,47,060,36,31,66,124,36,32,14,075,25,1*65
$GPGSV,4,4,13,48,32,193,27,1*55
$GPGSV,1,1,03,03,65,300,22,04,35,261,19,28,47,060,20,8*5F
$GLGSV,1,1,00,1*78
$GAGSV,2,1,07,10,29,313,25,12,44,288,25,19,54,263,26,27,,,22,7*42
$GAGSV,2,2,07,29,75,055,33,30,,,23,33,39,208,29,7*74
$GAGSV,1,1,04,10,29,313,16,12,44,288,16,29,75,055,21,33,39,208,19,1*79
$GBGSV,3,1,10,23,19,171,29,24,27,050,31,25,47,115,36,27,13,232,30,1*77
$GBGSV,3,2,10,29,07,333,28,30,20,281,29,32,39,290,35,33,27,099,34,1*76
$GBGSV,3,3,10,40,04,299,20,41,78,065,38,1*75
$GBGSV,1,1,04,24,27,050,14,25,47,115,20,32,39,290,18,41,78,065,22,5*76
$GQGSV,1,1,00,1*65
$GQGSV,1,1,00,8*6C
$GNGGA,193232.000,4910.426115,N,12304.401764,W,1,26,0.54,8.089,M,-16.816,M,,*4C
$GNRMC,193232.000,A,4910.426115,N,12304.401764,W,0.005,144.81,101024,,,A,V*26
$GNGLL,4910.426115,N,12304.401764,W,193232.000,A,A*50
$GNVTG,144.81,T,,M,0.005,N,0.010,K,A*2F
$GNGSA,A,3,02,03,04,17,19,21,25,26,28,31,32,,0.90,0.54,0.73,1*0F
$GNGSA,A,3,,,,,,,,,,,,,0.90,0.54,0.73,2*0E
$GNGSA,A,3,10,12,19,29,33,,,,,,,,0.90,0.54,0.73,3*0E
$GNGSA,A,3,23,24,25,27,29,30,32,33,40,41,,,0.90,0.54,0.73,4*05
$GNGSA,A,3,,,,,,,,,,,,,0.90,0.54,0.73,5*09
$GPGSV,4,1,13,02,32,217,29,03,65,300,35,04,35,261,27,06,,,21,1*5D
$GPGSV,4,2,13,17,04,290,20,19,06,313,23,21,22,202,27,25,12,038,23,1*6D
$GPGSV,4,3,13,26,18,127,24,28,47,060,35,31,66,124,35,32,14,075,25,1*65
$GPGSV,4,4,13,48,32,193,27,1*55
$GPGSV,1,1,03,03,65,300,24,04,35,261,19,28,47,060,21,8*58
$GLGSV,1,1,00,1*78
$GAGSV,2,1,07,10,29,313,25,12,44,288,24,19,54,263,25,27,,,22,7*40
$GAGSV,2,2,07,29,75,055,34,30,,,22,33,39,208,29,7*72
$GAGSV,1,1,04,10,29,313,15,12,44,288,18,29,75,055,22,33,39,208,20,1*7D
$GBGSV,3,1,10,23,19,171,28,24,27,050,30,25,47,115,34,27,13,232,28,1*7C
$GBGSV,3,2,10,29,07,333,25,30,20,281,28,32,39,290,33,33,27,099,32,1*7A
$GBGSV,3,3,10,40,04,299,19,41,78,065,36,1*71
$GBGSV,1,1,04,24,27,050,16,25,47,115,22,32,39,290,19,41,78,065,22,5*77
$GQGSV,1,1,00,1*65
$GQGSV,1,1,00,8*6C
$GNGGA,193233.000,4910.426114,N,12304.401762,W,1,26,0.59,8.088,M,-16.817,M,,*47
$GNRMC,193233.000,A,4910.426114,N,12304.401762,W,0.004,144.81,101024,,,A,V*21
$GNGLL,4910.426114,N,12304.401762,W,193233.000,A,A*56
$GNVTG,144.81,T,,M,0.004,N,0.008,K,A*27
$GNGSA,A,3,02,03,04,17,19,21,25,26,28,31,32,,0.99,0.59,0.79,1*01
$GNGSA,A,3,,,,,,,,,,,,,0.99,0.59,0.79,2*00
$GNGSA,A,3,10,12,19,29,33,,,,,,,,0.99,0.59,0.79,3*00
$GNGSA,A,3,23,24,25,27,29,30,32,33,40,41,,,0.99,0.59,0.79,4*0B
$GNGSA,A,3,,,,,,,,,,,,,0.99,0.59,0.79,5*07
$GPGSV,4,1,13,02,32,217,30,03,65,300,36,04,35,261,26,06,,,21,1*57
$GPGSV,4,2,13,17,04,290,19,19,06,313,23,21,22,202,27,25,12,038,22,1*66
$GPGSV,4,3,13,26,18,127,24,28,47,060,35,31,66,124,35,32,14,075,25,1*65
$GPGSV,4,4,13,48,32,193,27,1*55
$GPGSV,1,1,03,03,65,300,24,04,35,261,20,28,47,060,22,8*51
$GLGSV,1,1,00,1*78
$GAGSV,2,1,07,10,29,313,26,12,44,288,24,19,54,263,26,27,,,23,7*41
$GAGSV,2,2,07,29,75,055,33,30,,,23,33,39,208,28,7*75
$GAGSV,1,1,04,10,29,313,17,12,44,288,17,29,75,055,22,33,39,208,20,1*70
$GBGSV,3,1,10,23,19,171,30,24,27,050,31,25,47,115,36,27,13,232,29,1*77
$GBGSV,3,2,10,29,07,333,27,30,20,281,29,32,39,290,35,33,27,099,34,1*79
$GBGSV,3,3,10,40,04,299,20,41,78,065,38,1*75
$GBGSV,1,1,04,24,27,050,16,25,47,115,22,32,39,290,19,41,78,065,23,5*76
$GQGSV,1,1,00,1*65
$GQGSV,1,1,00,8*6C
$GNGGA,193234.000,4910.426114,N,12304.401761,W,1,26,0.57,8.084,M,-16.816,M,,*40
$GNRMC,193234.000,A,4910.426114,N,12304.401761,W,0.008,144.81,101024,,,A,V*29
$GNGLL,4910.426114,N,12304.401761,W,193234.000,A,A*52
$GNVTG,144.81,T,,M,0.008,N,0.014,K,A*26
$GNGSA,A,3,02,03,04,17,19,21,25,26,28,31,32,,0.98,0.57,0.79,1*0E
$GNGSA,A,3,,,,,,,,,,,,,0.98,0.57,0.79,2*0F
$GNGSA,A,3,10,12,19,29,33,,,,,,,,0.98,0.57,0.79,3*0F
$GNGSA,A,3,23,24,25,27,29,30,32,33,40,41,,,0.98,0.57,0.79,4*04
$GNGSA,A,3,,,,,,,,,,,,,0.98,0.57,0.79,5*08
$GPGSV,4,1,13,02,32,217,30,03,65,300,36,04,35,261,27,06,,,22,1*55
$GPGSV,4,2,13,17,04,290,19,19,06,313,24,21,22,202,27,25,12,038,23,1*60
$GPGSV,4,3,13,26,18,127,25,28,47,060,35,31,66,124,35,32,14,075,26,1*67
$GPGSV,4,4,13,48,32,193,27,1*55
$GPGSV,1,1,03,03,65,300,25,04,35,261,20,28,47,060,23,8*51
$GLGSV,1,1,00,1*78
$GAGSV,2,1,07,10,29,313,27,12,44,288,25,19,54,263,27,27,,,23,7*40
$GAGSV,2,2,07,29,75,055,34,30,,,22,33,39,208,30,7*7A
$GAGSV,1,1,04,10,29,313,15,12,44,288,18,29,75,055,22,33,39,208,20,1*7D
$GBGSV,3,1,10,23,19,171,30,24,27,050,30,25,47,115,36,27,13,232,29,1*76
$GBGSV,3,2,10,29,07,333,26,30,20,281,27,32,39,290,35,33,27,099,32,1*70
$GBGSV,3,3,10,40,04,299,20,41,78,065,37,1*7A
$GBGSV,1,1,04,24,27,050,14,25,47,115,23,32,39,290,17,41,78,065,21,5*79
$GQGSV,1,1,00,1*65
$GQGSV,1,1,00,8*6C
$GNGGA,193235.000,4910.426113,N,12304.401759,W,1,26,0.55,8.083,M,-16.817,M,,*49
$GNRMC,193235.000,A,4910.426113,N,12304.401759,W,0.008,144.81,101024,,,A,V*24
$GNGLL,4910.426113,N,12304.401759,W,193235.000,A,A*5F
$GNVTG,144.81,T,,M,0.008,N,0.016,K,A*24
$GNGSA,A,3,02,03,04,17,19,21,25,26,28,31,32,,0.96,0.55,0.79,1*02
$GNGSA,A,3,,,,,,,,,,,,,0.96,0.55,0.79,2*03
$GNGSA,A,3,10,12,19,29,33,,,,,,,,0.96,0.55,0.79,3*03
$GNGSA,A,3,23,24,25,27,29,30,32,33,40,41,,,0.96,0.55,0.79,4*08
$GNGSA,A,3,,,,,,,,,,,,,0.96,0.55,0.79,5*04
$GPGSV,4,1,13,02,32,217,31,03,65,300,36,04,35,261,27,06,,,21,1*57
$GPGSV,4,2,13,17,04,290,20,19,06,313,23,21,22,202,27,25,12,038,23,1*6D
$GPGSV,4,3,13,26,18,127,25,28,47,060,35,31,66,124,36,32,14,075,26,1*64
$GPGSV,4,4,13,48,32,193,28,1*5A
$GPGSV,1,1,03,03,65,300,25,04,35,261,20,28,47,060,22,8*50
$GLGSV,1,1,00,1*78
$GAGSV,2,1,07,10,29,313,25,12,44,288,26,19,54,263,26,27,,,24,7*47
$GAGSV,2,2,07,29,75,055,33,30,,,23,33,39,208,30,7*7C
$GAGSV,1,1,04,10,29,313,16,12,44,288,17,29,75,055,24,33,39,208,20,1*77
$GBGSV,3,1,10,23,19,171,29,24,27,050,29,25,47,115,35,27,13,232,29,1*75
$GBGSV,3,2,10,29,07,333,27,30,20,281,28,32,39,290,34,33,27,099,33,1*7E
$GBGSV,3,3,10,40,04,299,20,41,78,065,37,1*7A
$GBGSV,1,1,04,24,27,050,13,25,47,115,22,32,39,290,18,41,78,065,23,5*72
$GQGSV,1,1,00,1*65
$GQGSV,1,1,00,8*6C
$GNGGA,193236.000,4910.426111,N,12304.401763,W,1,26,0.54,8.079,M,-16.816,M,,*44
$GNRMC,193236.000,A,4910.426111,N,12304.401763,W,0.015,144.81,101024,,,A,V*20
$GNGLL,4910.426111,N,12304.401763,W,193236.000,A,A*57
$GNVTG,144.81,T,,M,0.015,N,0.027,K,A*2A
$GNGSA,A,3,02,03,04,17,19,21,25,26,28,31,32,,0.92,0.54,0.74,1*0A
$GNGSA,A,3,,,,,,,,,,,,,0.92,0.54,0.74,2*0B
$GNGSA,A,3,10,12,19,29,33,,,,,,,,0.92,0.54,0.74,3*0B
$GNGSA,A,3,23,24,25,27,29,30,32,33,40,41,,,0.92,0.54,0.74,4*00
$GNGSA,A,3,,,,,,,,,,,,,0.92,0.54,0.74,5*0C
$GPGSV,4,1,13,02,32,217,31,03,65,300,35,04,35,261,25,06,,,21,1*56
$GPGSV,4,2,13,17,04,290,19,19,06,313,24,21,22,202,27,25,12,038,22,1*61
$GPGSV,4,3,13,26,18,127,25,28,47,060,35,31,66,124,35,32,14,075,25,1*64
$GPGSV,4,4,13,48,32,193,28,1*5A
$GPGSV,1,1,03,03,65,300,25,04,35,261,20,28,47,060,22,8*50
$GLGSV,1,1,00,1*78
$GAGSV,2,1,07,10,29,313,25,12,44,288,25,19,54,263,26,27,,,23,7*43
$GAGSV,2,2,07,29,75,055,32,30,,,24,33,39,208,28,7*73
$GAGSV,1,1,04,10,29,313,16,12,44,288,17,29,75,055,23,33,39,208,20,1*70
$GBGSV,3,1,10,23,19,171,28,24,27,050,29,25,47,115,35,27,13,232,27,1*7A
$GBGSV,3,2,10,29,07,333,28,30,20,281,28,32,39,290,34,33,27,099,31,1*73
$GBGSV,3,3,10,40,04,299,20,41,78,065,37,1*7A
$GBGSV,1,1,04,24,27,050,15,25,47,115,22,32,39,290,19,41,78,065,23,5*75
$GQGSV,1,1,00,1*65
$GQGSV,1,1,00,8*6C
$GNGGA,193237.000,4910.426111,N,12304.401765,W,1,26,0.56,8.078,M,-16.817,M,,*41
$GNRMC,193237.000,A,4910.426111,N,12304.401765,W,0.004,144.81,101024,,,A,V*27
$GNGLL,4910.426111,N,12304.401765,W,193237.000,A,A*50
$GNVTG,144.81,T,,M,0.004,N,0.007,K,A*28
$GNGSA,A,3,02,03,04,17,19,21,25,26,28,31,32,,1.01,0.56,0.84,1*0C
$GNGSA,A,3,,,,,,,,,,,,,1.01,0.56,0.84,2*0D
$GNGSA,A,3,10,12,19,29,33,,,,,,,,1.01,0.56,0.84,3*0D
$GNGSA,A,3,23,24,25,27,29,30,32,33,40,41,,,1.01,0.56,0.84,4*06
$GNGSA,A,3,,,,,,,,,,,,,1.01,0.56,0.84,5*0A
$GPGSV,4,1,13,02,32,217,30,03,65,300,35,04,35,261,26,06,,,20,1*55
$GPGSV,4,2,13,17,04,290,18,19,06,313,24,21,22,202,27,25,12,038,22,1*60
$GPGSV,4,3,13,26,18,127,25,28,47,060,35,31,66,124,35,32,14,075,25,1*64
$GPGSV,4,4,13,48,32,193,28,1*5A
$GPGSV,1,1,03,03,65,300,24,04,35,261,20,28,47,060,22,8*51
$GLGSV,1,1,00,1*78
$GAGSV,2,1,07,10,29,313,25,12,44,288,24,19,54,263,26,27,,,23,7*42
$GAGSV,2,2,07,29,75,055,33,30,,,22,33,39,208,29,7*75
$GAGSV,1,1,04,10,29,313,15,12,44,288,17,29,75,055,22,33,39,208,21,1*73
$GBGSV,3,1,10,23,19,171,28,24,27,050,30,25,47,115,35,27,13,232,27,1*72
$GBGSV,3,2,10,29,07,333,28,30,20,281,27,32,39,290,34,33,27,099,32,1*7F
$GBGSV,3,3,10,40,04,299,19,41,78,065,37,1*70
$GBGSV,1,1,04,24,27,050,13,25,47,115,21,32,39,290,19,41,78,065,22,5*71
$GQGSV,1,1,00,1*65
$GQGSV,1,1,00,8*6C
$GNGGA,193238.000,4910.426111,N,12304.401764,W,1,25,0.61,8.074,M,-16.816,M,,*45
$GNRMC,193238.000,A,4910.426111,N,12304.401764,W,0.009,144.81,101024,,,A,V*24
$GNGLL,4910.426111,N,12304.401764,W,193238.000,A,A*5E
$GNVTG,144.81,T,,M,0.009,N,0.017,K,A*24
$GNGSA,A,3,02,03,04,17,19,21,25,26,28,31,32,,1.06,0.61,0.87,1*0C
$GNGSA,A,3,,,,,,,,,,,,,1.06,0.61,0.87,2*0D
$GNGSA,A,3,10,12,19,29,33,,,,,,,,1.06,0.61,0.87,3*0D
$GNGSA,A,3,23,25,27,29,30,32,33,40,41,,,,1.06,0.61,0.87,4*00
$GNGSA,A,3,,,,,,,,,,,,,1.06,0.61,0.87,5*0A
$GPGSV,4,1,13,02,32,217,30,03,65,300,35,04,35,261,26,06,,,21,1*54
$GPGSV,4,2,13,17,04,290,18,19,06,313,24,21,22,202,26,25,12,038,22,1*61
$GPGSV,4,3,13,26,18,127,24,28,47,060,34,31,66,124,34,32,14,075,24,1*64
$GPGSV,4,4,13,48,32,193,28,1*5A
$GPGSV,1,1,03,03,65,300,25,04,35,261,20,28,47,060,22,8*50
$GLGSV,1,1,00,1*78
$GAGSV,2,1,07,10,29,313,25,12,44,288,24,19,54,263,25,27,,,21,7*43
$GAGSV,2,2,07,29,75,055,33,30,,,24,33,39,208,29,7*73
$GAGSV,1,1,04,10,29,313,17,12,44,288,18,29,75,055,21,33,39,208,21,1*7D
$GBGSV,3,1,09,23,19,171,28,25,47,115,34,27,13,232,28,29,07,333,26,1*7A
$GBGSV,3,2,09,30,20,281,28,32,39,290,34,33,27,099,32,40,04,299,19,1*77
$GBGSV,3,3,09,41,78,065,36,1*43
$GBGSV,1,1,03,25,47,115,24,32,39,290,19,41,78,065,22,5*47
$GQGSV,1,1,00,1*65
$GQGSV,1,1,00,8*6C
$GNGGA,193239.000,4910.426112,N,12304.401759,W,1,25,0.61,8.072,M,-16.816,M,,*4F
$GNRMC,193239.000,A,4910.426112,N,12304.401759,W,0.023,144.81,101024,,,A,V*20
$GNGLL,4910.426112,N,12304.401759,W,193239.000,A,A*52
$GNVTG,144.81,T,,M,0.023,N,0.043,K,A*2D
$GNGSA,A,3,02,03,04,17,19,21,25,26,28,31,32,,1.06,0.61,0.87,1*0C
$GNGSA,A,3,,,,,,,,,,,,,1.06,0.61,0.87,2*0D
$GNGSA,A,3,10,12,19,29,33,,,,,,,,1.06,0.61,0.87,3*0D
$GNGSA,A,3,23,25,27,29,30,32,33,40,41,,,,1.06,0.61,0.87,4*00
$GNGSA,A,3,,,,,,,,,,,,,1.06,0.61,0.87,5*0A
$GPGSV,4,1,13,02,32,217,31,03,65,300,36,04,35,261,26,06,,,21,1*56
$GPGSV,4,2,13,17,04,290,20,19,06,313,25,21,22,202,28,25,12,038,23,1*64
$GPGSV,4,3,13,26,18,127,24,28,47,060,35,31,66,124,35,32,14,075,25,1*65
$GPGSV,4,4,13,48,32,193,28,1*5A
$GPGSV,1,1,03,03,65,300,26,04,35,261,20,28,47,060,22,8*53
$GLGSV,1,1,00,1*78
$GAGSV,2,1,07,10,29,313,25,12,44,288,23,19,54,263,26,27,,,23,7*45
$GAGSV,2,2,07,29,75,055,33,30,,,23,33,39,208,29,7*74
$GAGSV,1,1,04,10,29,313,16,12,44,288,18,29,75,055,22,33,39,208,19,1*74
$GBGSV,3,1,09,23,19,171,29,25,47,115,35,27,13,232,29,29,07,333,26,1*7B
$GBGSV,3,2,09,30,20,281,29,32,39,290,34,33,27,099,32,40,04,299,19,1*76
$GBGSV,3,3,09,41,78,065,37,1*42
$GBGSV,1,1,03,25,47,115,23,32,39,290,19,41,78,065,23,5*41
$GQGSV,1,1,00,1*65
$GQGSV,1,1,00,8*6C
$GNGGA,193240.000,4910.426114,N,12304.401753,W,1,26,0.51,8.070,M,-16.816,M,,*4F
$GNRMC,193240.000,A,4910.426114,N,12304.401753,W,0.014,144.81,101024,,,A,V*26
$GNGLL,4910.426114,N,12304.401753,W,193240.000,A,A*50
$GNVTG,144.81,T,,M,0.014,N,0.025,K,A*29
$GNGSA,A,3,02,03,04,17,19,21,25,26,28,31,32,,0.88,0.51,0.71,1*01
$GNGSA,A,3,,,,,,,,,,,,,0.88,0.51,0.71,2*00
$GNGSA,A,3,10,12,19,29,33,,,,,,,,0.88,0.51,0.71,3*00
$GNGSA,A,3,23,24,25,27,29,30,32,33,40,41,,,0.88,0.51,0.71,4*0B
$GNGSA,A,3,,,,,,,,,,,,,0.88,0.51,0.71,5*07
$GPGSV,4,1,13,02,32,217,30,03,65,300,35,04,35,261,27,06,,,22,1*56
$GPGSV,4,2,13,17,04,290,19,19,06,313,24,21,22,202,27,25,12,038,22,1*61
$GPGSV,4,3,13,26,18,127,24,28,47,060,35,31,66,124,35,32,14,075,25,1*65
$GPGSV,4,4,13,48,32,193,28,1*5A
$GPGSV,1,1,03,03,65,300,25,04,35,261,21,28,47,060,23,8*50
$GLGSV,1,1,00,1*78
$GAGSV,2,1,07,10,29,313,25,12,44,288,24,19,54,263,26,27,,,24,7*45
$GAGSV,2,2,07,29,75,055,34,30,,,24,33,39,208,28,7*75
$GAGSV,1,1,04,10,29,313,17,12,44,288,17,29,75,055,23,33,39,208,20,1*71
$GBGSV,3,1,10,23,19,171,27,24,27,050,30,25,47,115,34,27,13,232,28,1*73
$GBGSV,3,2,10,29,07,333,27,30,20,281,28,32,39,290,35,33,27,099,31,1*7D
$GBGSV,3,3,10,40,04,299,20,41,78,065,36,1*7B
$GBGSV,1,1,03,25,47,115,23,32,39,290,20,41,78,065,23,5*4B
$GQGSV,1,1,00,1*65
$GQGSV,1,1,00,8*6C
$GNGGA,193241.000,4910.426114,N,12304.401751,W,1,26,0.49,8.068,M,-16.816,M,,*4C
$GNRMC,193241.000,A,4910.426114,N,12304.401751,W,0.007,144.81,101024,,,A,V*27
$GNGLL,4910.426114,N,12304.401751,W,193241.000,A,A*53
$GNVTG,144.81,T,,M,0.007,N,0.013,K,A*2E
$GNGSA,A,3,02,03,04,17,19,21,25,26,28,31,32,,0.84,0.49,0.69,1*0D
$GNGSA,A,3,,,,,,,,,,,,,0.84,0.49,0.69,2*0C
$GNGSA,A,3,10,12,19,29,33,,,,,,,,0.84,0.49,0.69,3*0C
$GNGSA,A,3,23,24,25,27,29,30,32,33,40,41,,,0.84,0.49,0.69,4*07
