$GNGGA,193157.000,4910.427436,N,12304.405614,W,2,30,0.46,4.106,M,-16.816,M,,*46
$GNGLL,4910.427436,N,12304.405614,W,193157.000,A,D*52
$GNGSA,A,3,31,03,28,04,02,21,26,32,25,19,06,17,0.81,0.46,0.67,1*0F
$GNGSA,A,3,66,76,,,,,,,,,,,0.81,0.46,0.67,2*09
$GNGSA,A,3,29,19,33,10,07,27,26,,,,,,0.81,0.46,0.67,3*0D
$GNGSA,A,3,41,25,32,33,24,30,23,27,40,,,,0.81,0.46,0.67,4*08
$GPGSV,4,1,14,31,66,126,33,03,65,301,32,28,47,061,27,04,34,261,22,1*6D
$GPGSV,4,2,14,02,33,218,26,46,33,188,28,21,23,203,22,26,18,128,17,1*60
$GPGSV,4,3,14,32,15,076,16,25,13,039,21,19,07,314,23,06,06,332,18,1*6A
$GPGSV,4,4,14,17,05,291,18,09,04,261,,1*69
$GLGSV,2,1,06,67,61,318,,66,48,068,24,76,44,078,25,83,37,302,,1*72
$GLGSV,2,2,06,82,33,248,,68,16,284,,1*7D
$GAGSV,3,1,10,29,76,054,29,19,54,263,22,12,45,289,17,33,41,209,25,7*70
$GAGSV,3,2,10,10,30,314,23,07,21,072,17,30,19,056,20,27,18,108,21,7*7D
$GAGSV,3,3,10,11,09,331,13,26,05,175,15,7*7E
$GBGSV,3,1,11,41,79,062,31,25,47,117,28,32,39,290,29,33,29,099,23,1*71
$GBGSV,3,2,11,24,28,051,24,30,21,282,21,23,19,172,25,27,14,233,21,1*79
$GBGSV,3,3,11,31,09,337,,29,08,334,17,40,05,300,16,1*4E
$GNRMC,193157.000,A,4910.427436,N,12304.405614,W,0.10,330.27,101024,,,D,V*1D
$GNVTG,330.27,T,,M,0.10,N,0.19,K,D*2A
$GNGGA,193158.000,4910.427454,N,12304.405662,W,2,30,0.46,4.236,M,-16.817,M,,*4D
$GNGLL,4910.427454,N,12304.405662,W,193158.000,A,D*58
$GNGSA,A,3,31,03,28,04,02,21,26,32,25,19,06,17,0.81,0.46,0.67,1*0F
$GNGSA,A,3,66,76,,,,,,,,,,,0.81,0.46,0.67,2*09
$GNGSA,A,3,29,19,33,10,07,27,26,,,,,,0.81,0.46,0.67,3*0D
$GNGSA,A,3,41,25,32,33,24,30,23,27,40,,,,0.81,0.46,0.67,4*08
$GPGSV,4,1,14,31,66,126,33,03,65,301,32,28,47,061,27,04,34,261,22,1*6D
$GPGSV,4,2,14,02,33,218,28,46,33,188,28,21,23,203,22,26,18,128,17,1*6E
$GPGSV,4,3,14,32,15,076,17,25,13,039,21,19,07,314,22,06,06,332,18,1*6A
$GPGSV,4,4,14,17,05,291,18,09,04,261,,1*69
$GLGSV,1,1,03,66,48,068,24,76,44,078,25,77,32,139,,1*4C
$GAGSV,3,1,10,29,76,054,29,19,54,263,23,12,45,289,17,33,41,209,25,7*71
$GAGSV,3,2,10,10,30,314,23,07,21,072,17,30,19,056,19,27,18,108,21,7*77
$GAGSV,3,3,10,11,09,331,14,26,05,175,15,7*79
$GBGSV,3,1,11,41,79,062,30,25,47,117,28,32,39,290,28,33,29,099,23,1*71
$GBGSV,3,2,11,24,28,051,24,30,21,282,20,23,19,172,24,27,14,233,21,1*79
$GBGSV,3,3,11,31,09,337,,29,08,334,16,40,05,300,16,1*4F
$GNRMC,193158.000,A,4910.427454,N,12304.405662,W,0.12,330.27,101024,,,D,V*15
$GNVTG,330.27,T,,M,0.12,N,0.22,K,D*20
$GNGGA,193159.000,4910.427478,N,12304.405800,W,2,30,0.46,4.299,M,-16.816,M,,*4C
$GNGLL,4910.427478,N,12304.405800,W,193159.000,A,D*5D
$GNGSA,A,3,31,03,28,04,02,21,26,32,25,19,06,17,0.81,0.46,0.67,1*0F
$GNGSA,A,3,66,76,,,,,,,,,,,0.81,0.46,0.67,2*09
$GNGSA,A,3,29,19,33,10,07,27,26,,,,,,0.81,0.46,0.67,3*0D
$GNGSA,A,3,41,25,32,33,24,30,23,27,40,,,,0.81,0.46,0.67,4*08
$GPGSV,4,1,14,31,66,126,33,03,65,301,32,28,47,061,27,04,34,261,22,1*6D
$GPGSV,4,2,14,46,33,188,28,02,33,218,27,21,23,203,24,26,18,128,17,1*67
$GPGSV,4,3,14,32,15,076,17,25,13,039,21,19,07,314,21,06,06,332,18,1*69
$GPGSV,4,4,14,17,05,291,18,09,04,261,,1*69
$GLGSV,2,1,07,67,61,318,,66,48,068,24,76,44,078,25,83,37,302,,1*73
$GLGSV,2,2,07,82,33,248,,77,32,139,,68,16,284,,1*46
$GAGSV,3,1,10,29,76,054,28,19,54,263,23,12,45,289,17,33,41,209,25,7*70
$GAGSV,3,2,10,10,30,314,23,07,21,072,17,30,19,056,19,27,18,108,21,7*77
$GAGSV,3,3,10,11,09,331,14,26,05,175,15,7*79
$GBGSV,3,1,11,41,79,062,30,25,47,117,28,32,39,290,28,33,29,099,24,1*76
$GBGSV,3,2,11,24,28,051,24,30,21,282,20,23,19,172,24,27,14,233,21,1*79
$GBGSV,3,3,11,31,09,337,,29,08,334,16,40,05,300,16,1*4F
$GNRMC,193159.000,A,4910.427478,N,12304.405800,W,0.11,330.27,101024,,,D,V*13
$GNVTG,330.27,T,,M,0.11,N,0.20,K,D*21
$GNGGA,193200.000,4910.427442,N,12304.405980,W,2,30,0.46,4.421,M,-16.817,M,,*47
$GNGLL,4910.427442,N,12304.405980,W,193200.000,A,D*52
$GNGSA,A,3,31,03,28,04,02,21,26,32,25,19,06,17,0.81,0.46,0.67,1*0F
$GNGSA,A,3,66,76,,,,,,,,,,,0.81,0.46,0.67,2*09
$GNGSA,A,3,29,19,33,10,07,27,26,,,,,,0.81,0.46,0.67,3*0D
$GNGSA,A,3,41,25,32,33,24,30,23,27,40,,,,0.81,0.46,0.67,4*08
$GPGSV,4,1,14,31,66,126,33,03,65,301,32,28,47,061,27,04,34,261,22,1*6D
$GPGSV,4,2,14,46,33,188,28,02,33,218,27,21,23,203,22,26,18,128,17,1*61
$GPGSV,4,3,14,32,15,076,17,25,13,039,20,19,07,314,22,06,06,332,18,1*6B
$GPGSV,4,4,14,17,05,291,18,09,04,261,,1*69
$GLGSV,2,1,07,67,61,318,,66,48,068,24,76,44,078,25,83,37,302,,1*73
$GLGSV,2,2,07,82,33,248,,77,32,139,,68,16,284,,1*46
$GAGSV,3,1,10,29,76,054,28,19,54,263,22,12,45,289,17,33,41,209,25,7*71
$GAGSV,3,2,10,10,30,314,23,07,21,072,16,30,19,056,19,27,18,108,20,7*77
$GAGSV,3,3,10,11,09,331,14,26,05,175,16,7*7A
$GBGSV,3,1,11,41,79,062,30,25,47,117,28,32,39,290,28,33,29,099,25,1*77
$GBGSV,3,2,11,24,28,051,25,30,21,282,20,23,19,172,24,27,14,233,21,1*78
$GBGSV,3,3,11,31,09,337,,29,08,334,16,40,05,300,16,1*4F
$GNRMC,193200.000,A,4910.427442,N,12304.405980,W,0.09,330.27,101024,,,D,V*15
$GNVTG,330.27,T,,M,0.09,N,0.16,K,D*2D
$GNGGA,193201.000,4910.427460,N,12304.406250,W,2,30,0.46,4.591,M,-16.816,M,,*48
$GNGLL,4910.427460,N,12304.406250,W,193201.000,A,D*56
$GNGSA,A,3,31,03,28,04,02,21,26,32,25,19,06,17,0.81,0.46,0.67,1*0F
$GNGSA,A,3,66,76,,,,,,,,,,,0.81,0.46,0.67,2*09
$GNGSA,A,3,29,19,33,10,07,27,26,,,,,,0.81,0.46,0.67,3*0D
$GNGSA,A,3,41,25,32,33,24,30,23,27,40,,,,0.81,0.46,0.67,4*08
$GPGSV,4,1,14,31,66,126,33,03,65,301,32,28,47,061,27,04,34,261,23,1*6C
$GPGSV,4,2,14,02,33,218,28,46,33,188,28,21,23,203,23,26,18,128,17,1*6F
$GPGSV,4,3,14,32,15,076,18,25,13,039,20,19,07,314,22,06,06,332,18,1*64
$GPGSV,4,4,14,17,05,291,19,09,04,261,,1*68
$GLGSV,1,1,03,66,48,068,24,76,44,078,25,82,33,248,,1*42
$GAGSV,3,1,10,29,76,054,29,19,54,263,22,12,45,289,17,33,41,209,25,7*70
$GAGSV,3,2,10,10,30,314,23,07,21,072,16,30,19,056,19,27,18,108,20,7*77
$GAGSV,3,3,10,11,09,331,14,26,05,175,15,7*79
$GBGSV,3,1,11,41,79,062,30,25,47,117,28,32,39,290,28,33,29,099,25,1*77
$GBGSV,3,2,11,24,28,051,26,30,21,282,20,23,19,172,24,27,14,233,21,1*7B
$GBGSV,3,3,11,31,09,337,,29,08,334,16,40,05,300,16,1*4F
$GNRMC,193201.000,A,4910.427460,N,12304.406250,W,0.05,330.27,101024,,,D,V*1D
$GNVTG,330.27,T,,M,0.05,N,0.09,K,D*2F
$GNGGA,193202.000,4910.427442,N,12304.405980,W,2,30,0.46,4.421,M,-16.817,M,,*45
$GNGLL,4910.427442,N,12304.405980,W,193202.000,A,D*50
$GNGSA,A,3,31,03,28,04,02,21,26,32,25,19,06,17,0.81,0.46,0.67,1*0F
$GNGSA,A,3,66,76,,,,,,,,,,,0.81,0.46,0.67,2*09
$GNGSA,A,3,29,19,33,10,07,27,26,,,,,,0.81,0.46,0.67,3*0D
$GNGSA,A,3,41,25,32,33,24,30,23,27,40,,,,0.81,0.46,0.67,4*08
$GPGSV,4,1,14,31,66,126,33,03,65,301,32,28,47,061,27,04,34,261,23,1*6C
$GPGSV,4,2,14,46,33,188,28,02,33,218,28,21,23,203,23,26,18,128,17,1*6F
$GPGSV,4,3,14,32,15,076,18,25,13,039,20,19,07,314,22,06,06,332,18,1*64
$GPGSV,4,4,14,17,05,291,19,09,04,261,,1*68
$GLGSV,2,1,07,67,61,318,,66,48,068,24,76,44,078,25,83,37,302,,1*73
$GLGSV,2,2,07,82,33,248,,77,32,139,,68,16,284,,1*46
$GAGSV,3,1,10,29,76,054,29,19,54,263,23,12,45,289,17,33,41,209,25,7*71
$GAGSV,3,2,10,10,30,314,23,07,21,072,16,30,19,056,19,27,18,108,20,7*77
$GAGSV,3,3,10,11,09,331,14,26,04,175,15,7*78
$GBGSV,3,1,11,41,79,062,30,25,47,117,28,32,39,290,28,33,29,099,25,1*77
$GBGSV,3,2,11,24,28,051,25,30,21,282,20,23,19,172,25,27,14,233,21,1*79
$GBGSV,3,3,11,31,09,337,,29,08,334,17,40,05,300,16,1*4E
$GNRMC,193202.000,A,4910.427442,N,12304.405980,W,0.12,330.27,101024,,,D,V*1D
$GNVTG,330.27,T,,M,0.12,N,0.23,K,D*21
$GNGGA,193203.000,4910.427460,N,12304.406238,W,2,29,0.48,4.586,M,-16.816,M,,*44
$GNGLL,4910.427460,N,12304.406238,W,193203.000,A,D*5A
$GNGSA,A,3,31,03,28,04,02,21,26,32,25,19,06,17,0.86,0.48,0.71,1*01
$GNGSA,A,3,66,76,,,,,,,,,,,0.86,0.48,0.71,2*07
$GNGSA,A,3,29,19,33,10,07,27,,,,,,,0.86,0.48,0.71,3*07
$GNGSA,A,3,41,25,32,33,24,30,23,27,40,,,,0.86,0.48,0.71,4*06
$GPGSV,4,1,14,31,66,126,32,03,65,301,31,28,47,061,26,04,34,261,23,1*6F
$GPGSV,4,2,14,46,33,188,27,02,33,218,27,21,23,203,23,26,18,128,17,1*6F
$GPGSV,4,3,14,32,15,076,18,25,13,039,20,19,07,314,21,06,06,332,18,1*67
$GPGSV,4,4,14,17,05,291,19,09,04,261,,1*68
$GLGSV,2,1,07,67,61,318,,66,48,068,24,76,44,078,25,83,37,302,,1*73
$GLGSV,2,2,07,82,33,248,,77,32,139,,68,16,284,,1*46
$GAGSV,3,1,10,29,76,054,29,19,54,263,22,12,45,289,17,33,41,209,24,7*71
$GAGSV,3,2,10,10,30,314,23,07,21,072,16,30,19,056,19,27,19,107,20,7*79
$GAGSV,3,3,10,11,09,331,14,26,04,175,15,7*78
$GBGSV,3,1,11,41,79,062,30,25,47,117,28,32,39,290,28,33,29,099,24,1*76
$GBGSV,3,2,11,24,28,051,24,30,21,282,20,23,19,172,24,27,14,233,21,1*79
$GBGSV,3,3,11,31,09,337,,29,08,334,17,40,05,300,16,1*4E
$GNRMC,193203.000,A,4910.427460,N,12304.406238,W,0.13,330.27,101024,,,D,V*16
$GNVTG,330.27,T,,M,0.13,N,0.25,K,D*26
$GNGGA,193204.000,4910.427454,N,12304.406178,W,2,29,0.48,4.582,M,-16.817,M,,*46
$GNGLL,4910.427454,N,12304.406178,W,193204.000,A,D*5D
$GNGSA,A,3,31,03,28,04,02,21,26,32,25,19,06,17,0.86,0.48,0.71,1*01
$GNGSA,A,3,66,76,,,,,,,,,,,0.86,0.48,0.71,2*07
$GNGSA,A,3,29,19,33,10,07,27,,,,,,,0.86,0.48,0.71,3*07
$GNGSA,A,3,41,25,32,33,24,30,23,27,40,,,,0.86,0.48,0.71,4*06
$GPGSV,4,1,14,31,66,126,33,03,65,301,32,28,47,061,27,04,34,261,24,1*6B
$GPGSV,4,2,14,02,33,218,27,46,33,188,27,21,23,203,23,26,18,128,17,1*6F
$GPGSV,4,3,14,32,15,076,21,25,13,039,20,19,07,314,24,06,06,332,18,1*68
$GPGSV,4,4,14,17,05,291,19,09,04,261,,1*68
$GLGSV,2,1,06,66,48,068,24,76,44,078,25,83,37,302,,82,33,248,,1*7A
$GLGSV,2,2,06,77,32,139,,68,16,284,,1*73
$GAGSV,3,1,10,29,76,054,29,19,54,263,22,12,45,289,17,33,41,209,24,7*71
$GAGSV,3,2,10,10,30,314,23,07,21,072,17,30,19,056,19,27,19,107,20,7*78
$GAGSV,3,3,10,11,09,331,14,26,04,175,14,7*79
$GBGSV,3,1,11,41,79,062,30,25,47,117,28,32,39,290,28,33,29,099,25,1*77
$GBGSV,3,2,11,24,28,051,25,30,21,282,21,23,19,172,25,27,14,233,21,1*78
$GBGSV,3,3,11,31,09,337,,29,08,334,17,40,05,300,16,1*4E
$GNRMC,193204.000,A,4910.427454,N,12304.406178,W,0.13,330.27,101024,,,D,V*11
$GNVTG,330.27,T,,M,0.13,N,0.24,K,D*27
$GNGGA,193205.000,4910.427412,N,12304.406208,W,2,29,0.48,4.557,M,-16.816,M,,*48
$GNGLL,4910.427412,N,12304.406208,W,193205.000,A,D*5A
$GNGSA,A,3,31,03,28,04,02,21,26,32,25,19,06,17,0.86,0.48,0.71,1*01
$GNGSA,A,3,66,76,,,,,,,,,,,0.86,0.48,0.71,2*07
$GNGSA,A,3,29,19,33,10,07,27,,,,,,,0.86,0.48,0.71,3*07
$GNGSA,A,3,41,25,32,33,24,30,23,27,40,,,,0.86,0.48,0.71,4*06
$GPGSV,4,1,14,31,66,126,34,03,65,301,33,28,47,061,28,04,34,261,25,1*63
$GPGSV,4,2,14,46,33,188,27,02,33,218,27,21,23,203,24,26,18,128,18,1*67
$GPGSV,4,3,14,32,15,076,22,25,13,039,20,19,07,314,24,06,06,332,18,1*6B
$GPGSV,4,4,14,17,05,291,20,09,04,261,,1*62
$GLGSV,1,1,04,67,61,318,,66,48,068,24,76,44,078,26,82,33,248,,1*7A
$GAGSV,3,1,10,29,75,055,30,19,54,263,23,12,45,289,17,33,41,209,25,7*7B
$GAGSV,3,2,10,10,30,314,23,07,21,072,17,27,19,107,20,30,19,056,19,7*78
$GAGSV,3,3,10,11,09,331,14,26,04,175,14,7*79
$GBGSV,3,1,11,41,79,062,30,25,47,117,29,32,39,290,28,33,29,099,25,1*76
$GBGSV,3,2,11,24,28,051,25,30,21,282,21,23,19,172,26,27,14,233,21,1*7B
$GBGSV,3,3,11,31,09,337,,29,08,334,17,40,05,300,16,1*4E
$GNRMC,193205.000,A,4910.427412,N,12304.406208,W,0.16,330.27,101024,,,D,V*13
$GNVTG,330.27,T,,M,0.16,N,0.30,K,D*27
$GNGGA,193206.000,4910.427412,N,12304.406208,W,2,29,0.48,4.537,M,-16.817,M,,*4C
$GNGLL,4910.427412,N,12304.406208,W,193206.000,A,D*59
$GNGSA,A,3,31,03,28,04,02,21,26,32,25,19,06,17,0.86,0.48,0.71,1*01
$GNGSA,A,3,66,76,,,,,,,,,,,0.86,0.48,0.71,2*07
$GNGSA,A,3,29,19,33,10,07,27,,,,,,,0.86,0.48,0.71,3*07
$GNGSA,A,3,41,25,32,33,24,30,23,27,40,,,,0.86,0.48,0.71,4*06
$GPGSV,4,1,14,31,66,126,34,03,65,301,33,28,47,061,28,04,34,261,25,1*63
$GPGSV,4,2,14,46,33,188,27,02,33,218,27,21,23,203,23,26,18,128,18,1*60
$GPGSV,4,3,14,32,15,076,19,25,13,039,21,19,07,314,22,06,06,332,18,1*64
$GPGSV,4,4,14,17,05,291,20,09,04,261,,1*62
$GLGSV,2,1,07,67,61,318,,66,48,068,24,76,44,078,26,83,37,302,,1*70
$GLGSV,2,2,07,82,33,248,,77,32,139,,68,16,284,,1*46
$GAGSV,3,1,10,29,75,055,30,19,54,263,23,12,45,289,16,33,41,209,25,7*7A
$GAGSV,3,2,10,10,30,314,23,07,21,072,17,30,19,055,19,27,19,107,20,7*7B
$GAGSV,3,3,10,11,09,331,14,26,04,175,14,7*79
$GBGSV,3,1,11,41,79,062,30,25,47,117,29,32,39,290,28,33,29,099,28,1*7B
$GBGSV,3,2,11,24,28,051,26,30,21,282,21,23,19,172,25,27,14,233,21,1*7B
$GBGSV,3,3,11,31,09,337,,29,08,334,17,40,05,300,16,1*4E
$GNRMC,193206.000,A,4910.427412,N,12304.406208,W,0.17,330.27,101024,,,D,V*11
$GNVTG,330.27,T,,M,0.17,N,0.31,K,D*27
$GNGGA,193207.000,4910.427424,N,12304.406232,W,2,29,0.48,4.593,M,-16.816,M,,*4E
$GNGLL,4910.427424,N,12304.406232,W,193207.000,A,D*54
$GNGSA,A,3,31,03,28,04,02,21,26,32,25,19,06,17,0.86,0.48,0.71,1*01
$GNGSA,A,3,66,76,,,,,,,,,,,0.86,0.48,0.71,2*07
$GNGSA,A,3,29,19,33,10,07,27,,,,,,,0.86,0.48,0.71,3*07
$GNGSA,A,3,41,25,32,33,24,30,23,27,40,,,,0.86,0.48,0.71,4*06
$GPGSV,4,1,14,31,66,126,34,03,65,301,33,28,47,061,29,04,34,261,25,1*62
$GPGSV,4,2,14,46,33,188,27,02,33,218,27,21,23,203,25,26,18,128,18,1*66
$GPGSV,4,3,14,32,15,076,19,25,13,039,20,19,07,314,23,06,06,332,18,1*64
$GPGSV,4,4,14,17,05,291,20,09,04,261,,1*62
$GLGSV,2,1,07,67,61,318,,66,48,068,24,76,44,078,26,83,37,302,,1*70
$GLGSV,2,2,07,82,33,248,,77,32,139,,68,16,284,,1*46
$GAGSV,3,1,10,29,75,055,31,19,54,263,23,12,45,289,16,33,41,209,26,7*78
$GAGSV,3,2,10,10,30,314,24,07,21,072,17,30,19,055,19,27,19,107,20,7*7C
$GAGSV,3,3,10,11,09,331,14,26,04,175,14,7*79
$GBGSV,3,1,11,41,79,062,30,25,47,117,29,32,39,290,28,33,29,099,24,1*77
$GBGSV,3,2,11,24,28,051,25,30,21,282,21,23,19,172,25,27,14,233,22,1*7B
$GBGSV,3,3,11,31,09,337,,29,08,334,17,40,05,300,16,1*4E
$GNRMC,193207.000,A,4910.427424,N,12304.406232,W,0.16,330.27,101024,,,D,V*1D
$GNVTG,330.27,T,,M,0.16,N,0.30,K,D*27
$GNGGA,193208.000,4910.427334,N,12304.406232,W,2,29,0.48,4.543,M,-16.816,M,,*4A
$GNGLL,4910.427334,N,12304.406232,W,193208.000,A,D*5D
$GNGSA,A,3,31,03,28,04,02,21,26,32,25,19,06,17,0.86,0.48,0.71,1*01
$GNGSA,A,3,66,76,,,,,,,,,,,0.86,0.48,0.71,2*07
$GNGSA,A,3,29,19,33,10,07,27,,,,,,,0.86,0.48,0.71,3*07
$GNGSA,A,3,41,25,32,33,24,30,23,27,40,,,,0.86,0.48,0.71,4*06
$GPGSV,4,1,14,31,66,126,34,03,65,301,33,28,47,061,29,04,34,261,25,1*62
$GPGSV,4,2,14,46,33,188,27,02,33,218,27,21,23,203,24,26,18,128,19,1*66
$GPGSV,4,3,14,32,15,076,20,25,13,039,21,19,07,314,22,06,06,332,18,1*6E
$GPGSV,4,4,14,17,05,291,20,09,04,261,,1*62
$GLGSV,2,1,07,67,61,318,,66,48,068,24,76,44,078,27,83,37,302,,1*71
$GLGSV,2,2,07,82,33,248,,77,32,139,,68,16,284,,1*46
$GAGSV,3,1,10,29,75,055,31,19,54,263,23,12,45,289,16,33,41,209,26,7*78
$GAGSV,3,2,10,10,30,314,24,07,21,072,17,30,19,055,19,27,19,107,20,7*7C
$GAGSV,3,3,10,11,09,331,14,26,04,175,14,7*79
$GBGSV,3,1,11,41,79,062,30,25,47,117,29,32,39,290,28,33,29,099,25,1*76
$GBGSV,3,2,11,24,28,051,25,30,21,282,22,23,19,172,24,27,14,233,22,1*79
$GBGSV,3,3,11,31,09,337,,29,08,334,17,40,05,300,16,1*4E
$GNRMC,193208.000,A,4910.427334,N,12304.406232,W,0.18,330.27,101024,,,D,V*1A
$GNVTG,330.27,T,,M,0.18,N,0.33,K,D*2A
$GNGGA,193209.000,4910.427352,N,12304.406268,W,2,29,0.48,4.533,M,-16.816,M,,*43
$GNGLL,4910.427352,N,12304.406268,W,193209.000,A,D*53
$GNGSA,A,3,31,03,28,04,02,21,26,32,25,19,06,17,0.86,0.48,0.71,1*01
$GNGSA,A,3,66,76,,,,,,,,,,,0.86,0.48,0.71,2*07
$GNGSA,A,3,29,19,33,10,07,27,,,,,,,0.86,0.48,0.71,3*07
$GNGSA,A,3,41,25,32,33,24,30,23,27,40,,,,0.86,0.48,0.71,4*06
$GPGSV,4,1,14,31,66,126,34,03,65,301,33,28,47,061,29,04,34,261,23,1*64
$GPGSV,4,2,14,46,33,188,27,02,33,218,27,21,23,203,24,26,18,128,19,1*66
$GPGSV,4,3,14,32,15,076,21,25,13,039,20,19,07,314,23,06,06,332,18,1*6F
$GPGSV,4,4,14,17,05,291,20,09,04,261,,1*62
$GLGSV,2,1,07,67,61,318,,66,48,068,25,76,44,078,27,83,37,302,,1*70
$GLGSV,2,2,07,82,33,248,,77,32,139,,68,16,284,,1*46
$GAGSV,3,1,10,29,75,055,31,19,54,263,23,12,45,289,16,33,39,209,25,7*74
$GAGSV,3,2,10,10,30,314,24,07,21,072,17,30,19,055,19,27,19,107,20,7*7C
$GAGSV,3,3,10,11,09,331,14,26,04,175,14,7*79
$GBGSV,3,1,11,41,79,062,30,25,47,117,29,32,39,290,28,33,29,099,25,1*76
$GBGSV,3,2,11,24,28,051,25,30,21,282,22,23,19,172,24,27,14,233,22,1*79
$GBGSV,3,3,11,31,09,337,,29,08,334,17,40,05,300,16,1*4E
$GNRMC,193209.000,A,4910.427352,N,12304.406268,W,0.19,330.27,101024,,,D,V*15
$GNVTG,330.27,T,,M,0.19,N,0.35,K,D*2D
$GNGGA,193210.000,4910.427298,N,12304.406340,W,2,29,0.48,4.465,M,-16.816,M,,*45
$GNGLL,4910.427298,N,12304.406340,W,193210.000,A,D*57
$GNGSA,A,3,31,03,28,04,02,21,26,32,25,19,06,17,0.86,0.48,0.71,1*01
$GNGSA,A,3,66,76,,,,,,,,,,,0.86,0.48,0.71,2*07
$GNGSA,A,3,29,19,33,10,07,27,,,,,,,0.86,0.48,0.71,3*07
$GNGSA,A,3,41,25,32,33,24,30,23,27,40,,,,0.86,0.48,0.71,4*06
$GPGSV,4,1,14,31,66,126,33,03,65,301,33,28,47,061,29,04,34,261,23,1*63
$GPGSV,4,2,14,46,33,188,27,02,33,218,26,21,23,203,22,26,18,128,19,1*61
$GPGSV,4,3,14,32,15,076,20,25,13,039,19,19,07,314,22,06,06,332,18,1*65
$GPGSV,4,4,14,17,05,291,20,09,04,261,,1*62
$GLGSV,1,1,04,66,48,068,26,76,44,078,27,82,33,248,,77,32,139,,1*7F
$GAGSV,3,1,10,29,75,055,30,19,54,263,23,12,45,289,16,33,39,209,25,7*75
$GAGSV,3,2,10,10,30,314,24,07,21,072,16,27,19,107,20,30,19,055,18,7*7C
$GAGSV,3,3,10,11,09,331,14,26,04,175,14,7*79
$GBGSV,3,1,11,41,79,062,30,25,47,117,29,32,39,290,28,33,29,099,25,1*76
$GBGSV,3,2,11,24,28,051,25,30,21,282,22,23,19,172,25,27,14,233,21,1*7B
$GBGSV,3,3,11,31,09,337,,29,08,334,17,40,05,300,16,1*4E
$GNRMC,193210.000,A,4910.427298,N,12304.406340,W,0.20,178.93,101024,,,D,V*1A
$GNVTG,178.93,T,,M,0.20,N,0.36,K,D*25
$GNGGA,193211.000,4910.427202,N,12304.406400,W,2,29,0.48,4.371,M,-16.816,M,,*46
$GNGLL,4910.427202,N,12304.406400,W,193211.000,A,D*56
$GNGSA,A,3,31,03,28,04,02,21,26,32,25,19,06,17,0.86,0.48,0.71,1*01
$GNGSA,A,3,66,76,,,,,,,,,,,0.86,0.48,0.71,2*07
$GNGSA,A,3,29,19,33,10,07,27,,,,,,,0.86,0.48,0.71,3*07
$GNGSA,A,3,41,25,32,33,24,30,23,27,40,,,,0.86,0.48,0.71,4*06
$GPGSV,4,1,14,31,66,126,32,03,65,301,32,28,47,061,28,04,34,261,22,1*63
$GPGSV,4,2,14,46,33,188,27,02,33,218,26,21,23,203,20,26,18,128,18,1*62
$GPGSV,4,3,14,32,15,076,19,25,13,039,19,19,07,314,21,06,06,332,18,1*6C
$GPGSV,4,4,14,17,05,291,19,09,04,261,,1*68
$GLGSV,2,1,07,67,61,318,,66,48,068,24,76,44,078,26,83,37,302,,1*70
$GLGSV,2,2,07,82,33,248,,77,32,139,,68,16,284,,1*46
$GAGSV,3,1,10,29,75,055,30,19,54,263,22,12,45,289,17,33,39,209,25,7*75
$GAGSV,3,2,10,10,30,314,23,07,21,072,16,30,19,055,18,27,19,107,19,7*71
$GAGSV,3,3,10,11,09,331,14,26,04,175,14,7*79
$GBGSV,3,1,11,41,79,062,30,25,47,117,29,32,39,290,28,33,29,099,26,1*75
$GBGSV,3,2,11,24,28,051,25,30,21,282,23,23,19,172,24,27,14,233,21,1*7B
$GBGSV,3,3,11,31,09,337,,29,08,334,17,40,05,300,16,1*4E
$GNRMC,193211.000,A,4910.427202,N,12304.406400,W,0.22,182.41,101024,,,D,V*13
$GNVTG,182.41,T,,M,0.22,N,0.40,K,D*2C
$GNGGA,193212.000,4910.427196,N,12304.406364,W,2,29,0.48,4.548,M,-16.816,M,,*42
$GNGLL,4910.427196,N,12304.406364,W,193212.000,A,D*5E
$GNGSA,A,3,31,03,28,04,02,21,26,32,25,19,06,17,0.86,0.48,0.71,1*01
$GNGSA,A,3,66,76,,,,,,,,,,,0.86,0.48,0.71,2*07
$GNGSA,A,3,29,19,33,10,07,27,,,,,,,0.86,0.48,0.71,3*07
$GNGSA,A,3,41,25,32,33,24,30,23,27,40,,,,0.86,0.48,0.71,4*06
$GPGSV,4,1,14,31,66,126,31,03,65,301,32,28,47,061,27,04,34,261,22,1*6F
$GPGSV,4,2,14,46,33,188,27,02,33,218,25,21,23,203,20,26,18,128,17,1*6E
$GPGSV,4,3,14,32,15,076,18,25,13,039,19,19,07,314,21,06,06,332,17,1*62
$GPGSV,4,4,14,17,05,291,19,09,04,261,,1*68
$GLGSV,2,1,07,67,61,318,,66,48,068,24,76,44,078,26,83,37,302,,1*70
$GLGSV,2,2,07,82,33,248,,77,32,139,,68,16,284,,1*46
$GAGSV,3,1,10,29,75,055,29,19,54,263,21,12,45,289,16,33,39,209,24,7*7E
$GAGSV,3,2,10,10,30,314,22,07,21,072,16,30,19,055,18,27,19,107,19,7*70
$GAGSV,3,3,10,11,09,331,14,26,04,175,13,7*7E
$GBGSV,3,1,11,41,79,062,30,25,47,117,29,32,39,290,27,33,29,099,24,1*78
$GBGSV,3,2,11,24,28,051,25,30,21,282,22,23,19,172,24,27,14,233,21,1*7A
$GBGSV,3,3,11,31,09,337,,29,08,334,17,40,05,300,16,1*4E
$GNRMC,193212.000,A,4910.427196,N,12304.406364,W,0.23,183.37,101024,,,D,V*1A
$GNVTG,183.37,T,,M,0.23,N,0.43,K,D*2E
$GNGGA,193213.000,4910.427178,N,12304.406388,W,2,29,0.48,4.832,M,-16.816,M,,*41
$GNGLL,4910.427178,N,12304.406388,W,193213.000,A,D*5D
$GNGSA,A,3,31,03,28,04,02,21,26,32,25,19,06,17,0.85,0.48,0.70,1*03
$GNGSA,A,3,66,76,,,,,,,,,,,0.85,0.48,0.70,2*05
$GNGSA,A,3,29,19,33,10,07,27,,,,,,,0.85,0.48,0.70,3*05
$GNGSA,A,3,41,25,32,33,24,30,23,27,40,,,,0.85,0.48,0.70,4*04
$GPGSV,4,1,14,31,66,126,31,03,65,301,32,28,47,061,27,04,34,261,22,1*6F
$GPGSV,4,2,14,46,33,188,27,02,33,218,25,21,23,203,21,26,18,128,17,1*6F
$GPGSV,4,3,14,32,15,076,18,25,13,039,19,19,07,314,20,06,06,332,18,1*6C
$GPGSV,4,4,14,17,05,291,19,09,04,261,,1*68
$GLGSV,2,1,07,67,61,318,,66,48,068,23,76,44,078,25,83,37,302,,1*74
$GLGSV,2,2,07,82,33,248,,77,32,139,,68,16,284,,1*46
$GAGSV,3,1,10,29,75,055,29,19,54,263,21,12,45,289,16,33,39,209,24,7*7E
$GAGSV,3,2,10,10,30,314,22,07,21,072,15,30,19,055,18,27,19,107,19,7*73
$GAGSV,3,3,10,11,09,331,14,26,04,175,13,7*7E
$GBGSV,3,1,11,41,79,062,30,25,47,117,29,32,39,290,27,33,29,099,24,1*78
$GBGSV,3,2,11,24,28,051,25,30,21,282,22,23,19,172,23,27,14,233,21,1*7D
$GBGSV,3,3,11,31,09,337,,29,08,334,17,40,05,300,16,1*4E
$GNRMC,193213.000,A,4910.427178,N,12304.406388,W,0.24,184.21,101024,,,D,V*1E
$GNVTG,184.21,T,,M,0.24,N,0.44,K,D*2E
$GNGGA,193214.000,4910.427070,N,12304.406490,W,2,29,0.48,5.071,M,-16.816,M,,*4F
$GNGLL,4910.427070,N,12304.406490,W,193214.000,A,D*5D
$GNGSA,A,3,31,03,28,04,02,21,26,32,25,19,06,17,0.85,0.48,0.70,1*03
$GNGSA,A,3,66,76,,,,,,,,,,,0.85,0.48,0.70,2*05
$GNGSA,A,3,29,19,33,10,07,27,,,,,,,0.85,0.48,0.70,3*05
$GNGSA,A,3,41,25,32,33,24,30,23,27,40,,,,0.85,0.48,0.70,4*04
$GPGSV,4,1,14,31,66,126,31,03,65,301,32,28,47,061,28,04,34,261,23,1*61
$GPGSV,4,2,14,46,33,188,27,02,33,218,26,21,23,203,22,26,18,128,17,1*6F
$GPGSV,4,3,14,32,15,076,19,25,13,039,19,19,07,314,21,06,06,332,18,1*6C
$GPGSV,4,4,14,17,05,291,19,09,04,261,,1*68
$GLGSV,1,1,04,66,47,070,24,76,44,078,25,82,33,248,,77,32,139,,1*79
$GAGSV,3,1,10,29,75,055,29,19,54,263,21,12,45,289,16,33,39,209,24,7*7E
$GAGSV,3,2,10,10,30,314,23,07,21,072,15,27,19,107,19,30,19,055,18,7*72
$GAGSV,3,3,10,11,09,331,14,26,04,175,13,7*7E
$GBGSV,3,1,11,41,79,062,30,25,47,117,29,32,39,290,27,33,29,099,24,1*78
$GBGSV,3,2,11,24,28,051,25,30,21,282,22,23,19,172,23,27,14,233,21,1*7D
$GBGSV,3,3,11,31,09,337,,29,08,334,17,40,05,300,16,1*4E
$GNRMC,193214.000,A,4910.427070,N,12304.406490,W,0.25,185.10,101024,,,D,V*1C
$GNVTG,185.10,T,,M,0.25,N,0.46,K,D*2E
$GNGGA,193215.000,4910.427022,N,12304.406502,W,2,29,0.48,5.175,M,-16.817,M,,*47
$GNGLL,4910.427022,N,12304.406502,W,193215.000,A,D*51
$GNGSA,A,3,31,03,28,04,02,21,26,32,25,19,06,17,0.85,0.48,0.70,1*03
$GNGSA,A,3,66,76,,,,,,,,,,,0.85,0.48,0.70,2*05
$GNGSA,A,3,29,19,33,10,07,27,,,,,,,0.85,0.48,0.70,3*05
$GNGSA,A,3,41,25,32,33,24,30,23,27,40,,,,0.85,0.48,0.70,4*04
$GPGSV,4,1,14,31,66,126,31,03,65,301,32,28,47,061,28,04,34,261,23,1*61
$GPGSV,4,2,14,46,33,188,27,02,33,218,26,21,23,203,21,26,18,128,17,1*6C
$GPGSV,4,3,14,32,15,076,19,25,13,039,19,19,07,314,21,06,06,332,18,1*6C
$GPGSV,4,4,14,17,05,291,19,09,04,261,,1*68
$GLGSV,2,1,07,67,62,321,,66,47,070,24,76,44,078,26,83,37,302,,1*7F
$GLGSV,2,2,07,82,33,248,,77,32,139,,68,16,284,,1*46
$GAGSV,3,1,10,29,75,055,29,19,54,263,21,12,45,289,16,33,39,209,24,7*7E
$GAGSV,3,2,10,10,30,314,23,07,21,072,15,30,19,055,18,27,19,107,19,7*72
$GAGSV,3,3,10,11,09,331,14,26,04,175,13,7*7E
$GBGSV,3,1,11,41,79,062,30,25,47,117,29,32,39,290,27,33,29,099,25,1*79
$GBGSV,3,2,11,24,28,051,25,30,21,282,21,23,19,172,24,27,14,233,21,1*79
$GBGSV,3,3,11,31,09,337,,29,08,334,17,40,05,300,16,1*4E
$GNRMC,193215.000,A,4910.427022,N,12304.406502,W,0.26,185.35,101024,,,D,V*14
$GNVTG,185.35,T,,M,0.26,N,0.48,K,D*24
$GNGGA,193216.000,4910.426908,N,12304.406520,W,2,29,0.48,5.096,M,-16.816,M,,*49
$GNGLL,4910.426908,N,12304.406520,W,193216.000,A,D*52
$GNGSA,A,3,31,03,28,04,02,21,26,32,25,19,06,17,0.85,0.48,0.70,1*03
$GNGSA,A,3,66,76,,,,,,,,,,,0.85,0.48,0.70,2*05
$GNGSA,A,3,29,19,33,10,07,27,,,,,,,0.85,0.48,0.70,3*05
$GNGSA,A,3,41,25,32,33,24,30,23,27,40,,,,0.85,0.48,0.70,4*04
$GPGSV,4,1,14,31,66,126,32,03,65,301,33,28,47,061,29,04,34,261,24,1*65
$GPGSV,4,2,14,46,33,188,27,02,33,218,27,21,23,203,22,26,18,128,17,1*6E
$GPGSV,4,3,14,32,15,076,20,25,13,039,19,19,07,314,22,06,06,332,18,1*65
$GPGSV,4,4,14,17,05,291,19,09,04,261,,1*68
$GLGSV,2,1,07,67,62,321,,66,47,070,24,76,44,078,26,83,37,302,,1*7F
$GLGSV,2,2,07,82,33,248,,77,32,139,,68,18,285,,1*49
$GAGSV,3,1,10,29,75,055,30,19,54,263,22,12,45,289,16,33,39,209,25,7*74
$GAGSV,3,2,10,10,30,314,23,07,21,072,15,30,19,055,19,27,19,107,19,7*73
$GAGSV,3,3,10,11,09,331,14,26,04,175,13,7*7E
$GBGSV,3,1,11,41,79,062,30,25,47,117,29,32,39,290,27,33,29,099,26,1*7A
$GBGSV,3,2,11,24,28,051,25,30,21,282,22,23,19,172,24,27,14,233,21,1*7A
$GBGSV,3,3,11,31,09,337,,29,08,334,17,40,05,300,16,1*4E
$GNRMC,193216.000,A,4910.426908,N,12304.406520,W,0.28,185.31,101024,,,D,V*1D
$GNVTG,185.31,T,,M,0.28,N,0.53,K,D*24
$GNGGA,193217.000,4910.426962,N,12304.406514,W,2,29,0.48,5.162,M,-16.816,M,,*49
$GNGLL,4910.426962,N,12304.406514,W,193217.000,A,D*58
$GNGSA,A,3,31,03,28,04,02,21,26,32,25,19,06,17,0.85,0.48,0.70,1*03
$GNGSA,A,3,66,76,,,,,,,,,,,0.85,0.48,0.70,2*05
$GNGSA,A,3,29,19,33,10,07,27,,,,,,,0.85,0.48,0.70,3*05
$GNGSA,A,3,41,25,32,33,24,30,23,27,40,,,,0.85,0.48,0.70,4*04
$GPGSV,4,1,14,31,66,126,33,03,65,301,34,28,47,061,30,04,34,261,25,1*6A
$GPGSV,4,2,14,46,33,188,28,02,33,218,28,21,23,203,23,26,18,128,18,1*60
$GPGSV,4,3,14,32,15,076,21,25,13,039,20,19,07,314,23,06,06,332,19,1*6E
$GPGSV,4,4,14,17,05,291,20,09,04,261,,1*62
$GLGSV,1,1,04,66,47,070,24,76,44,078,26,82,33,248,,77,32,139,,1*7A
$GAGSV,3,1,10,29,75,055,30,19,54,263,23,12,45,289,17,33,39,209,26,7*77
$GAGSV,3,2,10,10,30,314,24,07,21,072,15,27,19,107,20,30,19,055,20,7*74
$GAGSV,3,3,10,11,09,331,14,26,04,175,14,7*79
$GBGSV,3,1,11,41,79,062,30,25,47,117,29,32,39,290,27,33,29,099,26,1*7A
$GBGSV,3,2,11,24,28,051,25,30,21,282,22,23,19,172,24,27,14,233,21,1*7A
$GBGSV,3,3,11,31,09,337,,29,08,334,17,40,05,300,16,1*4E
$GNRMC,193217.000,A,4910.426962,N,12304.406514,W,0.15,174.40,101024,,,D,V*11
$GNVTG,174.40,T,,M,0.15,N,0.28,K,D*2E
$GNGGA,193218.000,4910.426896,N,12304.406520,W,2,29,0.48,5.118,M,-16.816,M,,*46
$GNGLL,4910.426896,N,12304.406520,W,193218.000,A,D*5A
$GNGSA,A,3,31,03,28,04,02,21,26,32,25,19,06,17,0.85,0.48,0.70,1*03
$GNGSA,A,3,66,76,,,,,,,,,,,0.85,0.48,0.70,2*05
$GNGSA,A,3,29,19,33,10,07,27,,,,,,,0.85,0.48,0.70,3*05
$GNGSA,A,3,41,25,32,33,24,30,23,27,40,,,,0.85,0.48,0.70,4*04
$GPGSV,4,1,14,31,66,126,33,03,65,301,33,28,47,061,29,04,34,261,25,1*65
$GPGSV,4,2,14,46,33,188,28,02,33,218,27,21,23,203,23,26,18,128,18,1*6F
$GPGSV,4,3,14,32,15,076,20,25,13,039,20,19,07,314,22,06,06,332,19,1*6E
$GPGSV,4,4,14,17,05,291,20,09,04,261,,1*62
$GLGSV,2,1,07,67,62,321,,66,47,070,24,76,44,078,26,83,37,302,,1*7F
$GLGSV,2,2,07,82,33,248,,77,32,139,,68,18,285,,1*49
$GAGSV,3,1,10,29,75,055,30,19,54,263,23,12,45,289,17,33,39,209,25,7*74
$GAGSV,3,2,10,10,30,314,24,07,21,072,14,30,19,055,20,27,19,107,19,7*7F
$GAGSV,3,3,10,11,09,331,14,26,04,175,14,7*79
$GBGSV,3,1,11,41,79,062,30,25,47,117,29,32,39,290,27,33,29,099,26,1*7A
$GBGSV,3,2,11,24,28,051,25,30,21,282,22,23,19,172,25,27,14,233,21,1*7B
$GBGSV,3,3,11,31,09,337,,29,08,334,18,40,05,300,16,1*41
$GNRMC,193218.000,A,4910.426896,N,12304.406520,W,0.18,174.40,101024,,,D,V*1E
$GNVTG,174.40,T,,M,0.18,N,0.33,K,D*29
$PAIR010,0,1,2335,415956*37
$GNGGA,193219.000,4910.426890,N,12304.406544,W,2,29,0.48,5.167,M,-16.816,M,,*4B
$GNGLL,4910.426890,N,12304.406544,W,193219.000,A,D*5F
$GNGSA,A,3,31,03,28,04,02,21,26,32,25,19,06,17,0.85,0.48,0.70,1*03
$GNGSA,A,3,66,76,,,,,,,,,,,0.85,0.48,0.70,2*05
$GNGSA,A,3,29,19,33,10,07,27,,,,,,,0.85,0.48,0.70,3*05
$GNGSA,A,3,41,25,32,33,24,30,23,27,40,,,,0.85,0.48,0.70,4*04
$GPGSV,4,1,14,31,66,126,33,03,65,301,33,28,47,061,29,04,34,261,25,1*65
$GPGSV,4,2,14,46,33,188,28,02,33,218,27,21,23,203,23,26,18,128,18,1*6F
$GPGSV,4,3,14,32,15,076,20,25,13,039,19,19,07,314,22,06,06,332,18,1*65
$GPGSV,4,4,14,17,05,291,20,09,04,261,,1*62
$GLGSV,2,1,07,67,62,321,,66,47,070,24,76,44,078,26,83,37,302,,1*7F
$GLGSV,2,2,07,82,33,248,,77,32,139,,68,18,285,,1*49
$GAGSV,3,1,10,29,75,055,30,19,54,263,23,12,45,289,17,33,39,209,25,7*74
$GAGSV,3,2,10,10,30,314,23,07,21,072,13,30,19,055,19,27,19,107,19,7*75
$GAGSV,3,3,10,11,09,331,14,26,04,175,14,7*79
$GBGSV,3,1,11,41,79,062,30,25,47,117,29,32,39,290,27,33,29,099,25,1*79
$GBGSV,3,2,11,24,28,051,25,30,21,282,22,23,19,172,24,27,14,233,21,1*7A
$GBGSV,3,3,11,31,09,337,,29,08,334,19,40,05,300,15,1*43
$GNRMC,193219.000,A,4910.426890,N,12304.406544,W,0.19,174.40,101024,,,D,V*1A
$GNVTG,174.40,T,,M,0.19,N,0.35,K,D*2E
$GNGGA,193220.000,4910.426830,N,12304.406520,W,2,29,0.48,5.080,M,-16.816,M,,*41
$GNGLL,4910.426830,N,12304.406520,W,193220.000,A,D*5D
$GNGSA,A,3,31,03,28,04,02,21,26,32,25,19,06,17,0.85,0.48,0.70,1*03
$GNGSA,A,3,66,76,,,,,,,,,,,0.85,0.48,0.70,2*05
$GNGSA,A,3,29,19,33,10,07,27,,,,,,,0.85,0.48,0.70,3*05
$GNGSA,A,3,41,25,32,33,24,30,23,27,40,,,,0.85,0.48,0.70,4*04
$GPGSV,4,1,14,31,66,126,33,03,65,301,33,28,47,061,29,04,34,261,25,1*65
$GPGSV,4,2,14,46,33,188,28,02,33,218,27,21,23,203,23,26,18,128,18,1*6F
$GPGSV,4,3,14,32,15,076,20,25,13,039,19,19,07,314,22,06,06,332,18,1*65
$GPGSV,4,4,14,17,05,291,20,09,04,261,,1*62
$GLGSV,2,1,07,67,62,321,,66,47,070,24,76,44,078,26,83,37,302,,1*7F
$GLGSV,2,2,07,82,33,248,,77,32,139,,68,18,285,,1*49
$GAGSV,3,1,10,29,75,055,30,19,54,263,23,12,45,289,17,33,39,209,25,7*74
$GAGSV,3,2,10,10,30,314,23,07,21,072,13,30,19,055,19,27,19,107,20,7*7F
$GAGSV,3,3,10,11,09,331,15,26,04,175,14,7*78
$GBGSV,3,1,11,41,79,062,30,25,47,117,29,32,39,290,27,33,29,099,25,1*79
$GBGSV,3,2,11,24,28,051,25,30,21,282,22,23,19,172,25,27,14,233,22,1*78
$GBGSV,3,3,11,31,09,337,,29,08,334,19,40,05,300,15,1*43
$GNRMC,193220.000,A,4910.426830,N,12304.406520,W,0.24,174.40,101024,,,D,V*16
$GNVTG,174.40,T,,M,0.24,N,0.45,K,D*27
$GNGGA,193221.000,4910.426794,N,12304.406436,W,2,29,0.48,5.145,M,-16.816,M,,*4F
$GNGLL,4910.426794,N,12304.406436,W,193221.000,A,D*5B
$GNGSA,A,3,31,03,28,04,02,21,26,32,25,19,06,17,0.85,0.48,0.70,1*03
$GNGSA,A,3,66,76,,,,,,,,,,,0.85,0.48,0.70,2*05
$GNGSA,A,3,29,19,33,10,07,27,,,,,,,0.85,0.48,0.70,3*05
$GNGSA,A,3,41,25,32,33,24,30,23,27,40,,,,0.85,0.48,0.70,4*04
$GPGSV,4,1,14,31,66,126,32,03,65,301,32,28,47,061,28,04,34,261,25,1*64
$GPGSV,4,2,14,46,33,188,27,02,33,218,26,21,23,203,22,26,18,128,18,1*60
$GPGSV,4,3,14,32,15,076,19,25,13,039,18,19,07,314,21,06,06,332,18,1*6D
$GPGSV,4,4,14,17,05,291,19,09,04,261,,1*68
$GLGSV,2,1,07,67,62,321,,66,47,070,24,76,44,078,27,83,37,302,,1*7E
$GLGSV,2,2,07,82,33,248,,77,32,139,,68,18,285,,1*49
$GAGSV,3,1,10,29,75,055,29,19,54,263,23,12,45,289,17,33,39,209,24,7*7D
$GAGSV,3,2,10,10,30,314,22,07,21,072,13,30,19,055,19,27,19,107,20,7*7E
$GAGSV,3,3,10,11,09,331,15,26,04,175,13,7*7F
$GBGSV,3,1,11,41,79,062,30,25,47,117,29,32,39,290,27,33,29,099,25,1*79
$GBGSV,3,2,11,24,28,051,26,30,21,282,23,23,19,172,24,27,14,233,22,1*7B
$GBGSV,3,3,11,31,09,337,,29,08,334,19,40,05,300,15,1*43
$GNRMC,193221.000,A,4910.426794,N,12304.406436,W,0.28,174.40,101024,,,D,V*1C
$GNVTG,174.40,T,,M,0.28,N,0.51,K,D*2E
$GNGGA,193222.000,4910.426746,N,12304.406472,W,2,29,0.48,5.218,M,-16.817,M,,*49
$GNGLL,4910.426746,N,12304.406472,W,193222.000,A,D*57
$GNGSA,A,3,31,03,28,04,02,21,26,32,25,19,06,17,0.85,0.48,0.70,1*03
$GNGSA,A,3,66,76,,,,,,,,,,,0.85,0.48,0.70,2*05
$GNGSA,A,3,29,19,33,10,07,27,,,,,,,0.85,0.48,0.70,3*05
$GNGSA,A,3,41,25,32,33,24,30,23,27,40,,,,0.85,0.48,0.70,4*04
$GPGSV,4,1,14,31,66,126,31,03,65,301,32,28,47,061,27,04,34,261,23,1*6E
$GPGSV,4,2,14,02,33,218,26,46,33,188,27,21,23,203,22,26,18,128,17,1*6F
$GPGSV,4,3,14,32,15,076,18,25,13,039,18,19,07,314,21,06,06,332,17,1*63
$GPGSV,4,4,14,17,05,291,18,09,04,261,,1*69
$GLGSV,2,1,05,67,62,321,,66,47,070,24,76,44,078,27,82,33,248,,1*76
$GLGSV,2,2,05,77,32,139,,1*47
$GAGSV,3,1,10,29,75,055,28,19,54,263,22,12,45,289,16,33,39,209,23,7*7B
$GAGSV,3,2,10,10,30,314,22,07,21,072,13,30,19,055,18,27,19,107,19,7*75
$GAGSV,3,3,10,11,09,331,15,26,04,175,13,7*7F
$GBGSV,3,1,11,41,79,062,30,25,47,117,29,32,39,290,26,33,29,099,24,1*79
$GBGSV,3,2,11,24,28,051,26,30,21,282,23,23,19,172,23,27,14,233,22,1*7C
$GBGSV,3,3,11,31,09,337,,29,08,334,19,40,05,300,15,1*43
$GNRMC,193222.000,A,4910.426746,N,12304.406472,W,0.31,174.40,101024,,,D,V*18
$GNVTG,174.40,T,,M,0.31,N,0.57,K,D*20
$GNGGA,193223.000,4910.426746,N,12304.406430,W,2,29,0.48,5.203,M,-16.817,M,,*44
$GNGLL,4910.426746,N,12304.406430,W,193223.000,A,D*50
$GNGSA,A,3,31,03,28,04,02,21,26,32,25,19,06,17,0.85,0.48,0.70,1*03
$GNGSA,A,3,66,76,,,,,,,,,,,0.85,0.48,0.70,2*05
$GNGSA,A,3,29,19,33,10,07,27,,,,,,,0.85,0.48,0.70,3*05
$GNGSA,A,3,41,25,32,33,24,30,23,27,40,,,,0.85,0.48,0.70,4*04
$GPGSV,4,1,14,31,66,126,30,03,65,301,31,28,47,061,27,04,34,261,22,1*6D
$GPGSV,4,2,14,46,33,188,27,02,33,218,26,21,23,203,22,26,18,128,18,1*60
$GPGSV,4,3,14,32,15,076,18,25,13,039,18,19,07,314,20,06,06,332,17,1*62
$GPGSV,4,4,14,17,05,291,17,09,04,261,,1*66
$GLGSV,2,1,07,67,62,321,,66,47,070,23,76,44,078,26,83,37,302,,1*78
$GLGSV,2,2,07,82,33,248,,77,32,139,,68,18,285,,1*49
$GAGSV,3,1,10,29,75,055,27,19,54,263,22,12,45,289,16,33,39,209,23,7*74
$GAGSV,3,2,10,10,30,314,22,07,21,072,13,30,19,055,18,27,19,107,19,7*75
$GAGSV,3,3,10,11,09,331,15,26,04,175,13,7*7F
$GBGSV,3,1,11,41,79,062,29,25,47,117,29,32,39,290,26,33,29,099,23,1*76
$GBGSV,3,2,11,24,28,051,25,30,21,282,23,23,19,172,22,27,14,233,21,1*7D
$GBGSV,3,3,11,31,09,337,,29,08,334,18,40,05,300,15,1*42
$GNRMC,193223.000,A,4910.426746,N,12304.406430,W,0.33,174.40,101024,,,D,V*1D
$GNVTG,174.40,T,,M,0.33,N,0.60,K,D*26
$GNGGA,193224.000,4910.426746,N,12304.406340,W,2,29,0.48,5.284,M,-16.816,M,,*4D
$GNGLL,4910.426746,N,12304.406340,W,193224.000,A,D*57
$GNGSA,A,3,31,03,28,04,02,21,26,32,25,19,06,17,0.85,0.48,0.70,1*03
$GNGSA,A,3,66,76,,,,,,,,,,,0.85,0.48,0.70,2*05
$GNGSA,A,3,29,19,33,10,07,27,,,,,,,0.85,0.48,0.70,3*05
$GNGSA,A,3,41,25,32,33,24,30,23,27,40,,,,0.85,0.48,0.70,4*04
$GPGSV,4,1,14,31,66,126,31,03,65,301,32,28,47,061,28,04,34,261,24,1*66
$GPGSV,4,2,14,46,33,188,27,02,33,218,26,21,23,203,22,26,18,128,18,1*60
$GPGSV,4,3,14,32,15,076,18,25,13,039,18,19,07,314,20,06,06,332,17,1*62
$GPGSV,4,4,14,17,05,291,17,09,04,261,,1*66
$GLGSV,2,1,06,67,62,321,,66,47,070,23,76,45,075,26,83,37,302,,1*75
$GLGSV,2,2,06,82,33,248,,77,32,139,,1*70
$GAGSV,3,1,10,29,75,055,28,19,54,263,22,12,45,289,16,33,39,209,24,7*7C
$GAGSV,3,2,10,10,30,314,22,07,21,072,13,27,19,107,19,30,19,055,18,7*75
$GAGSV,3,3,10,11,09,331,15,26,04,175,13,7*7F
$GBGSV,3,1,11,41,79,062,31,25,47,117,30,32,39,290,27,33,29,099,26,1*73
$GBGSV,3,2,11,24,28,051,26,30,21,282,23,23,19,172,23,27,14,233,24,1*7A
$GBGSV,3,3,11,31,09,337,,29,08,334,19,40,05,300,16,1*40
$GNRMC,193224.000,A,4910.426746,N,12304.406340,W,0.34,174.40,101024,,,D,V*1D
$GNVTG,174.40,T,,M,0.34,N,0.62,K,D*23
$GNGGA,193225.000,4910.426674,N,12304.406418,W,2,29,0.48,5.437,M,-16.817,M,,*49
$GNGLL,4910.426674,N,12304.406418,W,193225.000,A,D*5C
$GNGSA,A,3,31,03,28,04,02,21,26,32,25,19,06,17,0.85,0.48,0.70,1*03
$GNGSA,A,3,66,76,,,,,,,,,,,0.85,0.48,0.70,2*05
$GNGSA,A,3,29,19,33,10,07,27,,,,,,,0.85,0.48,0.70,3*05
$GNGSA,A,3,41,25,32,33,24,30,23,27,40,,,,0.85,0.48,0.70,4*04
$GPGSV,4,1,14,31,66,126,32,03,65,301,33,28,47,061,29,04,34,261,25,1*64
$GPGSV,4,2,14,46,33,188,27,02,33,218,26,21,23,203,23,26,18,128,18,1*61
$GPGSV,4,3,14,32,15,076,19,25,13,039,19,19,07,314,23,06,06,332,18,1*6E
$GPGSV,4,4,14,17,05,291,17,09,04,261,,1*66
$GLGSV,2,1,07,67,62,321,,66,47,070,23,76,45,075,25,83,37,302,,1*77
$GLGSV,2,2,07,77,34,138,,82,33,248,,68,18,285,,1*4E
$GAGSV,3,1,10,29,75,055,28,19,54,263,22,12,45,289,17,33,39,209,24,7*7D
$GAGSV,3,2,10,10,30,314,23,07,21,072,13,30,19,055,19,27,19,107,19,7*75
$GAGSV,3,3,10,11,09,331,16,26,04,175,13,7*7C
$GBGSV,3,1,11,41,79,062,31,25,47,117,30,32,39,290,27,33,29,099,25,1*70
$GBGSV,3,2,11,24,28,051,26,30,21,282,23,23,19,172,24,27,14,233,21,1*78
$GBGSV,3,3,11,31,09,337,,29,08,334,19,40,05,300,16,1*40
$GNRMC,193225.000,A,4910.426674,N,12304.406418,W,0.33,174.40,101024,,,D,V*11
$GNVTG,174.40,T,,M,0.33,N,0.61,K,D*27
$GNGGA,193226.000,4910.426662,N,12304.406496,W,2,29,0.48,5.626,M,-16.817,M,,*49
$GNGLL,4910.426662,N,12304.406496,W,193226.000,A,D*5E
$GNGSA,A,3,31,03,28,04,02,21,26,32,25,19,06,17,0.85,0.48,0.70,1*03
$GNGSA,A,3,66,76,,,,,,,,,,,0.85,0.48,0.70,2*05
$GNGSA,A,3,29,19,33,10,07,27,,,,,,,0.85,0.48,0.70,3*05
$GNGSA,A,3,41,25,32,33,24,30,23,27,40,,,,0.85,0.48,0.70,4*04
$GPGSV,4,1,14,31,66,126,32,03,65,301,32,28,47,061,28,04,34,261,24,1*65
$GPGSV,4,2,14,02,33,218,26,46,33,188,27,21,23,203,23,26,18,128,18,1*61
$GPGSV,4,3,14,32,15,076,19,25,13,039,19,19,07,314,21,06,06,332,18,1*6C
$GPGSV,4,4,14,17,05,291,17,09,04,261,,1*66
$GLGSV,2,1,05,66,47,070,23,76,45,075,25,77,34,138,,82,33,248,,1*77
$GLGSV,2,2,05,68,18,285,,1*45
$GAGSV,3,1,10,29,75,055,28,19,54,263,22,12,45,289,17,33,39,209,24,7*7D
$GAGSV,3,2,10,10,30,314,23,07,21,072,13,30,19,055,19,27,19,107,19,7*75
$GAGSV,3,3,10,11,09,331,16,26,04,175,13,7*7C
$GBGSV,3,1,11,41,79,062,31,25,47,117,30,32,39,290,27,33,29,099,25,1*70
$GBGSV,3,2,11,24,28,051,26,30,21,282,23,23,19,172,24,27,14,233,22,1*7B
$GBGSV,3,3,11,31,09,337,,29,08,334,19,40,05,300,16,1*40
$GNRMC,193226.000,A,4910.426662,N,12304.406496,W,0.31,169.40,101024,,,D,V*1D
$GNVTG,169.40,T,,M,0.31,N,0.58,K,D*23
$GNGGA,193227.000,4910.426662,N,12304.406568,W,2,29,0.48,5.621,M,-16.817,M,,*4F
$GNGLL,4910.426662,N,12304.406568,W,193227.000,A,D*5F
$GNGSA,A,3,31,03,28,04,02,21,26,32,25,19,06,17,0.85,0.48,0.70,1*03
$GNGSA,A,3,66,76,,,,,,,,,,,0.85,0.48,0.70,2*05
$GNGSA,A,3,29,19,33,10,07,27,,,,,,,0.85,0.48,0.70,3*05
$GNGSA,A,3,41,25,32,33,24,30,23,27,40,,,,0.85,0.48,0.70,4*04
$GPGSV,4,1,14,31,66,126,32,03,65,301,32,28,47,061,28,04,34,261,25,1*64
$GPGSV,4,2,14,46,33,188,27,02,33,218,26,21,23,203,23,26,18,128,18,1*61
$GPGSV,4,3,14,32,15,076,19,25,13,039,19,19,07,314,22,06,06,332,18,1*6F
$GPGSV,4,4,14,17,05,291,17,09,04,261,,1*66
$GLGSV,2,1,07,67,62,321,,66,47,070,23,76,45,075,25,83,37,302,,1*77
$GLGSV,2,2,07,77,34,138,,82,33,248,,68,18,285,,1*4E
$GAGSV,3,1,10,29,75,055,28,19,54,263,22,12,45,289,17,33,39,209,24,7*7D
$GAGSV,3,2,10,10,30,314,23,07,21,072,13,30,19,055,19,27,19,107,19,7*75
$GAGSV,3,3,10,11,09,331,16,26,04,175,13,7*7C
$GBGSV,3,1,11,41,79,062,31,25,47,117,30,32,39,290,28,33,29,099,25,1*7F
$GBGSV,3,2,11,24,28,051,26,30,21,282,23,23,19,172,24,27,14,233,22,1*7B
$GBGSV,3,3,11,31,09,337,,29,08,334,19,40,05,300,16,1*40
$GNRMC,193227.000,A,4910.426662,N,12304.406568,W,0.28,172.83,101024,,,D,V*11
$GNVTG,172.83,T,,M,0.28,N,0.53,K,D*25
$GNGGA,193228.000,4910.426662,N,12304.406562,W,2,29,0.48,5.674,M,-16.816,M,,*4B
$GNGLL,4910.426662,N,12304.406562,W,193228.000,A,D*5A
$GNGSA,A,3,31,03,28,04,02,21,26,32,25,19,06,17,0.85,0.48,0.70,1*03
$GNGSA,A,3,66,76,,,,,,,,,,,0.85,0.48,0.70,2*05
$GNGSA,A,3,29,19,33,10,07,27,,,,,,,0.85,0.48,0.70,3*05
$GNGSA,A,3,41,25,32,33,24,30,23,27,40,,,,0.85,0.48,0.70,4*04
$GPGSV,4,1,14,31,66,126,32,03,65,301,32,28,47,061,28,04,34,261,24,1*65
$GPGSV,4,2,14,46,33,188,27,02,33,218,26,21,23,203,24,26,18,128,18,1*66
$GPGSV,4,3,14,32,15,076,18,25,13,039,19,19,07,314,21,06,06,332,18,1*6D
$GPGSV,4,4,14,17,05,291,17,09,04,261,,1*66
$GLGSV,2,1,06,67,62,321,,66,47,070,23,76,45,075,25,83,37,302,,1*76
$GLGSV,2,2,06,77,34,138,,82,33,248,,1*77
$GAGSV,3,1,10,29,75,055,28,19,54,263,23,12,45,289,17,33,39,209,24,7*7C
$GAGSV,3,2,10,10,30,314,23,07,21,072,13,27,19,107,19,30,19,055,19,7*75
$GAGSV,3,3,10,11,09,331,16,26,04,175,13,7*7C
$GBGSV,3,1,11,41,79,062,32,25,47,117,30,32,39,290,28,33,29,099,26,1*7F
$GBGSV,3,2,11,24,28,051,26,30,21,282,23,23,19,172,24,27,14,233,24,1*7D
$GBGSV,3,3,11,31,09,337,,29,08,334,19,40,05,300,16,1*40
$GNRMC,193228.000,A,4910.426662,N,12304.406562,W,0.25,176.75,101024,,,D,V*14
$GNVTG,176.75,T,,M,0.25,N,0.46,K,D*21
$GNGGA,193229.000,4910.426584,N,12304.406532,W,2,29,0.48,5.830,M,-16.817,M,,*4B
$GNGLL,4910.426584,N,12304.406532,W,193229.000,A,D*55
$GNGSA,A,3,31,03,28,04,02,21,26,32,25,19,06,17,0.85,0.48,0.70,1*03
$GNGSA,A,3,66,76,,,,,,,,,,,0.85,0.48,0.70,2*05
$GNGSA,A,3,29,19,33,10,07,27,,,,,,,0.85,0.48,0.70,3*05
$GNGSA,A,3,41,25,32,33,24,30,23,27,40,,,,0.85,0.48,0.70,4*04
$GPGSV,4,1,14,31,66,126,32,03,65,301,32,28,47,061,28,04,34,261,24,1*65
$GPGSV,4,2,14,46,33,188,27,02,33,218,26,21,23,203,24,26,18,128,18,1*66
$GPGSV,4,3,14,32,15,076,18,25,13,039,19,19,07,314,20,06,06,332,18,1*6C
$GPGSV,4,4,14,17,05,291,17,09,04,261,,1*66
$GLGSV,2,1,07,67,62,321,,66,47,070,23,76,45,075,25,83,37,302,,1*77
$GLGSV,2,2,07,77,34,138,,82,33,248,,68,18,285,,1*4E
$GAGSV,3,1,10,29,75,055,28,19,54,263,23,12,45,289,17,33,39,209,24,7*7C
$GAGSV,3,2,10,10,30,314,23,07,21,072,13,30,19,055,20,27,19,107,19,7*7F
$GAGSV,3,3,10,11,09,331,16,26,04,175,13,7*7C
$GBGSV,3,1,11,41,79,062,32,25,47,117,30,32,39,290,29,33,29,099,26,1*7E
$GBGSV,3,2,11,24,28,051,26,30,21,282,24,23,19,172,24,27,14,233,24,1*7A
$GBGSV,3,3,11,31,09,337,,29,08,334,20,40,05,300,16,1*4A
$GNRMC,193229.000,A,4910.426584,N,12304.406532,W,0.22,180.04,101024,,,D,V*13
$GNVTG,180.04,T,,M,0.22,N,0.41,K,D*2E
$GNGGA,193230.000,4910.426554,N,12304.406448,W,2,29,0.48,5.707,M,-16.816,M,,*48
$GNGLL,4910.426554,N,12304.406448,W,193230.000,A,D*5C
$GNGSA,A,3,31,03,28,04,02,21,26,32,25,19,06,17,0.85,0.48,0.70,1*03
$GNGSA,A,3,66,76,,,,,,,,,,,0.85,0.48,0.70,2*05
$GNGSA,A,3,29,19,33,10,07,27,,,,,,,0.85,0.48,0.70,3*05
$GNGSA,A,3,41,25,32,33,24,30,23,27,40,,,,0.85,0.48,0.70,4*04
$GPGSV,4,1,14,31,66,126,31,03,65,301,31,28,47,061,28,04,34,261,24,1*65
$GPGSV,4,2,14,46,33,188,27,02,33,218,26,21,23,203,22,26,18,128,18,1*60
$GPGSV,4,3,14,32,15,076,18,25,13,039,19,19,07,314,20,06,06,332,18,1*6C
$GPGSV,4,4,14,17,05,291,17,09,04,261,,1*66
$GLGSV,2,1,07,67,62,321,,66,47,070,23,76,45,075,25,83,37,302,,1*77
$GLGSV,2,2,07,77,34,138,,82,32,247,,68,18,285,,1*40
$GAGSV,3,1,10,29,75,055,28,19,54,263,23,12,45,289,17,33,39,209,24,7*7C
$GAGSV,3,2,10,10,30,314,23,07,21,072,12,30,19,055,20,27,19,107,19,7*7E
$GAGSV,3,3,10,11,09,331,16,26,04,175,13,7*7C
$GBGSV,3,1,11,41,79,062,32,25,47,117,30,32,39,290,29,33,29,099,26,1*7E
$GBGSV,3,2,11,24,28,051,26,30,21,282,24,23,19,172,25,27,14,233,24,1*7B
$GBGSV,3,3,11,31,09,337,,29,08,334,21,40,05,300,16,1*4B
$GNRMC,193230.000,A,4910.426554,N,12304.406448,W,0.19,180.62,101024,,,D,V*12
$GNVTG,180.62,T,,M,0.19,N,0.36,K,D*26
$GNGGA,193231.000,4910.426500,N,12304.406406,W,2,29,0.48,5.835,M,-16.816,M,,*4C
$GNGLL,4910.426500,N,12304.406406,W,193231.000,A,D*56
$GNGSA,A,3,31,03,28,04,02,21,26,32,25,19,06,17,0.85,0.48,0.70,1*03
$GNGSA,A,3,66,76,,,,,,,,,,,0.85,0.48,0.70,2*05
$GNGSA,A,3,29,19,33,10,07,27,,,,,,,0.85,0.48,0.70,3*05
$GNGSA,A,3,41,25,32,33,24,30,23,27,40,,,,0.85,0.48,0.70,4*04
$GPGSV,4,1,14,31,66,126,31,03,65,301,31,28,47,061,28,04,34,261,24,1*65
$GPGSV,4,2,14,46,33,188,27,02,33,218,26,21,23,203,21,26,18,128,18,1*63
$GPGSV,4,3,14,32,15,076,18,25,13,039,18,19,07,314,20,06,06,332,18,1*6D
$GPGSV,4,4,14,17,05,291,17,09,04,261,,1*66
$GLGSV,2,1,06,67,62,321,,66,47,070,23,76,45,075,25,83,37,300,,1*74
$GLGSV,2,2,06,77,34,138,,82,32,247,,1*79
$GAGSV,3,1,10,29,75,055,28,19,54,263,23,12,45,289,16,33,39,209,24,7*7D
$GAGSV,3,2,10,10,30,314,22,07,21,072,12,27,19,107,19,30,19,055,20,7*7F
$GAGSV,3,3,10,11,09,331,16,26,04,175,13,7*7C
$GBGSV,3,1,11,41,79,062,32,25,47,117,30,32,39,290,28,33,29,099,26,1*7F
$GBGSV,3,2,11,24,28,051,25,30,21,282,24,23,19,172,25,27,14,233,24,1*78
$GBGSV,3,3,11,31,09,337,,29,08,334,21,40,05,300,16,1*4B
$GNRMC,193231.000,A,4910.426500,N,12304.406406,W,0.17,180.62,101024,,,D,V*16
$GNVTG,180.62,T,,M,0.17,N,0.32,K,D*2C
$GNGGA,193232.000,4910.426452,N,12304.406286,W,2,29,0.48,5.934,M,-16.817,M,,*46
$GNGLL,4910.426452,N,12304.406286,W,193232.000,A,D*5D
$GNGSA,A,3,31,03,28,04,02,21,26,32,25,19,06,17,0.85,0.48,0.70,1*03
$GNGSA,A,3,66,76,,,,,,,,,,,0.85,0.48,0.70,2*05
$GNGSA,A,3,29,19,33,10,07,27,,,,,,,0.85,0.48,0.70,3*05
$GNGSA,A,3,41,25,32,33,24,30,23,27,40,,,,0.85,0.48,0.70,4*04
$GPGSV,4,1,14,31,66,126,31,03,65,301,31,28,47,061,28,04,34,261,24,1*65
$GPGSV,4,2,14,02,33,218,26,46,33,188,27,21,23,203,23,26,18,128,18,1*61
$GPGSV,4,3,14,32,15,076,18,25,13,039,17,19,07,314,20,06,06,332,18,1*62
$GPGSV,4,4,14,17,05,291,17,09,04,261,,1*66
$GLGSV,2,1,05,66,47,070,23,76,45,075,25,77,34,138,,82,32,247,,1*79
$GLGSV,2,2,05,68,18,285,,1*45
$GAGSV,3,1,10,29,75,055,28,19,54,263,23,12,45,289,16,33,39,209,24,7*7D
$GAGSV,3,2,10,10,30,314,22,07,21,072,12,30,19,055,19,27,19,107,19,7*75
$GAGSV,3,3,10,11,09,331,16,26,04,175,13,7*7C
$GBGSV,3,1,11,41,79,062,32,25,47,117,30,32,39,290,28,33,29,099,25,1*7C
$GBGSV,3,2,11,24,28,051,26,30,21,282,24,23,19,172,24,27,14,233,24,1*7A
$GBGSV,3,3,11,31,09,337,,29,08,334,21,40,05,300,16,1*4B
$GNRMC,193232.000,A,4910.426452,N,12304.406286,W,0.15,177.42,101024,,,D,V*15
$GNVTG,177.42,T,,M,0.15,N,0.28,K,D*2F
$GNGGA,193233.000,4910.426422,N,12304.406136,W,2,29,0.48,6.008,M,-16.816,M,,*4C
$GNGLL,4910.426422,N,12304.406136,W,193233.000,A,D*53
$GNGSA,A,3,31,03,28,04,02,21,26,32,25,19,06,17,0.85,0.48,0.70,1*03
$GNGSA,A,3,66,76,,,,,,,,,,,0.85,0.48,0.70,2*05
$GNGSA,A,3,29,19,33,10,07,27,,,,,,,0.85,0.48,0.70,3*05
$GNGSA,A,3,41,25,32,33,24,30,23,27,40,,,,0.85,0.48,0.70,4*04
$GPGSV,4,1,14,31,66,126,31,03,65,301,31,28,47,061,28,04,34,261,24,1*65
$GPGSV,4,2,14,46,33,188,27,02,33,218,26,21,23,203,20,26,18,128,18,1*62
$GPGSV,4,3,14,32,15,076,17,25,13,039,17,19,07,314,20,06,06,332,18,1*6D
$GPGSV,4,4,14,17,05,291,17,09,04,261,,1*66
$GLGSV,2,1,07,67,62,321,,66,47,070,23,76,45,075,25,83,37,300,,1*75
$GLGSV,2,2,07,77,34,138,,82,32,247,,68,18,285,,1*40
$GAGSV,3,1,10,29,75,055,28,19,54,263,22,12,45,289,16,33,39,209,23,7*7B
$GAGSV,3,2,10,10,30,314,22,07,21,072,12,30,19,055,19,27,19,107,19,7*75
$GAGSV,3,3,10,11,09,331,16,26,04,175,13,7*7C
$GBGSV,3,1,11,41,79,062,31,25,47,117,30,32,39,290,28,33,29,099,23,1*79
$GBGSV,3,2,11,24,28,051,26,30,21,282,24,23,19,172,24,27,14,233,23,1*7D
$GBGSV,3,3,11,31,09,337,,29,08,334,21,40,05,300,16,1*4B
$GNRMC,193233.000,A,4910.426422,N,12304.406136,W,0.14,177.42,101024,,,D,V*1A
$GNVTG,177.42,T,,M,0.14,N,0.26,K,D*20
$GNGGA,193234.000,4910.426392,N,12304.406076,W,2,29,0.48,5.950,M,-16.816,M,,*45
$GNGLL,4910.426392,N,12304.406076,W,193234.000,A,D*5D
$GNGSA,A,3,31,03,28,04,02,21,26,32,25,19,06,17,0.85,0.48,0.70,1*03
$GNGSA,A,3,66,76,,,,,,,,,,,0.85,0.48,0.70,2*05
$GNGSA,A,3,29,19,33,10,07,27,,,,,,,0.85,0.48,0.70,3*05
$GNGSA,A,3,41,25,32,33,24,30,23,27,40,,,,0.85,0.48,0.70,4*04
$GPGSV,4,1,14,31,66,126,31,03,65,301,31,28,47,061,28,04,34,261,24,1*65
$GPGSV,4,2,14,46,33,188,27,02,33,218,26,21,23,203,21,26,18,128,19,1*62
$GPGSV,4,3,14,32,15,076,17,25,13,039,16,19,07,314,20,06,06,332,18,1*6C
$GPGSV,4,4,14,17,05,291,17,09,04,261,,1*66
$GLGSV,2,1,07,67,62,321,,66,47,070,23,76,45,075,25,83,37,300,,1*75
$GLGSV,2,2,07,77,34,138,,82,32,247,,68,18,285,,1*40
$GAGSV,3,1,10,29,75,055,28,19,54,263,22,12,45,289,16,33,39,209,24,7*7C
$GAGSV,3,2,10,10,30,314,22,07,21,072,12,30,19,055,19,27,19,107,19,7*75
$GAGSV,3,3,10,11,09,331,16,26,04,175,13,7*7C
$GBGSV,3,1,11,41,79,062,31,25,47,117,30,32,39,290,28,33,29,099,25,1*7F
$GBGSV,3,2,11,24,28,051,25,30,21,282,24,23,19,172,26,27,14,233,23,1*7C
$GBGSV,3,3,11,31,09,337,,29,08,334,21,40,05,300,15,1*48
$GNRMC,193234.000,A,4910.426392,N,12304.406076,W,0.13,177.42,101024,,,D,V*13
$GNVTG,177.42,T,,M,0.13,N,0.25,K,D*24
$GNGGA,193235.000,4910.426374,N,12304.406010,W,2,29,0.48,5.909,M,-16.816,M,,*40
$GNGLL,4910.426374,N,12304.406010,W,193235.000,A,D*54
$GNGSA,A,3,31,03,28,04,02,21,26,32,25,19,06,17,0.85,0.48,0.70,1*03
$GNGSA,A,3,66,76,,,,,,,,,,,0.85,0.48,0.70,2*05
$GNGSA,A,3,29,19,33,10,07,27,,,,,,,0.85,0.48,0.70,3*05
$GNGSA,A,3,41,25,32,33,24,30,23,27,40,,,,0.85,0.48,0.70,4*04
$GPGSV,4,1,14,31,66,126,31,03,65,301,31,28,47,061,28,04,34,261,24,1*65
$GPGSV,4,2,14,46,33,188,27,02,33,218,26,21,23,203,22,26,18,128,20,1*6B
$GPGSV,4,3,14,32,15,076,17,25,13,039,16,19,07,314,20,06,06,332,18,1*6C
$GPGSV,4,4,14,17,05,291,17,09,04,261,,1*66
$GLGSV,2,1,07,67,62,321,,66,47,070,24,76,45,075,25,83,37,300,,1*72
$GLGSV,2,2,07,77,34,138,,82,32,247,,68,18,285,,1*40
$GAGSV,3,1,10,29,75,055,28,19,54,263,22,12,45,289,16,33,39,209,24,7*7C
$GAGSV,3,2,10,10,30,314,22,07,21,072,12,30,19,055,19,27,19,107,19,7*75
$GAGSV,3,3,10,11,09,331,16,26,04,175,13,7*7C
$GBGSV,3,1,11,41,79,062,31,25,47,117,30,32,39,290,28,33,29,099,25,1*7F
$GBGSV,3,2,11,24,28,051,25,30,21,282,24,23,19,172,26,27,14,233,23,1*7C
$GBGSV,3,3,11,31,09,337,,29,08,334,21,40,05,300,16,1*4B
$GNRMC,193235.000,A,4910.426374,N,12304.406010,W,0.13,177.42,101024,,,D,V*1A
$GNVTG,177.42,T,,M,0.13,N,0.23,K,D*22
$GNGGA,193236.000,4910.426272,N,12304.405944,W,2,29,0.48,5.913,M,-16.817,M,,*45
$GNGLL,4910.426272,N,12304.405944,W,193236.000,A,D*5B
$GNGSA,A,3,31,03,28,04,02,21,26,32,25,19,06,17,0.85,0.48,0.70,1*03
$GNGSA,A,3,66,76,,,,,,,,,,,0.85,0.48,0.70,2*05
$GNGSA,A,3,29,19,33,10,07,27,,,,,,,0.85,0.48,0.70,3*05
$GNGSA,A,3,41,25,32,33,24,30,23,27,40,,,,0.85,0.48,0.70,4*04
$GPGSV,4,1,14,31,66,126,31,03,65,301,32,28,47,061,28,04,34,261,24,1*66
$GPGSV,4,2,14,02,33,218,26,46,33,188,27,21,23,203,22,26,18,128,20,1*6B
$GPGSV,4,3,14,32,15,076,17,25,13,039,17,19,07,314,21,06,06,332,18,1*6C
$GPGSV,4,4,14,17,05,291,17,09,04,261,,1*66
$GLGSV,2,1,05,66,47,070,24,76,45,075,25,77,34,138,,82,32,247,,1*7E
$GLGSV,2,2,05,68,18,285,,1*45
$GAGSV,3,1,10,29,75,055,28,19,54,263,22,12,45,289,16,33,39,209,24,7*7C
$GAGSV,3,2,10,10,30,314,22,07,21,072,12,30,19,055,19,27,19,107,19,7*75
$GAGSV,3,3,10,11,09,331,16,26,04,175,13,7*7C
$GBGSV,3,1,11,41,79,062,31,25,47,117,30,32,39,290,28,33,29,099,25,1*7F
$GBGSV,3,2,11,24,28,051,26,30,21,282,24,23,19,172,25,27,14,233,23,1*7C
$GBGSV,3,3,11,31,09,337,,29,08,334,21,40,05,300,17,1*4A
$GNRMC,193236.000,A,4910.426272,N,12304.405944,W,0.12,177.42,101024,,,D,V*14
$GNVTG,177.42,T,,M,0.12,N,0.23,K,D*23
$GNGGA,193237.000,4910.426212,N,12304.406022,W,2,29,0.48,6.060,M,-16.816,M,,*47
$GNGLL,4910.426212,N,12304.406022,W,193237.000,A,D*56
$GNGSA,A,3,31,03,28,04,02,21,26,32,25,19,06,17,0.85,0.48,0.70,1*03
$GNGSA,A,3,66,76,,,,,,,,,,,0.85,0.48,0.70,2*05
$GNGSA,A,3,29,19,33,10,07,27,,,,,,,0.85,0.48,0.70,3*05
$GNGSA,A,3,41,25,32,33,24,30,23,27,40,,,,0.85,0.48,0.70,4*04
$GPGSV,4,1,14,31,66,126,32,03,65,301,33,28,47,061,29,04,34,261,25,1*64
$GPGSV,4,2,14,46,33,188,27,02,33,218,26,21,23,203,24,26,18,128,20,1*6D
$GPGSV,4,3,14,32,15,076,18,25,13,039,17,19,07,314,21,06,06,332,19,1*62
$GPGSV,4,4,14,17,05,291,17,09,04,261,,1*66
$GLGSV,1,1,04,66,47,070,24,76,45,075,25,77,34,138,,82,32,247,,1*7C
$GAGSV,3,1,10,29,75,055,29,19,54,263,23,12,45,289,16,33,39,209,25,7*7D
$GAGSV,3,2,10,10,30,314,22,07,21,072,12,27,19,107,19,30,19,055,20,7*7F
$GAGSV,3,3,10,11,09,331,16,26,04,175,13,7*7C
$GBGSV,3,1,11,41,79,062,31,25,47,117,30,32,39,290,28,33,29,099,25,1*7F
$GBGSV,3,2,11,24,28,051,26,30,21,282,24,23,19,172,25,27,14,233,22,1*7D
$GBGSV,3,3,11,31,09,337,,29,08,334,22,40,05,300,15,1*4B
$GNRMC,193237.000,A,4910.426212,N,12304.406022,W,0.11,177.42,101024,,,D,V*1A
$GNVTG,177.42,T,,M,0.11,N,0.21,K,D*22
$GNGGA,193238.000,4910.426152,N,12304.406022,W,2,29,0.48,6.179,M,-16.816,M,,*46
$GNGLL,4910.426152,N,12304.406022,W,193238.000,A,D*5E
$GNGSA,A,3,31,03,28,04,02,21,26,32,25,19,06,17,0.85,0.48,0.70,1*03
$GNGSA,A,3,66,76,,,,,,,,,,,0.85,0.48,0.70,2*05
$GNGSA,A,3,29,19,33,10,07,27,,,,,,,0.85,0.48,0.70,3*05
$GNGSA,A,3,41,25,32,33,24,30,23,27,40,,,,0.85,0.48,0.70,4*04
$GPGSV,4,1,14,31,66,126,32,03,65,301,33,28,47,061,29,04,34,261,25,1*64
$GPGSV,4,2,14,46,33,188,27,02,33,218,26,21,23,203,24,26,18,128,21,1*6C
$GPGSV,4,3,14,32,15,076,18,25,13,039,16,19,07,314,21,06,06,332,19,1*63
$GPGSV,4,4,14,17,05,291,17,09,04,261,,1*66
$GLGSV,2,1,07,67,62,321,,66,47,070,24,76,45,075,25,83,37,300,,1*72
$GLGSV,2,2,07,77,34,138,,82,32,247,,68,18,285,,1*40
$GAGSV,3,1,10,29,75,055,29,19,54,263,23,12,45,289,17,33,39,209,25,7*7C
$GAGSV,3,2,10,10,30,314,22,07,21,072,12,30,19,055,20,27,19,107,19,7*7F
$GAGSV,3,3,10,11,09,331,16,26,04,175,13,7*7C
$GBGSV,3,1,11,41,79,062,32,25,47,117,31,32,39,290,28,33,29,099,27,1*7F
$GBGSV,3,2,11,24,28,051,26,30,21,282,24,23,19,172,25,27,14,233,24,1*7B
$GBGSV,3,3,11,31,09,337,,29,08,334,22,40,05,300,17,1*49
$GNRMC,193238.000,A,4910.426152,N,12304.406022,W,0.10,177.42,101024,,,D,V*13
$GNVTG,177.42,T,,M,0.10,N,0.19,K,D*28
$GNGGA,193239.000,4910.426044,N,12304.405968,W,2,29,0.48,6.254,M,-16.816,M,,*49
$GNGLL,4910.426044,N,12304.405968,W,193239.000,A,D*5D
$GNGSA,A,3,31,03,28,04,02,21,26,32,25,19,06,17,0.85,0.48,0.70,1*03
$GNGSA,A,3,66,76,,,,,,,,,,,0.85,0.48,0.70,2*05
$GNGSA,A,3,29,19,33,10,07,27,,,,,,,0.85,0.48,0.70,3*05
$GNGSA,A,3,41,25,32,33,24,30,23,27,40,,,,0.85,0.48,0.70,4*04
$GPGSV,4,1,14,31,66,126,30,03,65,301,32,28,47,061,27,04,34,261,24,1*68
$GPGSV,4,2,14,46,33,188,26,02,33,218,25,21,23,203,21,26,18,128,20,1*6A
$GPGSV,4,3,14,32,15,076,16,25,13,039,14,19,07,314,21,06,06,332,18,1*6E
$GPGSV,4,4,14,17,05,291,17,09,04,261,,1*66
$GLGSV,2,1,07,67,62,321,,66,47,070,24,76,45,075,25,83,37,300,,1*72
$GLGSV,2,2,07,77,34,138,,82,32,247,,68,18,285,,1*40
$GAGSV,3,1,10,29,75,055,28,19,54,263,22,12,45,289,17,33,39,209,23,7*7A
$GAGSV,3,2,10,10,30,314,21,07,21,072,12,30,19,055,19,27,19,107,18,7*77
$GAGSV,3,3,10,11,09,331,16,26,04,175,13,7*7C
$GBGSV,3,1,11,41,79,062,32,25,47,117,31,32,39,290,28,33,29,099,26,1*7E
$GBGSV,3,2,11,24,28,051,26,30,21,282,24,23,19,172,25,27,14,233,23,1*7C
$GBGSV,3,3,11,31,09,337,,29,08,334,22,40,05,300,16,1*48
$GNRMC,193239.000,A,4910.426044,N,12304.405968,W,0.10,177.42,101024,,,D,V*10
$GNVTG,177.42,T,,M,0.10,N,0.18,K,D*29
$GNGGA,193240.000,4910.425948,N,12304.405926,W,2,29,0.48,6.296,M,-16.816,M,,*45
$GNGLL,4910.425948,N,12304.405926,W,193240.000,A,D*5F
$GNGSA,A,3,31,03,28,04,02,21,26,32,25,19,06,17,0.85,0.48,0.70,1*03
$GNGSA,A,3,66,76,,,,,,,,,,,0.85,0.48,0.70,2*05
$GNGSA,A,3,29,19,33,10,07,27,,,,,,,0.85,0.48,0.70,3*05
$GNGSA,A,3,41,25,32,33,24,30,23,27,40,,,,0.85,0.48,0.70,4*04
$GPGSV,4,1,14,31,66,126,30,03,65,301,32,28,47,061,27,04,34,261,24,1*68
$GPGSV,4,2,14,46,33,188,26,02,33,218,25,21,23,203,22,26,18,128,20,1*69
$GPGSV,4,3,14,32,15,076,16,25,13,039,15,19,07,314,21,06,06,332,18,1*6F
$GPGSV,4,4,14,17,05,291,17,09,04,261,,1*66
$GLGSV,2,1,07,67,62,321,,66,47,070,24,76,45,075,24,83,37,300,,1*73
$GLGSV,2,2,07,77,34,138,,82,32,247,,68,18,285,,1*40
$GAGSV,3,1,10,29,75,055,28,19,54,263,22,12,45,289,16,33,39,209,23,7*7B
$GAGSV,3,2,10,10,30,314,21,07,21,072,12,30,19,055,19,27,19,107,18,7*77
$GAGSV,3,3,10,11,09,331,16,26,04,175,13,7*7C
$GBGSV,3,1,11,41,79,062,31,25,47,117,30,32,39,290,28,33,29,099,25,1*7F
$GBGSV,3,2,11,24,28,051,26,30,21,282,24,23,19,172,24,27,14,233,22,1*7C
$GBGSV,3,3,11,31,09,337,,29,08,334,22,40,05,300,16,1*48
$GNRMC,193240.000,A,4910.425948,N,12304.405926,W,0.10,177.42,101024,,,D,V*12
$GNVTG,177.42,T,,M,0.10,N,0.19,K,D*28
$GNGGA,193241.000,4910.425780,N,12304.405836,W,2,29,0.48,6.258,M,-16.816,M,,*4C
$GNGLL,4910.425780,N,12304.405836,W,193241.000,A,D*54
$GNGSA,A,3,31,03,28,04,02,21,26,32,25,19,06,17,0.85,0.48,0.70,1*03
$GNGSA,A,3,66,76,,,,,,,,,,,0.85,0.48,0.70,2*05
$GNGSA,A,3,29,19,33,10,07,27,,,,,,,0.85,0.48,0.70,3*05
$GNGSA,A,3,41,25,32,33,24,30,23,27,40,,,,0.85,0.48,0.70,4*04
$GPGSV,4,1,14,31,66,126,31,03,65,301,32,28,47,061,28,04,34,261,24,1*66
$GPGSV,4,2,14,46,33,188,26,02,33,218,25,21,23,203,24,26,18,128,19,1*65
$GPGSV,4,3,14,32,15,076,16,25,13,039,15,19,07,314,21,06,06,332,18,1*6F
$GPGSV,4,4,14,17,05,291,17,09,04,261,,1*66
$GLGSV,2,1,07,67,62,321,,66,47,070,24,76,45,075,24,83,37,300,,1*73
$GLGSV,2,2,07,77,34,138,,82,32,247,,68,18,285,,1*40
$GAGSV,3,1,10,29,75,055,28,19,54,263,22,12,45,289,16,33,39,209,23,7*7B
$GAGSV,3,2,10,10,30,314,21,07,21,072,12,30,19,055,19,27,19,107,18,7*77
$GAGSV,3,3,10,11,09,331,16,26,04,175,13,7*7C
$GBGSV,3,1,11,41,79,062,31,25,47,117,30,32,39,290,28,33,29,099,25,1*7F
$GBGSV,3,2,11,24,28,051,26,30,21,282,24,23,19,172,24,27,14,233,22,1*7C
$GBGSV,3,3,11,31,09,337,,29,08,334,22,40,05,300,16,1*48
$GNRMC,193241.000,A,4910.425780,N,12304.405836,W,0.12,177.42,101024,,,D,V*1B
$GNVTG,177.42,T,,M,0.12,N,0.22,K,D*22
$GNGGA,193242.000,4910.425786,N,12304.405818,W,2,29,0.48,6.365,M,-16.817,M,,*4B
$GNGLL,4910.425786,N,12304.405818,W,193242.000,A,D*5D
$GNGSA,A,3,31,03,28,04,02,21,26,32,25,19,06,17,0.85,0.48,0.70,1*03
$GNGSA,A,3,66,76,,,,,,,,,,,0.85,0.48,0.70,2*05
$GNGSA,A,3,29,19,33,10,07,27,,,,,,,0.85,0.48,0.70,3*05
$GNGSA,A,3,41,25,32,33,24,30,23,27,40,,,,0.85,0.48,0.70,4*04
$GPGSV,4,1,14,31,66,126,32,03,65,301,33,28,47,061,29,04,34,261,24,1*65
$GPGSV,4,2,14,46,33,188,26,02,33,218,26,21,23,203,25,26,18,128,20,1*6D
$GPGSV,4,3,14,32,15,076,17,25,13,039,16,19,07,314,21,06,06,332,19,1*6C
$GPGSV,4,4,14,17,05,291,17,09,04,261,,1*66
$GLGSV,2,1,06,67,62,321,,66,47,070,24,76,45,075,24,83,37,300,,1*72
$GLGSV,2,2,06,77,34,138,,82,32,247,,1*79
$GAGSV,3,1,10,29,75,055,29,19,54,263,22,12,45,289,16,33,39,209,24,7*7D
$GAGSV,3,2,10,10,30,314,21,07,21,072,12,27,19,107,18,30,19,055,19,7*77
$GAGSV,3,3,10,11,09,331,16,26,04,175,13,7*7C
$GBGSV,3,1,11,41,79,062,31,25,47,117,30,32,39,290,28,33,29,099,24,1*7E
$GBGSV,3,2,11,24,28,051,26,30,21,282,23,23,19,172,24,27,14,233,21,1*78
$GBGSV,3,3,11,31,09,337,,29,08,334,22,40,05,300,16,1*48
$GNRMC,193242.000,A,4910.425786,N,12304.405818,W,0.13,177.42,101024,,,D,V*13
$GNVTG,177.42,T,,M,0.13,N,0.24,K,D*25
$GNGGA,193243.000,4910.425678,N,12304.405692,W,2,29,0.48,6.499,M,-16.817,M,,*42
$GNGLL,4910.425678,N,12304.405692,W,193243.000,A,D*50
$GNGSA,A,3,31,03,28,04,02,21,26,32,25,19,06,17,0.85,0.48,0.70,1*03
$GNGSA,A,3,66,76,,,,,,,,,,,0.85,0.48,0.70,2*05
$GNGSA,A,3,29,19,33,10,07,27,,,,,,,0.85,0.48,0.70,3*05
$GNGSA,A,3,41,25,32,33,24,30,23,27,40,,,,0.85,0.48,0.70,4*04
$GPGSV,4,1,14,31,66,126,32,03,65,301,33,28,47,061,29,04,34,261,24,1*65
$GPGSV,4,2,14,02,33,218,26,46,33,188,26,21,23,203,25,26,18,128,21,1*6C
$GPGSV,4,3,14,32,15,076,17,25,13,039,16,19,07,314,21,06,06,332,20,1*66
$GPGSV,4,4,14,17,05,291,17,09,04,261,,1*66
$GLGSV,2,1,06,66,47,070,24,76,45,075,23,83,37,300,,77,34,138,,1*7D
$GLGSV,2,2,06,82,32,247,,68,18,285,,1*7C
$GAGSV,3,1,10,29,75,055,29,19,54,263,22,12,45,289,17,33,39,209,24,7*7C
$GAGSV,3,2,10,10,30,314,21,07,21,072,12,30,19,055,19,27,19,107,18,7*77
$GAGSV,3,3,10,11,09,331,16,26,04,175,13,7*7C
$GBGSV,3,1,11,41,79,062,31,25,47,117,30,32,39,290,28,33,29,099,23,1*79
$GBGSV,3,2,11,24,28,051,26,30,21,282,23,23,19,172,24,27,14,233,21,1*78
$GBGSV,3,3,11,31,09,337,,29,08,334,22,40,05,300,16,1*48
$GNRMC,193243.000,A,4910.425678,N,12304.405692,W,0.13,177.42,101024,,,D,V*1E
$GNVTG,177.42,T,,M,0.13,N,0.25,K,D*24
$GNGGA,193244.000,4910.425606,N,12304.405674,W,2,29,0.48,6.721,M,-16.817,M,,*44
$GNGLL,4910.425606,N,12304.405674,W,193244.000,A,D*56
$GNGSA,A,3,31,03,28,04,02,21,26,32,25,19,06,17,0.85,0.48,0.70,1*03
$GNGSA,A,3,66,76,,,,,,,,,,,0.85,0.48,0.70,2*05
$GNGSA,A,3,29,19,33,10,07,27,,,,,,,0.85,0.48,0.70,3*05
$GNGSA,A,3,41,25,32,33,24,30,23,27,40,,,,0.85,0.48,0.70,4*04
$GPGSV,4,1,14,31,66,126,32,03,65,301,33,28,47,061,29,04,34,261,24,1*65
$GPGSV,4,2,14,46,33,188,26,02,33,218,26,21,23,203,24,26,18,128,21,1*6D
$GPGSV,4,3,14,32,15,076,17,25,13,039,16,19,07,314,21,06,06,332,20,1*66
$GPGSV,4,4,14,17,05,291,17,09,04,261,,1*66
$GLGSV,2,1,07,67,62,321,,66,47,070,24,76,45,075,22,83,37,300,,1*75
$GLGSV,2,2,07,77,34,138,,82,32,247,,68,18,285,,1*40
$GAGSV,3,1,10,29,75,055,29,19,54,263,22,12,45,289,17,33,39,209,24,7*7C
$GAGSV,3,2,10,10,30,314,21,07,21,072,12,30,19,055,19,27,19,107,18,7*77
$GAGSV,3,3,10,11,09,331,15,26,04,175,13,7*7F
$GBGSV,3,1,11,41,79,062,31,25,47,117,30,32,39,290,28,33,29,099,24,1*7E
$GBGSV,3,2,11,24,28,051,26,30,21,282,24,23,19,172,24,27,14,233,22,1*7C
$GBGSV,3,3,11,31,09,337,,29,08,334,22,40,05,300,16,1*48
$GNRMC,193244.000,A,4910.425606,N,12304.405674,W,0.14,177.42,101024,,,D,V*1F
$GNVTG,177.42,T,,M,0.14,N,0.26,K,D*20
$GNGGA,193245.000,4910.425606,N,12304.405782,W,2,29,0.48,6.844,M,-16.817,M,,*41
$GNGLL,4910.425606,N,12304.405782,W,193245.000,A,D*5F
$GNGSA,A,3,31,03,28,04,02,21,26,32,25,19,06,17,0.85,0.48,0.70,1*03
$GNGSA,A,3,66,76,,,,,,,,,,,0.85,0.48,0.70,2*05
$GNGSA,A,3,29,19,33,10,07,27,,,,,,,0.85,0.48,0.70,3*05
$GNGSA,A,3,41,25,32,33,24,30,23,27,40,,,,0.85,0.48,0.70,4*04
$GPGSV,4,1,14,31,66,126,32,03,65,301,33,28,47,061,29,04,34,261,24,1*65
$GPGSV,4,2,14,46,33,188,26,02,33,218,26,21,23,203,24,26,18,128,22,1*6E
$GPGSV,4,3,14,32,15,076,18,25,13,039,16,19,07,314,21,06,06,332,20,1*69
$GPGSV,4,4,14,17,05,291,17,09,04,261,,1*66
$GLGSV,2,1,06,67,62,321,,66,47,070,24,76,45,075,22,83,37,300,,1*74
$GLGSV,2,2,06,77,34,138,,82,32,247,,1*79
$GAGSV,3,1,10,29,75,055,29,19,54,263,22,12,45,289,17,33,39,209,25,7*7D
$GAGSV,3,2,10,10,30,314,22,07,21,072,12,27,19,107,19,30,19,055,19,7*75
$GAGSV,3,3,10,11,09,331,15,26,04,175,13,7*7F
$GBGSV,3,1,11,41,79,062,31,25,47,117,30,32,39,290,28,33,29,099,24,1*7E
