$GNGGA,204014.000,4910.429122,N,12304.399680,W,2,30,0.51,8.014,M,-16.816,M,,*44
$GNGLL,4910.429122,N,12304.399680,W,204014.000,A,D*58
$GNGSA,A,3,03,04,31,26,09,06,28,16,02,,,,0.89,0.51,0.73,1*01
$GNGSA,A,3,66,76,77,75,65,82,,,,,,,0.89,0.51,0.73,2*09
$GNGSA,A,3,09,06,05,04,34,36,31,15,,,,,0.89,0.51,0.73,3*08
$GNGSA,A,3,20,37,32,23,19,35,29,,,,,,0.89,0.51,0.73,4*06
$GPGSV,3,1,10,03,77,197,43,04,59,283,40,31,56,064,41,26,37,103,39,1*67
$GPGSV,3,2,10,44,33,171,36,09,26,277,35,06,23,314,36,28,23,052,35,1*61
$GPGSV,3,3,10,16,20,138,32,02,08,205,33,1*66
$GLGSV,2,1,06,66,69,050,41,76,58,112,37,77,29,170,28,75,27,033,32,1*79
$GLGSV,2,2,06,65,26,102,25,82,24,275,34,1*76
$GAGSV,3,1,11,09,81,018,39,06,60,075,38,05,36,274,33,04,34,082,35,7*75
$GAGSV,3,2,11,34,34,295,33,36,33,231,33,31,29,123,34,15,06,338,27,7*78
$GAGSV,3,3,11,11,04,190,19,24,03,166,18,21,03,020,27,7*4D
$GBGSV,3,1,12,20,69,304,36,37,51,155,30,32,50,114,28,23,45,067,33,1*71
$GBGSV,3,2,12,58,33,069,,19,19,298,22,35,10,310,27,46,09,195,,1*73
$GBGSV,3,3,12,31,07,330,,29,05,256,14,25,03,035,17,04,01,261,,1*7E
$GNRMC,204014.000,A,4910.429122,N,12304.399680,W,0.01,0.00,091024,,,D,V*1A
$GNVTG,0.00,T,,M,0.01,N,0.03,K,D*24
$GNGGA,204015.000,4910.429116,N,12304.399626,W,2,30,0.51,7.985,M,-16.816,M,,*40
$GNGLL,4910.429116,N,12304.399626,W,204015.000,A,D*52
$GNGSA,A,3,03,04,31,26,09,28,06,16,02,,,,0.89,0.51,0.73,1*01
$GNGSA,A,3,66,76,77,75,65,82,,,,,,,0.89,0.51,0.73,2*09
$GNGSA,A,3,09,06,05,04,34,36,31,15,,,,,0.89,0.51,0.73,3*08
$GNGSA,A,3,20,37,32,23,19,35,29,,,,,,0.89,0.51,0.73,4*06
$GPGSV,3,1,10,03,77,197,43,04,59,283,40,31,56,064,41,26,37,103,38,1*66
$GPGSV,3,2,10,44,33,171,35,09,26,277,34,28,23,052,35,06,23,314,36,1*63
$GPGSV,3,3,10,16,20,138,32,02,08,205,33,1*66
$GLGSV,2,1,07,66,69,050,40,76,58,112,37,67,40,307,,77,29,170,28,1*7E
$GLGSV,2,2,07,75,27,033,32,65,26,102,25,82,24,275,34,1*41
$GAGSV,3,1,11,09,81,018,39,06,60,075,38,05,36,274,33,04,34,082,35,7*75
$GAGSV,3,2,11,34,34,295,32,36,33,231,33,31,29,123,34,15,06,338,26,7*78
$GAGSV,3,3,11,11,04,190,19,24,03,166,18,21,03,020,26,7*4C
$GBGSV,3,1,12,20,69,304,36,37,51,155,31,32,50,114,29,23,45,067,33,1*71
$GBGSV,3,2,12,58,33,069,,19,19,298,23,35,10,310,28,46,09,195,,1*7D
$GBGSV,3,3,12,31,07,330,,29,05,256,17,25,03,035,16,04,01,261,,1*7C
$GNRMC,204015.000,A,4910.429116,N,12304.399626,W,0.01,0.00,091024,,,D,V*10
$GNVTG,0.00,T,,M,0.01,N,0.03,K,D*24
$GNGGA,204016.000,4910.429032,N,12304.399620,W,2,30,0.51,8.024,M,-16.817,M,,*4E
$GNGLL,4910.429032,N,12304.399620,W,204016.000,A,D*50
$GNGSA,A,3,03,04,31,26,09,28,06,16,02,,,,0.89,0.51,0.73,1*01
$GNGSA,A,3,66,76,77,75,65,82,,,,,,,0.89,0.51,0.73,2*09
$GNGSA,A,3,09,06,05,04,34,36,31,15,,,,,0.89,0.51,0.73,3*08
$GNGSA,A,3,20,37,32,23,19,35,29,,,,,,0.89,0.51,0.73,4*06
$GPGSV,3,1,10,03,77,197,43,04,59,283,40,31,56,064,41,26,37,103,38,1*66
$GPGSV,3,2,10,44,33,171,35,09,26,277,34,28,23,052,35,06,23,314,36,1*63
$GPGSV,3,3,10,16,20,138,31,02,08,205,33,1*65
$GLGSV,2,1,07,66,69,050,40,76,58,112,37,67,40,307,,77,29,170,28,1*7E
$GLGSV,2,2,07,75,27,033,32,65,26,102,25,82,24,275,34,1*41
$GAGSV,3,1,11,09,81,018,39,06,60,075,38,05,36,274,33,04,34,082,35,7*75
$GAGSV,3,2,11,34,34,295,32,36,33,231,33,31,29,123,34,15,06,338,26,7*78
$GAGSV,3,3,11,11,04,190,19,24,03,166,18,21,03,020,26,7*4C
$GBGSV,3,1,12,20,69,304,36,37,52,155,31,32,50,114,29,23,45,067,33,1*72
$GBGSV,3,2,12,58,33,069,,19,19,298,23,35,10,310,28,46,09,195,,1*7D
$GBGSV,3,3,12,31,07,330,,29,05,256,16,25,03,035,15,04,01,261,,1*7E
$GNRMC,204016.000,A,4910.429032,N,12304.399620,W,0.02,0.00,091024,,,D,V*11
$GNVTG,0.00,T,,M,0.02,N,0.03,K,D*27
$GNGGA,204017.000,4910.428996,N,12304.399566,W,2,30,0.51,8.054,M,-16.816,M,,*4E
$GNGLL,4910.428996,N,12304.399566,W,204017.000,A,D*56
$GNGSA,A,3,03,04,31,26,09,28,06,16,02,,,,0.89,0.51,0.73,1*01
$GNGSA,A,3,66,76,77,75,65,82,,,,,,,0.89,0.51,0.73,2*09
$GNGSA,A,3,09,06,05,04,34,36,31,15,,,,,0.89,0.51,0.73,3*08
$GNGSA,A,3,20,37,32,23,19,35,29,,,,,,0.89,0.51,0.73,4*06
$GPGSV,3,1,10,03,77,197,43,04,59,283,40,31,56,064,41,26,37,103,38,1*66
$GPGSV,3,2,10,44,33,171,35,09,26,277,34,28,23,052,35,06,23,314,36,1*63
$GPGSV,3,3,10,16,20,138,31,02,08,205,33,1*65
$GLGSV,2,1,07,66,69,050,41,76,58,112,37,67,40,307,,77,29,170,28,1*7F
$GLGSV,2,2,07,75,27,033,32,65,26,102,25,82,24,275,35,1*40
$GAGSV,3,1,11,09,81,018,39,06,60,075,38,05,36,274,33,04,34,082,35,7*75
$GAGSV,3,2,11,34,34,295,32,36,33,231,33,31,29,123,34,15,06,338,26,7*78
$GAGSV,3,3,11,11,04,190,19,24,03,166,18,21,03,020,27,7*4D
$GBGSV,3,1,12,20,69,304,36,37,52,155,31,32,50,114,29,23,45,067,33,1*72
$GBGSV,3,2,12,58,33,069,,19,19,298,23,35,10,310,26,46,09,195,,1*73
$GBGSV,3,3,12,31,07,330,,29,05,256,16,25,03,035,18,04,01,261,,1*73
$GNRMC,204017.000,A,4910.428996,N,12304.399566,W,0.02,0.00,091024,,,D,V*17
$GNVTG,0.00,T,,M,0.02,N,0.03,K,D*27
$GNGGA,204018.000,4910.428984,N,12304.399596,W,2,30,0.51,8.056,M,-16.817,M,,*4E
$GNGLL,4910.428984,N,12304.399596,W,204018.000,A,D*55
$GNGSA,A,3,03,04,31,26,09,28,06,16,02,,,,0.89,0.51,0.73,1*01
$GNGSA,A,3,66,76,77,75,65,82,,,,,,,0.89,0.51,0.73,2*09
$GNGSA,A,3,09,06,05,04,34,36,31,15,,,,,0.89,0.51,0.73,3*08
$GNGSA,A,3,20,37,32,23,19,35,29,,,,,,0.89,0.51,0.73,4*06
$GPGSV,3,1,10,03,77,197,43,04,59,283,40,31,56,064,41,26,37,103,38,1*66
$GPGSV,3,2,10,44,33,171,35,09,26,277,34,28,23,052,35,06,23,314,36,1*63
$GPGSV,3,3,10,16,20,138,31,02,08,205,33,1*65
$GLGSV,2,1,07,66,69,050,41,76,58,112,37,67,40,307,,77,29,170,27,1*70
$GLGSV,2,2,07,75,27,033,32,65,26,102,26,82,24,275,35,1*43
$GAGSV,3,1,11,09,81,018,39,06,60,075,38,05,36,274,33,04,34,082,35,7*75
$GAGSV,3,2,11,34,34,295,32,36,33,231,33,31,29,123,34,15,06,338,26,7*78
$GAGSV,3,3,11,11,04,190,19,24,03,166,17,21,03,020,27,7*42
$GBGSV,3,1,12,20,69,304,36,37,52,155,31,32,50,114,29,23,45,067,33,1*72
$GBGSV,3,2,12,58,33,069,,19,19,298,23,35,10,310,26,46,09,195,,1*73
$GBGSV,3,3,12,31,07,330,,29,05,256,17,25,03,035,17,04,01,261,,1*7D
$GNRMC,204018.000,A,4910.428984,N,12304.399596,W,0.02,0.00,091024,,,D,V*14
$GNVTG,0.00,T,,M,0.02,N,0.03,K,D*27
$GNGGA,204019.000,4910.428924,N,12304.399602,W,2,30,0.51,8.128,M,-16.816,M,,*42
$GNGLL,4910.428924,N,12304.399602,W,204019.000,A,D*50
$GNGSA,A,3,03,04,31,26,09,28,06,16,02,,,,0.89,0.51,0.73,1*01
$GNGSA,A,3,66,76,77,75,65,82,,,,,,,0.89,0.51,0.73,2*09
$GNGSA,A,3,09,06,05,04,34,36,31,15,,,,,0.89,0.51,0.73,3*08
$GNGSA,A,3,20,37,32,23,19,35,29,,,,,,0.89,0.51,0.73,4*06
$GPGSV,3,1,10,03,77,197,43,04,59,283,40,31,56,064,41,26,37,103,38,1*66
$GPGSV,3,2,10,44,33,171,35,09,26,277,34,28,23,052,35,06,23,314,36,1*63
$GPGSV,3,3,10,16,20,138,31,02,08,205,33,1*65
$GLGSV,2,1,07,66,69,050,41,76,58,112,37,67,40,307,,77,29,170,27,1*70
$GLGSV,2,2,07,75,27,033,32,65,26,102,27,82,24,275,35,1*42
$GAGSV,3,1,11,09,81,018,39,06,60,075,38,05,36,274,33,04,34,082,35,7*75
$GAGSV,3,2,11,34,34,295,32,36,33,231,33,31,29,123,34,15,06,338,27,7*79
$GAGSV,3,3,11,11,04,190,19,24,03,166,17,21,03,020,27,7*42
$GBGSV,3,1,12,20,69,304,29,37,52,155,30,32,50,114,28,23,45,067,31,1*7E
$GBGSV,3,2,12,58,33,069,,19,19,298,22,35,10,310,27,46,09,195,,1*73
$GBGSV,3,3,12,31,07,330,,29,05,256,17,25,03,035,16,04,01,261,,1*7C
$GNRMC,204019.000,A,4910.428924,N,12304.399602,W,0.02,0.00,091024,,,D,V*11
$GNVTG,0.00,T,,M,0.02,N,0.03,K,D*27
$GNGGA,204020.000,4910.428906,N,12304.399662,W,2,30,0.51,8.077,M,-16.816,M,,*45
$GNGLL,4910.428906,N,12304.399662,W,204020.000,A,D*5C
$GNGSA,A,3,03,04,31,26,09,28,06,16,02,,,,0.89,0.51,0.73,1*01
$GNGSA,A,3,66,76,77,75,65,82,,,,,,,0.89,0.51,0.73,2*09
$GNGSA,A,3,09,06,05,04,34,36,31,15,,,,,0.89,0.51,0.73,3*08
$GNGSA,A,3,20,37,32,23,19,35,29,,,,,,0.89,0.51,0.73,4*06
$GPGSV,3,1,10,03,77,197,43,04,59,283,40,31,56,064,41,26,37,103,38,1*66
$GPGSV,3,2,10,44,33,171,35,09,26,277,34,28,23,052,35,06,23,314,36,1*63
$GPGSV,3,3,10,16,20,138,31,02,08,205,33,1*65
$GLGSV,2,1,07,66,69,050,41,76,58,112,38,67,40,307,,77,29,170,27,1*7F
$GLGSV,2,2,07,75,27,033,32,65,26,102,27,82,24,275,35,1*42
$GAGSV,3,1,11,09,81,018,39,06,60,075,38,05,36,274,33,04,34,082,35,7*75
$GAGSV,3,2,11,34,34,295,32,36,33,231,33,31,29,123,34,15,06,338,26,7*78
$GAGSV,3,3,11,11,04,190,19,24,03,166,17,21,03,020,27,7*42
$GBGSV,3,1,12,20,69,304,30,37,52,155,29,32,50,114,28,23,45,067,31,1*7E
$GBGSV,3,2,12,58,33,069,,19,19,298,21,35,10,310,28,46,09,195,,1*7F
$GBGSV,3,3,12,31,07,330,,29,05,256,16,25,03,035,16,04,01,261,,1*7D
$GNRMC,204020.000,A,4910.428906,N,12304.399662,W,0.01,0.00,091024,,,D,V*1E
$GNVTG,0.00,T,,M,0.01,N,0.02,K,D*25
$GNGGA,204021.000,4910.428828,N,12304.399722,W,2,30,0.51,8.067,M,-16.816,M,,*4D
$GNGLL,4910.428828,N,12304.399722,W,204021.000,A,D*55
$GNGSA,A,3,03,04,31,26,09,28,06,16,02,,,,0.89,0.51,0.73,1*01
$GNGSA,A,3,66,76,77,75,65,82,,,,,,,0.89,0.51,0.73,2*09
$GNGSA,A,3,09,06,05,04,34,36,31,15,,,,,0.89,0.51,0.73,3*08
$GNGSA,A,3,20,37,32,23,19,35,29,,,,,,0.89,0.51,0.73,4*06
$GPGSV,3,1,10,03,77,197,43,04,59,283,40,31,56,064,41,26,37,103,38,1*66
$GPGSV,3,2,10,44,33,171,35,09,26,277,34,28,23,052,35,06,23,314,36,1*63
$GPGSV,3,3,10,16,20,138,31,02,08,205,33,1*65
$GLGSV,2,1,07,66,69,050,41,76,58,112,38,67,40,307,,77,29,170,27,1*7F
$GLGSV,2,2,07,75,27,033,32,65,26,102,27,82,24,275,35,1*42
$GAGSV,3,1,11,09,81,018,39,06,60,075,38,05,36,274,33,04,34,082,35,7*75
$GAGSV,3,2,11,34,34,295,32,36,33,231,33,31,29,123,34,15,06,338,26,7*78
$GAGSV,3,3,11,11,04,190,19,24,03,166,18,21,03,020,27,7*4D
$GBGSV,3,1,12,20,69,304,31,37,52,155,29,32,50,114,28,23,45,067,31,1*7F
$GBGSV,3,2,12,58,33,069,,19,19,298,20,35,10,310,28,46,09,195,,1*7E
$GBGSV,3,3,12,31,07,330,,29,05,256,16,25,03,035,16,04,01,261,,1*7D
$GNRMC,204021.000,A,4910.428828,N,12304.399722,W,0.01,0.00,091024,,,D,V*17
$GNVTG,0.00,T,,M,0.01,N,0.03,K,D*24
$GNGGA,204022.000,4910.428792,N,12304.399782,W,2,30,0.51,8.138,M,-16.816,M,,*41
$GNGLL,4910.428792,N,12304.399782,W,204022.000,A,D*52
$GNGSA,A,3,03,04,31,26,09,28,06,16,02,,,,0.89,0.51,0.73,1*01
$GNGSA,A,3,66,76,77,75,65,82,,,,,,,0.89,0.51,0.73,2*09
$GNGSA,A,3,09,06,05,04,34,36,31,15,,,,,0.89,0.51,0.73,3*08
$GNGSA,A,3,20,37,32,23,19,35,29,,,,,,0.89,0.51,0.73,4*06
$GPGSV,3,1,10,03,77,197,43,04,59,283,40,31,56,064,41,26,37,103,38,1*66
$GPGSV,3,2,10,44,33,171,35,09,26,277,34,28,23,052,35,06,23,314,36,1*63
$GPGSV,3,3,10,16,20,138,31,02,08,205,33,1*65
$GLGSV,2,1,07,66,69,050,41,76,58,112,38,67,40,307,,77,29,170,28,1*70
$GLGSV,2,2,07,75,27,033,32,65,26,102,27,82,24,275,35,1*42
$GAGSV,3,1,11,09,81,018,39,06,60,075,38,05,36,274,33,04,34,082,35,7*75
$GAGSV,3,2,11,34,34,295,32,36,33,231,33,31,29,123,34,15,06,338,26,7*78
$GAGSV,3,3,11,11,04,190,19,24,03,166,18,21,03,020,27,7*4D
$GBGSV,3,1,12,20,69,304,33,37,52,155,30,32,50,114,29,23,45,067,32,1*77
$GBGSV,3,2,12,58,33,069,,19,19,298,21,35,10,310,28,46,09,195,,1*7F
$GBGSV,3,3,12,31,07,330,,29,05,256,16,25,03,035,15,04,01,261,,1*7E
$GNRMC,204022.000,A,4910.428792,N,12304.399782,W,0.02,0.00,091024,,,D,V*13
$GNVTG,0.00,T,,M,0.02,N,0.03,K,D*27
$GNGGA,204023.000,4910.428786,N,12304.399872,W,2,30,0.51,8.160,M,-16.816,M,,*48
$GNGLL,4910.428786,N,12304.399872,W,204023.000,A,D*56
$GNGSA,A,3,03,04,31,26,09,28,06,16,02,,,,0.89,0.51,0.73,1*01
$GNGSA,A,3,66,76,77,75,65,82,,,,,,,0.89,0.51,0.73,2*09
$GNGSA,A,3,09,06,05,04,34,36,31,15,,,,,0.89,0.51,0.73,3*08
$GNGSA,A,3,20,37,32,23,19,35,29,,,,,,0.89,0.51,0.73,4*06
$GPGSV,3,1,10,03,77,197,43,04,59,283,40,31,56,064,41,26,37,103,38,1*66
$GPGSV,3,2,10,44,33,171,36,09,26,277,35,28,23,052,36,06,23,314,36,1*62
$GPGSV,3,3,10,16,20,138,32,02,08,205,33,1*66
$GLGSV,2,1,07,66,69,050,42,76,58,112,38,67,40,307,,77,29,170,28,1*73
$GLGSV,2,2,07,75,27,033,32,65,26,102,27,82,24,275,35,1*42
$GAGSV,3,1,11,09,81,018,39,06,60,075,38,05,36,274,33,04,34,082,35,7*75
$GAGSV,3,2,11,34,34,295,32,36,33,231,33,31,29,123,34,15,06,338,26,7*78
$GAGSV,3,3,11,11,04,190,19,24,03,166,18,21,03,020,27,7*4D
$GBGSV,3,1,12,20,69,304,34,37,52,155,31,32,50,114,30,23,45,067,32,1*79
$GBGSV,3,2,12,58,33,069,,19,19,298,22,35,10,310,28,46,09,195,,1*7C
$GBGSV,3,3,12,31,07,330,,29,05,256,16,25,03,035,16,04,01,261,,1*7D
$GNRMC,204023.000,A,4910.428786,N,12304.399872,W,0.01,0.00,091024,,,D,V*14
$GNVTG,0.00,T,,M,0.01,N,0.03,K,D*24
$GNGGA,204024.000,4910.428774,N,12304.399962,W,2,30,0.51,8.239,M,-16.816,M,,*4D
$GNGLL,4910.428774,N,12304.399962,W,204024.000,A,D*5C
$GNGSA,A,3,03,04,31,26,09,28,06,16,02,,,,0.89,0.51,0.73,1*01
$GNGSA,A,3,66,76,77,75,65,82,,,,,,,0.89,0.51,0.73,2*09
$GNGSA,A,3,09,06,05,04,34,36,31,15,,,,,0.89,0.51,0.73,3*08
$GNGSA,A,3,20,37,32,23,19,35,29,,,,,,0.89,0.51,0.73,4*06
$GPGSV,3,1,10,03,77,197,43,04,59,283,40,31,56,064,41,26,37,103,38,1*66
$GPGSV,3,2,10,44,33,171,36,09,26,277,35,28,23,052,36,06,23,314,36,1*62
$GPGSV,3,3,10,16,20,138,32,02,08,205,33,1*66
$GLGSV,2,1,07,66,69,050,42,76,58,112,38,67,40,307,,77,29,170,28,1*73
$GLGSV,2,2,07,75,27,033,32,65,26,102,27,82,24,275,35,1*42
$GAGSV,3,1,11,09,81,018,39,06,60,075,38,05,36,274,33,04,34,082,35,7*75
$GAGSV,3,2,11,34,34,295,33,36,33,231,33,31,29,123,34,15,06,338,27,7*78
$GAGSV,3,3,11,11,04,190,19,24,03,166,18,21,03,020,27,7*4D
$GBGSV,4,1,13,20,69,304,35,37,52,155,31,32,50,114,30,23,45,067,32,1*7E
$GBGSV,4,2,13,58,33,069,,19,19,298,22,35,10,310,28,46,09,195,,1*7A
$GBGSV,4,3,13,31,07,330,,29,05,256,16,25,03,035,14,44,01,351,,1*7F
$GBGSV,4,4,13,04,01,261,,1*44
$GNRMC,204024.000,A,4910.428774,N,12304.399962,W,0.01,0.00,091024,,,D,V*1E
$GNVTG,0.00,T,,M,0.01,N,0.03,K,D*24
$GNGGA,204025.000,4910.428744,N,12304.400058,W,2,30,0.51,8.286,M,-16.817,M,,*4D
$GNGLL,4910.428744,N,12304.400058,W,204025.000,A,D*59
$GNGSA,A,3,03,04,31,26,09,28,06,16,02,,,,0.89,0.51,0.73,1*01
$GNGSA,A,3,66,76,77,75,65,82,,,,,,,0.89,0.51,0.73,2*09
$GNGSA,A,3,09,06,05,04,34,36,31,15,,,,,0.89,0.51,0.73,3*08
$GNGSA,A,3,20,37,32,23,19,35,29,,,,,,0.89,0.51,0.73,4*06
$GPGSV,3,1,10,03,77,197,43,04,59,283,40,31,56,064,41,26,37,103,38,1*66
$GPGSV,3,2,10,44,33,171,36,09,26,277,35,28,23,052,36,06,23,314,36,1*62
$GPGSV,3,3,10,16,20,138,32,02,08,205,33,1*66
$GLGSV,2,1,07,66,69,050,42,76,58,112,39,67,40,307,,77,29,170,28,1*72
$GLGSV,2,2,07,75,27,033,32,65,26,102,27,82,24,275,35,1*42
$GAGSV,3,1,11,09,81,018,39,06,60,075,38,05,36,274,33,04,34,082,35,7*75
$GAGSV,3,2,11,34,34,295,33,36,33,231,33,31,29,123,34,15,06,338,27,7*78
$GAGSV,3,3,11,11,04,190,19,24,03,166,18,21,03,020,27,7*4D
$GBGSV,4,1,13,20,69,304,34,37,52,155,30,32,50,114,29,23,45,067,31,1*75
$GBGSV,4,2,13,58,33,069,,19,19,298,22,46,10,195,,35,10,310,28,1*72
$GBGSV,4,3,13,31,07,330,,29,05,256,16,25,03,035,14,04,01,261,,1*79
$GBGSV,4,4,13,44,01,351,,1*42
$GNRMC,204025.000,A,4910.428744,N,12304.400058,W,0.01,0.00,091024,,,D,V*1B
$GNVTG,0.00,T,,M,0.01,N,0.02,K,D*25
$GNGGA,204026.000,4910.428696,N,12304.400232,W,2,30,0.51,8.189,M,-16.816,M,,*43
$GNGLL,4910.428696,N,12304.400232,W,204026.000,A,D*5A
$GNGSA,A,3,03,04,31,26,09,28,06,16,02,,,,0.89,0.51,0.73,1*01
$GNGSA,A,3,66,76,77,75,65,82,,,,,,,0.89,0.51,0.73,2*09
$GNGSA,A,3,09,06,05,04,34,36,31,15,,,,,0.89,0.51,0.73,3*08
$GNGSA,A,3,20,37,32,23,19,35,29,,,,,,0.89,0.51,0.73,4*06
$GPGSV,3,1,10,03,77,197,43,04,59,283,40,31,56,064,41,26,37,103,38,1*66
$GPGSV,3,2,10,44,33,171,36,09,26,277,35,28,23,052,36,06,23,314,36,1*62
$GPGSV,3,3,10,16,20,138,32,02,08,205,33,1*66
$GLGSV,2,1,07,66,69,050,42,76,58,112,39,67,40,307,,77,29,170,28,1*72
$GLGSV,2,2,07,75,27,033,32,65,26,102,27,82,24,275,35,1*42
$GAGSV,3,1,11,09,81,018,39,06,60,075,38,05,36,274,33,04,34,082,35,7*75
$GAGSV,3,2,11,34,34,295,33,36,33,231,33,31,29,123,35,15,06,338,27,7*79
$GAGSV,3,3,11,11,04,190,19,24,03,166,19,21,03,020,27,7*4C
$GBGSV,4,1,13,20,69,304,34,37,52,155,30,32,50,114,28,23,45,067,30,1*75
$GBGSV,4,2,13,58,33,069,,19,19,298,20,46,10,195,,35,10,310,28,1*70
$GBGSV,4,3,13,31,07,330,,29,05,256,15,25,03,035,13,04,01,261,,1*7D
$GBGSV,4,4,13,44,01,351,,1*42
$GNRMC,204026.000,A,4910.428696,N,12304.400232,W,0.01,0.00,091024,,,D,V*18
$GNVTG,0.00,T,,M,0.01,N,0.02,K,D*25
$GNGGA,204027.000,4910.428684,N,12304.400334,W,2,30,0.51,8.240,M,-16.816,M,,*40
$GNGLL,4910.428684,N,12304.400334,W,204027.000,A,D*5F
$GNGSA,A,3,03,04,31,26,09,28,06,16,02,,,,0.89,0.51,0.73,1*01
$GNGSA,A,3,66,76,77,75,65,82,,,,,,,0.89,0.51,0.73,2*09
$GNGSA,A,3,09,06,05,04,34,36,31,15,,,,,0.89,0.51,0.73,3*08
$GNGSA,A,3,20,37,32,23,19,35,29,,,,,,0.89,0.51,0.73,4*06
$GPGSV,3,1,10,03,77,197,43,04,59,283,40,31,56,064,41,26,37,103,38,1*66
$GPGSV,3,2,10,44,33,171,36,09,26,277,35,28,23,052,36,06,23,314,36,1*62
$GPGSV,3,3,10,16,20,138,33,02,08,205,33,1*67
$GLGSV,2,1,07,66,69,050,42,76,58,112,39,67,40,307,,77,29,170,28,1*72
$GLGSV,2,2,07,75,27,033,32,65,26,102,28,82,24,275,35,1*4D
$GAGSV,3,1,11,09,81,018,39,06,60,075,38,05,36,274,33,04,34,082,35,7*75
$GAGSV,3,2,11,34,34,295,33,36,33,231,33,31,29,123,35,15,06,338,27,7*79
$GAGSV,3,3,11,11,04,190,19,24,03,166,19,21,03,020,27,7*4C
$GBGSV,4,1,13,20,69,304,35,37,52,155,30,32,50,114,28,23,45,067,30,1*74
$GBGSV,4,2,13,58,33,069,,19,19,298,20,46,10,195,,35,10,310,28,1*70
$GBGSV,4,3,13,31,07,330,,29,05,256,15,25,03,035,15,04,01,261,,1*7B
$GBGSV,4,4,13,44,01,351,,1*42
$GNRMC,204027.000,A,4910.428684,N,12304.400334,W,0.01,0.00,091024,,,D,V*1D
$GNVTG,0.00,T,,M,0.01,N,0.02,K,D*25
$GNGGA,204028.000,4910.428672,N,12304.400358,W,2,30,0.51,8.275,M,-16.816,M,,*4A
$GNGLL,4910.428672,N,12304.400358,W,204028.000,A,D*53
$GNGSA,A,3,03,04,31,26,09,28,06,16,02,,,,0.89,0.51,0.73,1*01
$GNGSA,A,3,66,76,77,75,65,82,,,,,,,0.89,0.51,0.73,2*09
$GNGSA,A,3,09,06,05,04,34,36,31,15,,,,,0.89,0.51,0.73,3*08
$GNGSA,A,3,20,37,32,23,19,35,29,,,,,,0.89,0.51,0.73,4*06
$GPGSV,3,1,10,03,77,197,43,04,59,283,40,31,56,064,41,26,37,103,38,1*66
$GPGSV,3,2,10,44,33,171,36,09,26,277,35,28,23,052,36,06,23,314,36,1*62
$GPGSV,3,3,10,16,20,138,33,02,08,205,33,1*67
$GLGSV,2,1,07,66,69,050,42,76,58,112,39,67,40,307,,77,29,170,28,1*72
$GLGSV,2,2,07,75,27,033,31,65,26,102,28,82,24,275,35,1*4E
$GAGSV,3,1,11,09,81,018,39,06,60,075,38,05,36,274,33,04,34,082,35,7*75
$GAGSV,3,2,11,34,34,295,33,36,33,231,33,31,29,123,35,15,06,338,27,7*79
$GAGSV,3,3,11,11,04,190,19,24,03,166,19,21,03,020,27,7*4C
$GBGSV,4,1,13,20,69,304,34,37,52,155,30,32,50,114,27,23,45,067,30,1*7A
$GBGSV,4,2,13,58,33,069,,19,19,298,20,46,10,195,,35,10,310,28,1*70
$GBGSV,4,3,13,31,07,330,,29,05,256,15,25,03,035,14,04,01,261,,1*7A
$GBGSV,4,4,13,44,01,351,,1*42
$GNRMC,204028.000,A,4910.428672,N,12304.400358,W,0.01,0.00,091024,,,D,V*11
$GNVTG,0.00,T,,M,0.01,N,0.01,K,D*26
$GNGGA,204029.000,4910.428648,N,12304.400436,W,2,30,0.51,8.373,M,-16.816,M,,*4A
$GNGLL,4910.428648,N,12304.400436,W,204029.000,A,D*54
$GNGSA,A,3,03,04,31,26,09,28,06,16,02,,,,0.89,0.51,0.73,1*01
$GNGSA,A,3,66,76,77,75,65,82,,,,,,,0.89,0.51,0.73,2*09
$GNGSA,A,3,09,06,05,04,34,36,31,15,,,,,0.89,0.51,0.73,3*08
$GNGSA,A,3,20,37,32,23,19,35,29,,,,,,0.89,0.51,0.73,4*06
$GPGSV,3,1,10,03,77,197,43,04,59,283,40,31,56,064,41,26,37,103,38,1*66
$GPGSV,3,2,10,44,33,171,36,09,26,277,35,28,23,052,36,06,23,314,36,1*62
$GPGSV,3,3,10,16,20,138,33,02,08,205,33,1*67
$GLGSV,2,1,07,66,69,050,42,76,58,112,39,67,40,307,,77,29,170,28,1*72
$GLGSV,2,2,07,75,27,033,31,65,26,102,27,82,24,275,35,1*41
$GAGSV,3,1,11,09,81,018,39,06,60,075,38,05,36,274,33,04,34,082,35,7*75
$GAGSV,3,2,11,34,34,295,32,36,33,231,33,31,29,123,34,15,06,338,27,7*79
$GAGSV,3,3,11,11,04,190,18,24,03,166,19,21,03,020,27,7*4D
$GBGSV,4,1,13,20,69,304,34,37,52,155,30,32,50,114,27,23,45,067,30,1*7A
$GBGSV,4,2,13,58,33,069,,19,19,298,19,46,10,195,,35,10,310,27,1*75
$GBGSV,4,3,13,31,07,330,,29,05,256,15,25,03,035,12,04,01,261,,1*7C
$GBGSV,4,4,13,44,01,351,,1*42
$GNRMC,204029.000,A,4910.428648,N,12304.400436,W,0.01,0.00,091024,,,D,V*16
$GNVTG,0.00,T,,M,0.01,N,0.01,K,D*26
$GNGGA,204030.000,4910.428678,N,12304.400436,W,2,30,0.51,8.424,M,-16.817,M,,*45
$GNGLL,4910.428678,N,12304.400436,W,204030.000,A,D*5F
$GNGSA,A,3,03,04,31,26,09,28,06,16,02,,,,0.89,0.51,0.73,1*01
$GNGSA,A,3,66,76,77,75,65,82,,,,,,,0.89,0.51,0.73,2*09
$GNGSA,A,3,09,06,05,04,34,36,31,15,,,,,0.89,0.51,0.73,3*08
$GNGSA,A,3,20,37,32,23,19,35,29,,,,,,0.89,0.51,0.73,4*06
$GPGSV,3,1,10,03,77,197,43,04,59,283,40,31,56,064,41,26,37,103,38,1*66
$GPGSV,3,2,10,44,33,171,36,09,26,277,35,28,23,052,36,06,23,314,36,1*62
$GPGSV,3,3,10,16,20,138,33,02,08,205,33,1*67
$GLGSV,2,1,07,66,69,050,42,76,58,112,39,67,40,307,,77,29,170,28,1*72
$GLGSV,2,2,07,75,27,033,31,65,26,102,26,82,24,275,35,1*40
$GAGSV,3,1,11,09,81,018,39,06,60,075,38,05,36,274,33,04,34,082,35,7*75
$GAGSV,3,2,11,34,34,295,32,36,33,231,33,31,29,123,34,15,06,338,27,7*79
$GAGSV,3,3,11,11,04,190,18,24,03,166,19,21,03,020,27,7*4D
$GBGSV,4,1,13,20,69,304,35,37,52,155,31,32,50,114,28,23,45,067,31,1*74
$GBGSV,4,2,13,58,33,069,,19,19,298,21,46,10,195,,35,10,310,27,1*7E
$GBGSV,4,3,13,31,07,330,,29,05,256,16,25,03,035,14,04,01,261,,1*79
$GBGSV,4,4,13,44,01,351,,1*42
$GNRMC,204030.000,A,4910.428678,N,12304.400436,W,0.01,0.00,091024,,,D,V*1D
$GNVTG,0.00,T,,M,0.01,N,0.01,K,D*26
$GNGGA,204031.000,4910.428726,N,12304.400430,W,2,30,0.51,8.416,M,-16.817,M,,*49
$GNGLL,4910.428726,N,12304.400430,W,204031.000,A,D*52
$GNGSA,A,3,03,04,31,26,09,28,06,16,02,,,,0.89,0.51,0.73,1*01
$GNGSA,A,3,66,76,77,75,65,82,,,,,,,0.89,0.51,0.73,2*09
$GNGSA,A,3,09,06,05,04,34,36,31,15,,,,,0.89,0.51,0.73,3*08
$GNGSA,A,3,20,37,32,23,19,35,29,,,,,,0.89,0.51,0.73,4*06
$GPGSV,3,1,10,03,77,197,43,04,59,283,40,31,56,064,41,26,37,103,38,1*66
$GPGSV,3,2,10,44,33,171,36,09,26,277,35,28,23,052,36,06,23,314,36,1*62
$GPGSV,3,3,10,16,20,138,33,02,08,205,32,1*66
$GLGSV,2,1,07,66,69,050,42,76,58,112,39,67,40,307,,77,29,170,28,1*72
$GLGSV,2,2,07,75,27,033,31,65,26,102,26,82,24,275,35,1*40
$GAGSV,3,1,11,09,81,018,39,06,60,075,38,05,36,274,33,04,34,082,35,7*75
$GAGSV,3,2,11,34,34,295,32,36,33,231,33,31,29,123,34,15,06,338,27,7*79
$GAGSV,3,3,11,11,04,190,18,24,03,166,19,21,03,020,27,7*4D
$GBGSV,4,1,13,20,69,304,34,37,52,155,31,32,50,114,28,23,45,067,30,1*74
$GBGSV,4,2,13,58,33,069,,19,19,298,22,46,10,195,,35,10,310,27,1*7D
$GBGSV,4,3,13,31,07,330,,29,05,256,16,25,03,035,14,04,01,261,,1*79
$GBGSV,4,4,13,44,01,351,,1*42
$GNRMC,204031.000,A,4910.428726,N,12304.400430,W,0.01,0.00,091024,,,D,V*10
$GNVTG,0.00,T,,M,0.01,N,0.02,K,D*25
$GNGGA,204032.000,4910.428726,N,12304.400460,W,2,30,0.51,8.392,M,-16.816,M,,*45
$GNGLL,4910.428726,N,12304.400460,W,204032.000,A,D*54
$GNGSA,A,3,03,04,31,26,09,06,28,16,02,,,,0.89,0.51,0.73,1*01
$GNGSA,A,3,66,76,77,75,65,82,,,,,,,0.89,0.51,0.73,2*09
$GNGSA,A,3,09,06,05,04,34,36,31,15,,,,,0.89,0.51,0.73,3*08
$GNGSA,A,3,20,37,32,23,19,35,29,,,,,,0.89,0.51,0.73,4*06
$GPGSV,3,1,10,03,77,197,43,04,59,283,40,31,56,064,41,26,37,103,38,1*66
$GPGSV,3,2,10,44,33,171,36,09,26,277,35,06,23,314,36,28,23,052,36,1*62
$GPGSV,3,3,10,16,20,138,33,02,08,205,32,1*66
$GLGSV,2,1,06,66,69,050,42,76,58,112,39,77,29,170,28,75,27,033,31,1*77
$GLGSV,2,2,06,65,26,102,26,82,24,275,35,1*74
$GAGSV,3,1,11,09,81,018,39,06,60,075,38,05,36,274,33,04,34,082,35,7*75
$GAGSV,3,2,11,34,34,295,32,36,33,231,33,31,29,123,34,15,06,338,27,7*79
$GAGSV,3,3,11,11,04,190,19,24,03,166,19,21,03,020,27,7*4C
$GBGSV,4,1,13,20,69,304,35,37,52,155,32,32,50,114,29,23,45,067,31,1*76
$GBGSV,4,2,13,58,33,069,,19,19,298,23,46,10,195,,35,10,310,27,1*7C
$GBGSV,4,3,13,31,07,330,,29,05,256,16,25,03,035,13,04,01,261,,1*7E
$GBGSV,4,4,13,44,01,351,,1*42
$GNRMC,204032.000,A,4910.428726,N,12304.400460,W,0.01,0.00,091024,,,D,V*16
$GNVTG,0.00,T,,M,0.01,N,0.01,K,D*26
$GNGGA,204033.000,4910.428822,N,12304.400538,W,2,30,0.51,8.242,M,-16.816,M,,*4F
$GNGLL,4910.428822,N,12304.400538,W,204033.000,A,D*52
$GNGSA,A,3,03,04,31,26,09,28,06,16,02,,,,0.89,0.51,0.73,1*01
$GNGSA,A,3,66,76,77,75,65,82,,,,,,,0.89,0.51,0.73,2*09
$GNGSA,A,3,09,06,05,04,34,36,31,15,,,,,0.89,0.51,0.73,3*08
$GNGSA,A,3,20,37,32,23,19,35,29,,,,,,0.89,0.51,0.73,4*06
$GPGSV,3,1,10,03,77,197,43,04,59,283,40,31,56,064,41,26,37,103,38,1*66
$GPGSV,3,2,10,44,33,171,36,09,26,277,34,28,23,052,36,06,23,314,36,1*63
$GPGSV,3,3,10,16,20,138,33,02,08,205,31,1*65
$GLGSV,2,1,07,66,69,050,42,76,58,112,39,67,40,307,,77,29,170,28,1*72
$GLGSV,2,2,07,75,27,033,31,65,26,102,26,82,24,275,35,1*40
$GAGSV,3,1,11,09,81,018,39,06,60,075,38,05,36,274,33,04,34,082,35,7*75
$GAGSV,3,2,11,34,34,295,32,36,33,231,33,31,29,123,34,15,06,338,27,7*79
$GAGSV,3,3,11,11,04,190,19,24,03,166,19,21,03,020,27,7*4C
$GBGSV,3,1,12,20,69,304,35,37,52,155,32,32,50,114,29,23,45,067,30,1*71
$GBGSV,3,2,12,58,33,069,,19,19,298,22,46,10,195,,35,10,310,28,1*74
$GBGSV,3,3,12,31,07,330,,29,05,256,16,25,03,035,16,44,01,351,,1*7B
$GNRMC,204033.000,A,4910.428822,N,12304.400538,W,0.01,0.00,091024,,,D,V*10
$GNVTG,0.00,T,,M,0.01,N,0.02,K,D*25
$GNGGA,204034.000,4910.428858,N,12304.400574,W,2,30,0.51,8.142,M,-16.817,M,,*4F
$GNGLL,4910.428858,N,12304.400574,W,204034.000,A,D*50
$GNGSA,A,3,03,04,31,26,09,28,06,16,02,,,,0.89,0.51,0.73,1*01
$GNGSA,A,3,66,76,77,75,65,82,,,,,,,0.89,0.51,0.73,2*09
$GNGSA,A,3,09,06,05,04,34,36,31,15,,,,,0.89,0.51,0.73,3*08
$GNGSA,A,3,20,37,32,23,19,35,29,,,,,,0.89,0.51,0.73,4*06
$GPGSV,3,1,10,03,77,197,43,04,59,283,40,31,56,064,41,26,37,103,38,1*66
$GPGSV,3,2,10,44,33,171,36,09,26,277,34,28,23,052,36,06,23,314,36,1*63
$GPGSV,3,3,10,16,20,138,33,02,08,205,31,1*65
$GLGSV,2,1,07,66,69,050,41,76,58,112,39,67,40,307,,77,29,170,28,1*71
$GLGSV,2,2,07,75,27,033,31,65,26,102,26,82,24,275,35,1*40
$GAGSV,3,1,11,09,81,018,39,06,60,075,38,05,36,274,33,04,34,082,35,7*75
$GAGSV,3,2,11,34,34,295,32,36,33,231,33,31,29,123,34,15,06,338,27,7*79
$GAGSV,3,3,11,11,04,190,19,24,03,166,19,21,03,020,27,7*4C
$GBGSV,4,1,13,20,69,304,35,37,52,155,31,32,50,114,29,23,45,067,30,1*74
$GBGSV,4,2,13,58,33,069,,19,19,298,21,46,10,195,,35,10,310,28,1*71
$GBGSV,4,3,13,31,07,330,,29,05,256,16,25,03,035,14,04,01,261,,1*79
$GBGSV,4,4,13,44,01,351,,1*42
$GNRMC,204034.000,A,4910.428858,N,12304.400574,W,0.01,0.00,091024,,,D,V*12
$GNVTG,0.00,T,,M,0.01,N,0.02,K,D*25
$GNGGA,204035.000,4910.428954,N,12304.400568,W,2,30,0.51,8.048,M,-16.817,M,,*45
$GNGLL,4910.428954,N,12304.400568,W,204035.000,A,D*51
$GNGSA,A,3,03,04,31,26,09,28,06,16,02,,,,0.89,0.51,0.73,1*01
$GNGSA,A,3,66,76,77,75,65,82,,,,,,,0.89,0.51,0.73,2*09
$GNGSA,A,3,09,06,05,04,34,36,31,15,,,,,0.89,0.51,0.73,3*08
$GNGSA,A,3,20,37,32,23,19,35,29,,,,,,0.89,0.51,0.73,4*06
$GPGSV,3,1,10,03,77,197,43,04,59,283,40,31,56,064,41,26,37,103,38,1*66
$GPGSV,3,2,10,44,33,171,36,09,26,277,34,28,23,052,36,06,23,314,36,1*63
$GPGSV,3,3,10,16,20,138,33,02,08,205,31,1*65
$GLGSV,2,1,07,66,69,050,41,76,58,112,38,67,40,307,,77,29,170,28,1*70
$GLGSV,2,2,07,75,27,033,31,65,26,102,26,82,24,275,34,1*41
$GAGSV,3,1,11,09,81,018,39,06,60,075,38,05,36,274,33,04,34,082,35,7*75
$GAGSV,3,2,11,34,34,295,33,36,33,231,33,31,29,123,34,15,06,338,27,7*78
$GAGSV,3,3,11,11,04,190,19,24,03,166,19,21,03,020,27,7*4C
$GBGSV,4,1,13,20,69,304,36,37,52,155,31,32,50,114,29,23,45,067,31,1*76
$GBGSV,4,2,13,58,33,069,,19,19,298,23,46,10,195,,35,10,310,28,1*73
$GBGSV,4,3,13,31,07,330,,29,05,256,17,25,03,035,15,04,01,261,,1*79
$GBGSV,4,4,13,44,01,351,,1*42
$GNRMC,204035.000,A,4910.428954,N,12304.400568,W,0.01,0.00,091024,,,D,V*13
$GNVTG,0.00,T,,M,0.01,N,0.02,K,D*25
$GNGGA,204036.000,4910.429008,N,12304.400514,W,2,30,0.51,7.991,M,-16.816,M,,*4F
$GNGLL,4910.429008,N,12304.400514,W,204036.000,A,D*58
$GNGSA,A,3,03,04,31,26,09,28,06,16,02,,,,0.89,0.51,0.73,1*01
$GNGSA,A,3,66,76,77,75,65,82,,,,,,,0.89,0.51,0.73,2*09
$GNGSA,A,3,09,06,05,04,34,36,31,15,,,,,0.89,0.51,0.73,3*08
$GNGSA,A,3,20,37,32,23,19,35,29,,,,,,0.89,0.51,0.73,4*06
$GPGSV,3,1,10,03,77,197,43,04,59,283,40,31,56,064,41,26,37,103,38,1*66
$GPGSV,3,2,10,44,33,171,36,09,26,277,34,28,23,052,36,06,23,314,36,1*63
$GPGSV,3,3,10,16,20,138,33,02,08,205,32,1*66
$GLGSV,2,1,07,66,69,050,41,76,58,112,38,67,40,307,,77,29,170,28,1*70
$GLGSV,2,2,07,75,27,033,30,65,26,102,27,82,24,275,34,1*41
$GAGSV,3,1,11,09,81,018,39,06,60,075,38,05,36,274,33,04,34,082,35,7*75
$GAGSV,3,2,11,34,34,295,33,36,33,231,33,31,29,123,34,15,06,338,27,7*78
$GAGSV,3,3,11,11,04,190,19,24,03,166,19,21,03,020,27,7*4C
$GBGSV,4,1,13,20,69,304,36,37,52,155,31,32,50,114,29,23,45,067,31,1*76
$GBGSV,4,2,13,58,33,069,,19,19,298,23,46,10,195,,35,10,310,28,1*73
$GBGSV,4,3,13,31,07,330,,29,05,256,17,25,03,035,16,04,01,261,,1*7A
$GBGSV,4,4,13,44,01,351,,1*42
$GNRMC,204036.000,A,4910.429008,N,12304.400514,W,0.01,0.00,091024,,,D,V*1A
$GNVTG,0.00,T,,M,0.01,N,0.02,K,D*25
$GNGGA,204037.000,4910.429026,N,12304.400514,W,2,30,0.51,7.833,M,-16.816,M,,*4B
$GNGLL,4910.429026,N,12304.400514,W,204037.000,A,D*55
$GNGSA,A,3,03,04,31,26,09,28,06,16,02,,,,0.89,0.51,0.73,1*01
$GNGSA,A,3,66,76,77,75,65,82,,,,,,,0.89,0.51,0.73,2*09
$GNGSA,A,3,09,06,05,04,34,36,31,15,,,,,0.89,0.51,0.73,3*08
$GNGSA,A,3,20,37,32,23,19,35,29,,,,,,0.89,0.51,0.73,4*06
$GPGSV,3,1,10,03,77,197,43,04,59,283,40,31,56,064,41,26,37,103,38,1*66
$GPGSV,3,2,10,44,33,171,36,09,26,277,34,28,23,052,36,06,23,314,36,1*63
$GPGSV,3,3,10,16,20,138,33,02,08,205,32,1*66
$GLGSV,2,1,07,66,69,050,41,76,58,112,39,67,40,307,,77,29,170,28,1*71
$GLGSV,2,2,07,75,27,033,30,65,26,102,28,82,24,275,34,1*4E
$GAGSV,3,1,11,09,81,018,39,06,60,075,38,05,36,274,33,04,34,082,35,7*75
$GAGSV,3,2,11,34,34,295,33,36,33,231,33,31,29,123,34,15,06,338,26,7*79
$GAGSV,3,3,11,11,04,190,19,24,03,166,19,21,03,020,27,7*4C
$GBGSV,4,1,13,20,69,304,37,37,52,155,32,32,50,114,30,23,45,067,32,1*7F
$GBGSV,4,2,13,58,32,069,,19,19,298,24,46,10,195,,35,10,310,28,1*75
$GBGSV,4,3,13,31,07,330,,29,05,256,18,25,03,035,16,04,01,261,,1*75
$GBGSV,4,4,13,44,01,351,,1*42
$GNRMC,204037.000,A,4910.429026,N,12304.400514,W,0.01,0.00,091024,,,D,V*17
$GNVTG,0.00,T,,M,0.01,N,0.02,K,D*25
$GNGGA,204038.000,4910.429122,N,12304.400514,W,2,30,0.51,7.570,M,-16.816,M,,*4B
$GNGLL,4910.429122,N,12304.400514,W,204038.000,A,D*5F
$GNGSA,A,3,03,04,31,26,09,28,06,16,02,,,,0.89,0.51,0.73,1*01
$GNGSA,A,3,66,76,77,75,65,82,,,,,,,0.89,0.51,0.73,2*09
$GNGSA,A,3,09,06,05,04,34,36,31,15,,,,,0.89,0.51,0.73,3*08
$GNGSA,A,3,20,37,32,23,19,35,29,,,,,,0.89,0.51,0.73,4*06
$GPGSV,3,1,10,03,77,197,43,04,59,283,40,31,56,064,41,26,37,103,38,1*66
$GPGSV,3,2,10,44,33,171,36,09,26,277,34,28,23,052,36,06,23,314,36,1*63
$GPGSV,3,3,10,16,20,138,33,02,08,205,32,1*66
$GLGSV,2,1,07,66,69,050,41,76,58,112,39,67,40,307,,77,29,170,28,1*71
$GLGSV,2,2,07,75,27,033,30,65,26,102,28,82,24,275,34,1*4E
$GAGSV,3,1,11,09,81,018,39,06,60,075,38,05,36,274,33,04,34,082,35,7*75
$GAGSV,3,2,11,34,34,295,33,36,33,231,33,31,29,123,34,15,06,338,26,7*79
$GAGSV,3,3,11,11,04,190,19,24,03,166,19,21,03,020,27,7*4C
$GBGSV,4,1,13,20,69,304,37,37,52,155,32,32,50,114,30,23,45,067,31,1*7C
$GBGSV,4,2,13,58,32,069,,19,19,298,24,46,10,195,,35,10,310,28,1*75
$GBGSV,4,3,13,31,07,330,,29,05,256,18,25,03,035,17,04,01,261,,1*74
$GBGSV,4,4,13,44,01,351,,1*42
$GNRMC,204038.000,A,4910.429122,N,12304.400514,W,0.01,0.00,091024,,,D,V*1D
$GNVTG,0.00,T,,M,0.01,N,0.01,K,D*26
$GNGGA,204039.000,4910.429206,N,12304.400538,W,2,30,0.51,7.235,M,-16.817,M,,*46
$GNGLL,4910.429206,N,12304.400538,W,204039.000,A,D*55
$GNGSA,A,3,03,04,31,26,09,28,06,16,02,,,,0.89,0.51,0.73,1*01
$GNGSA,A,3,66,76,77,75,65,82,,,,,,,0.89,0.51,0.73,2*09
$GNGSA,A,3,09,06,05,04,34,36,31,15,,,,,0.89,0.51,0.73,3*08
$GNGSA,A,3,20,37,32,23,19,35,29,,,,,,0.89,0.51,0.73,4*06
$GPGSV,3,1,10,03,77,197,43,04,59,283,40,31,56,064,41,26,37,103,38,1*66
$GPGSV,3,2,10,44,33,171,36,09,26,277,34,28,23,052,36,06,23,314,36,1*63
$GPGSV,3,3,10,16,20,138,33,02,08,205,32,1*66
$GLGSV,2,1,07,66,69,050,41,76,58,112,39,67,40,307,,77,29,170,28,1*71
$GLGSV,2,2,07,75,27,033,30,65,26,102,28,82,24,275,33,1*49
$GAGSV,3,1,11,09,81,018,39,06,60,075,38,05,36,274,33,04,34,082,35,7*75
$GAGSV,3,2,11,34,34,295,33,36,33,231,33,31,29,123,34,15,06,338,26,7*79
$GAGSV,3,3,11,11,04,190,19,24,03,166,19,21,03,020,27,7*4C
$GBGSV,4,1,13,20,69,304,37,37,52,155,32,32,50,114,30,23,45,067,31,1*7C
$GBGSV,4,2,13,58,32,069,,19,19,298,25,46,10,195,,35,10,310,28,1*74
$GBGSV,4,3,13,31,07,330,,29,05,256,18,25,03,035,16,04,01,261,,1*75
$GBGSV,4,4,13,44,01,351,,1*42
$GNRMC,204039.000,A,4910.429206,N,12304.400538,W,0.01,0.00,091024,,,D,V*17
$GNVTG,0.00,T,,M,0.01,N,0.02,K,D*25
$GNGGA,204040.000,4910.429242,N,12304.400514,W,2,30,0.51,6.901,M,-16.816,M,,*4A
$GNGLL,4910.429242,N,12304.400514,W,204040.000,A,D*55
$GNGSA,A,3,03,04,31,26,09,28,06,16,02,,,,0.89,0.51,0.73,1*01
$GNGSA,A,3,66,76,77,75,65,82,,,,,,,0.89,0.51,0.73,2*09
$GNGSA,A,3,09,06,05,04,34,36,31,15,,,,,0.89,0.51,0.73,3*08
$GNGSA,A,3,20,37,32,23,19,35,29,,,,,,0.89,0.51,0.73,4*06
$GPGSV,3,1,10,03,77,197,43,04,59,283,40,31,56,064,41,26,37,103,38,1*66
$GPGSV,3,2,10,44,33,171,36,09,26,277,34,28,23,052,36,06,23,314,36,1*63
$GPGSV,3,3,10,16,20,138,33,02,08,205,32,1*66
$GLGSV,2,1,07,66,69,050,41,76,58,112,39,67,40,307,,77,29,170,28,1*71
$GLGSV,2,2,07,75,27,033,30,65,26,102,28,82,24,275,33,1*49
$GAGSV,3,1,11,09,81,018,39,06,60,075,38,05,36,274,33,04,34,082,35,7*75
$GAGSV,3,2,11,34,34,295,33,36,33,231,33,31,29,123,34,15,06,338,25,7*7A
$GAGSV,3,3,11,11,04,190,19,24,03,166,19,21,03,020,27,7*4C
$GBGSV,4,1,13,20,69,304,37,37,52,155,32,32,50,114,30,23,45,067,31,1*7C
$GBGSV,4,2,13,58,32,069,,19,19,298,25,46,10,195,,35,10,310,28,1*74
$GBGSV,4,3,13,31,07,330,,29,05,256,18,25,03,035,17,04,01,261,,1*74
$GBGSV,4,4,13,44,01,351,,1*42
$GNRMC,204040.000,A,4910.429242,N,12304.400514,W,0.01,0.00,091024,,,D,V*17
$GNVTG,0.00,T,,M,0.01,N,0.03,K,D*24
$GNGGA,204041.000,4910.429302,N,12304.400526,W,2,30,0.51,6.675,M,-16.817,M,,*42
$GNGLL,4910.429302,N,12304.400526,W,204041.000,A,D*50
$GNGSA,A,3,03,04,31,26,09,28,06,16,02,,,,0.89,0.51,0.73,1*01
$GNGSA,A,3,66,76,77,75,65,82,,,,,,,0.89,0.51,0.73,2*09
$GNGSA,A,3,09,06,05,04,34,36,31,15,,,,,0.89,0.51,0.73,3*08
$GNGSA,A,3,20,37,32,23,19,35,29,,,,,,0.89,0.51,0.73,4*06
$GPGSV,3,1,10,03,77,197,43,04,59,283,40,31,56,064,41,26,37,103,37,1*69
$GPGSV,3,2,10,44,33,171,36,09,26,277,34,28,23,052,36,06,23,314,36,1*63
$GPGSV,3,3,10,16,20,138,33,02,08,205,31,1*65
$GLGSV,2,1,07,66,69,050,41,76,58,112,38,67,40,307,,77,29,170,29,1*71
$GLGSV,2,2,07,75,27,033,30,65,26,102,28,82,24,275,33,1*49
$GAGSV,3,1,11,09,81,018,39,06,60,075,38,05,36,274,33,04,34,082,35,7*75
$GAGSV,3,2,11,34,34,295,33,36,33,231,33,31,29,123,34,15,06,338,25,7*7A
$GAGSV,3,3,11,11,04,190,19,24,03,166,19,21,03,020,26,7*4D
$GBGSV,4,1,13,20,69,304,37,37,52,155,32,32,50,114,30,23,45,067,31,1*7C
$GBGSV,4,2,13,58,32,069,,19,19,298,23,46,10,195,,35,10,310,28,1*72
$GBGSV,4,3,13,31,07,330,,29,05,256,18,25,03,035,16,04,01,261,,1*75
$GBGSV,4,4,13,44,01,351,,1*42
$GNRMC,204041.000,A,4910.429302,N,12304.400526,W,0.02,0.00,091024,,,D,V*11
$GNVTG,0.00,T,,M,0.02,N,0.03,K,D*27
$GNGGA,204042.000,4910.429320,N,12304.400538,W,2,30,0.51,6.363,M,-16.816,M,,*4D
$GNGLL,4910.429320,N,12304.400538,W,204042.000,A,D*5C
$GNGSA,A,3,03,04,31,26,09,28,06,16,02,,,,0.89,0.51,0.73,1*01
$GNGSA,A,3,66,76,77,75,65,82,,,,,,,0.89,0.51,0.73,2*09
$GNGSA,A,3,09,06,05,04,34,36,31,15,,,,,0.89,0.51,0.73,3*08
$GNGSA,A,3,20,37,32,23,19,35,29,,,,,,0.89,0.51,0.73,4*06
$GPGSV,3,1,10,03,77,197,43,04,59,283,40,31,56,064,41,26,37,103,37,1*69
$GPGSV,3,2,10,44,33,171,36,09,26,277,34,28,23,052,36,06,23,314,36,1*63
$GPGSV,3,3,10,16,20,138,33,02,08,205,31,1*65
$GLGSV,2,1,07,66,69,050,41,76,58,112,38,67,40,307,,77,29,170,29,1*71
$GLGSV,2,2,07,75,27,033,29,65,26,102,28,82,24,275,33,1*41
$GAGSV,3,1,11,09,81,018,39,06,60,075,38,05,36,274,33,04,34,082,35,7*75
$GAGSV,3,2,11,34,34,295,33,36,33,231,33,31,29,123,34,15,06,338,25,7*7A
$GAGSV,3,3,11,11,04,190,19,24,03,166,19,21,03,020,27,7*4C
$GBGSV,4,1,13,20,69,304,37,37,52,155,31,32,50,114,30,23,45,067,31,1*7F
$GBGSV,4,2,13,58,32,069,,19,19,298,23,46,10,195,,35,10,310,28,1*72
$GBGSV,4,3,13,31,07,330,,29,05,256,19,25,03,035,17,04,01,261,,1*75
$GBGSV,4,4,13,44,01,351,,1*42
$GNRMC,204042.000,A,4910.429320,N,12304.400538,W,0.01,0.00,091024,,,D,V*1E
$GNVTG,0.00,T,,M,0.01,N,0.03,K,D*24
$GNGGA,204043.000,4910.429356,N,12304.400568,W,2,30,0.51,6.157,M,-16.816,M,,*4D
$GNGLL,4910.429356,N,12304.400568,W,204043.000,A,D*59
$GNGSA,A,3,03,04,31,26,09,28,06,16,02,,,,0.89,0.51,0.73,1*01
$GNGSA,A,3,66,76,77,75,65,82,,,,,,,0.89,0.51,0.73,2*09
$GNGSA,A,3,09,06,05,04,34,36,31,15,,,,,0.89,0.51,0.73,3*08
$GNGSA,A,3,20,37,32,23,19,35,29,,,,,,0.89,0.51,0.73,4*06
$GPGSV,3,1,10,03,77,197,43,04,59,283,40,31,56,064,41,26,37,103,37,1*69
$GPGSV,3,2,10,44,33,171,36,09,26,277,34,28,23,052,36,06,23,314,36,1*63
$GPGSV,3,3,10,16,20,138,33,02,08,205,31,1*65
$GLGSV,2,1,07,66,69,050,41,76,58,112,38,67,40,307,,77,29,170,29,1*71
$GLGSV,2,2,07,75,27,033,28,65,26,102,28,82,24,275,33,1*40
$GAGSV,3,1,11,09,81,018,39,06,60,075,38,05,36,274,33,04,34,082,35,7*75
$GAGSV,3,2,11,34,34,295,33,36,33,231,33,31,29,123,34,15,06,338,26,7*79
$GAGSV,3,3,11,11,04,190,19,24,03,166,19,21,03,020,27,7*4C
$GBGSV,4,1,13,20,69,304,37,37,52,155,31,32,50,114,30,23,45,067,31,1*7F
$GBGSV,4,2,13,58,32,069,,19,19,298,25,46,10,195,,35,10,310,28,1*74
$GBGSV,4,3,13,31,07,330,,29,05,256,19,25,03,035,16,04,01,261,,1*74
$GBGSV,4,4,13,44,01,351,,1*42
$GNRMC,204043.000,A,4910.429356,N,12304.400568,W,0.02,0.00,091024,,,D,V*18
$GNVTG,0.00,T,,M,0.02,N,0.03,K,D*27
$GNGGA,204044.000,4910.429374,N,12304.400616,W,2,30,0.51,5.931,M,-16.816,M,,*4B
$GNGLL,4910.429374,N,12304.400616,W,204044.000,A,D*54
$GNGSA,A,3,03,04,31,26,09,28,06,16,02,,,,0.89,0.51,0.73,1*01
$GNGSA,A,3,66,76,77,75,65,82,,,,,,,0.89,0.51,0.73,2*09
$GNGSA,A,3,09,06,05,04,34,36,31,15,,,,,0.89,0.51,0.73,3*08
$GNGSA,A,3,20,37,32,23,19,35,29,,,,,,0.89,0.51,0.73,4*06
$GPGSV,3,1,10,03,77,197,43,04,59,283,40,31,56,064,41,26,37,103,37,1*69
$GPGSV,3,2,10,44,33,171,36,09,26,277,34,28,23,052,36,06,23,314,36,1*63
$GPGSV,3,3,10,16,20,138,33,02,08,205,31,1*65
$GLGSV,2,1,07,66,69,050,41,76,58,112,38,67,40,307,,77,29,170,29,1*71
$GLGSV,2,2,07,75,27,033,27,65,26,102,28,82,24,275,33,1*4F
$GAGSV,3,1,11,09,81,018,39,06,60,075,38,05,36,274,33,04,34,082,35,7*75
$GAGSV,3,2,11,34,34,295,33,36,33,231,33,31,29,123,34,15,06,338,26,7*79
$GAGSV,3,3,11,11,04,190,19,24,03,166,19,21,03,020,27,7*4C
$GBGSV,4,1,13,20,69,304,37,37,52,155,31,32,50,114,30,23,45,067,31,1*7F
$GBGSV,4,2,13,58,32,069,,19,19,298,24,46,10,195,,35,10,310,29,1*74
$GBGSV,4,3,13,31,07,330,,29,05,256,19,25,03,035,17,04,01,261,,1*75
$GBGSV,4,4,13,44,01,351,,1*42
$GNRMC,204044.000,A,4910.429374,N,12304.400616,W,0.02,0.00,091024,,,D,V*15
$GNVTG,0.00,T,,M,0.02,N,0.03,K,D*27
$GNGGA,204045.000,4910.429398,N,12304.400640,W,2,30,0.51,5.723,M,-16.816,M,,*46
$GNGLL,4910.429398,N,12304.400640,W,204045.000,A,D*54
$GNGSA,A,3,03,04,31,26,09,28,06,16,02,,,,0.89,0.51,0.73,1*01
$GNGSA,A,3,66,76,77,75,65,82,,,,,,,0.89,0.51,0.73,2*09
$GNGSA,A,3,09,06,05,04,34,36,31,15,,,,,0.89,0.51,0.73,3*08
$GNGSA,A,3,20,37,32,23,19,35,29,,,,,,0.89,0.51,0.73,4*06
$GPGSV,3,1,10,03,77,197,43,04,59,283,40,31,56,064,41,26,37,103,37,1*69
$GPGSV,3,2,10,44,33,171,36,09,26,277,34,28,23,052,36,06,23,314,36,1*63
$GPGSV,3,3,10,16,20,138,33,02,08,205,31,1*65
$GLGSV,2,1,07,66,69,050,41,76,58,112,37,67,40,307,,77,29,170,29,1*7E
$GLGSV,2,2,07,75,27,033,26,65,26,102,28,82,24,275,33,1*4E
$GAGSV,3,1,11,09,81,018,39,06,60,075,38,05,36,274,33,04,34,082,35,7*75
$GAGSV,3,2,11,34,34,295,33,36,33,231,33,31,29,123,34,15,06,338,26,7*79
$GAGSV,3,3,11,11,04,190,19,24,03,166,19,21,03,020,26,7*4D
$GBGSV,4,1,13,20,69,304,37,37,52,155,31,32,50,114,30,23,45,067,31,1*7F
$GBGSV,4,2,13,58,32,069,,19,19,298,24,46,10,195,,35,10,310,29,1*74
$GBGSV,4,3,13,31,07,330,,29,05,256,19,25,03,035,17,04,01,261,,1*75
$GBGSV,4,4,13,44,01,351,,1*42
$GNRMC,204045.000,A,4910.429398,N,12304.400640,W,0.01,0.00,091024,,,D,V*16
$GNVTG,0.00,T,,M,0.01,N,0.03,K,D*24
$GNGGA,204046.000,4910.429386,N,12304.400640,W,2,30,0.51,5.442,M,-16.816,M,,*4E
$GNGLL,4910.429386,N,12304.400640,W,204046.000,A,D*58
$GNGSA,A,3,03,04,31,26,09,28,06,16,02,,,,0.89,0.51,0.73,1*01
$GNGSA,A,3,66,76,77,75,65,82,,,,,,,0.89,0.51,0.73,2*09
$GNGSA,A,3,09,06,05,04,34,36,31,15,,,,,0.89,0.51,0.73,3*08
$GNGSA,A,3,20,37,32,23,19,35,29,,,,,,0.89,0.51,0.73,4*06
$GPGSV,3,1,10,03,77,197,43,04,59,283,40,31,56,064,41,26,37,103,37,1*69
$GPGSV,3,2,10,44,33,171,36,09,26,277,34,28,23,052,36,06,23,314,36,1*63
$GPGSV,3,3,10,16,20,138,33,02,08,205,31,1*65
$GLGSV,2,1,07,66,69,050,41,76,58,112,37,67,40,307,,77,29,170,28,1*7F
$GLGSV,2,2,07,75,27,033,26,65,26,102,28,82,24,275,33,1*4E
$GAGSV,3,1,11,09,81,018,39,06,60,075,38,05,36,274,33,04,34,082,35,7*75
$GAGSV,3,2,11,34,34,295,33,36,33,231,33,31,29,123,34,15,06,338,26,7*79
$GAGSV,3,3,11,11,04,190,19,24,03,166,19,21,03,020,26,7*4D
$GBGSV,4,1,13,20,69,304,37,37,52,155,31,32,50,114,30,23,45,067,31,1*7F
$GBGSV,4,2,13,58,32,069,,19,19,298,25,46,10,195,,35,10,310,29,1*75
$GBGSV,4,3,13,31,07,330,,29,05,256,19,25,03,035,17,04,01,261,,1*75
$GBGSV,4,4,13,44,01,351,,1*42
$GNRMC,204046.000,A,4910.429386,N,12304.400640,W,0.01,0.00,091024,,,D,V*1A
$GNVTG,0.00,T,,M,0.01,N,0.02,K,D*25
$GNGGA,204047.000,4910.429326,N,12304.400622,W,2,30,0.51,5.165,M,-16.816,M,,*41
$GNGLL,4910.429326,N,12304.400622,W,204047.000,A,D*57
$GNGSA,A,3,03,04,31,26,09,28,06,16,02,,,,0.89,0.51,0.73,1*01
$GNGSA,A,3,66,76,77,75,65,82,,,,,,,0.89,0.51,0.73,2*09
$GNGSA,A,3,09,06,05,04,34,36,31,15,,,,,0.89,0.51,0.73,3*08
$GNGSA,A,3,20,37,32,23,19,35,29,,,,,,0.89,0.51,0.73,4*06
$GPGSV,3,1,10,03,77,197,43,04,59,283,40,31,56,064,41,26,37,103,37,1*69
$GPGSV,3,2,10,44,33,171,36,09,26,277,34,28,23,052,36,06,23,314,36,1*63
$GPGSV,3,3,10,16,20,138,33,02,08,205,31,1*65
$GLGSV,2,1,07,66,69,050,41,76,58,112,36,67,40,307,,77,29,170,28,1*7E
$GLGSV,2,2,07,75,27,033,26,65,26,102,28,82,24,275,33,1*4E
$GAGSV,3,1,11,09,81,018,39,06,60,075,38,05,36,274,33,04,34,082,35,7*75
$GAGSV,3,2,11,34,34,295,33,36,33,231,33,31,29,123,34,15,06,338,26,7*79
$GAGSV,3,3,11,11,04,190,19,24,03,166,19,21,03,020,26,7*4D
$GBGSV,4,1,13,20,69,304,37,37,52,155,31,32,50,114,30,23,45,067,31,1*7F
$GBGSV,4,2,13,58,32,069,,19,19,298,24,46,10,195,,35,10,310,29,1*74
$GBGSV,4,3,13,31,07,330,,29,05,256,19,25,03,035,16,04,01,261,,1*74
$GBGSV,4,4,13,44,01,351,,1*42
$GNRMC,204047.000,A,4910.429326,N,12304.400622,W,0.01,0.00,091024,,,D,V*15
$GNVTG,0.00,T,,M,0.01,N,0.02,K,D*25
$GNGGA,204048.000,4910.429254,N,12304.400616,W,2,30,0.51,4.953,M,-16.817,M,,*40
$GNGLL,4910.429254,N,12304.400616,W,204048.000,A,D*5B
$GNGSA,A,3,03,04,31,26,09,28,06,16,02,,,,0.89,0.51,0.73,1*01
$GNGSA,A,3,66,76,77,75,65,82,,,,,,,0.89,0.51,0.73,2*09
$GNGSA,A,3,09,06,05,04,34,36,31,15,,,,,0.89,0.51,0.73,3*08
$GNGSA,A,3,20,37,32,23,19,35,29,,,,,,0.89,0.51,0.73,4*06
$GPGSV,3,1,10,03,77,197,43,04,59,283,40,31,56,064,41,26,37,103,37,1*69
$GPGSV,3,2,10,44,33,171,36,09,26,277,33,28,23,052,36,06,23,314,36,1*64
$GPGSV,3,3,10,16,20,138,33,02,08,205,31,1*65
$GLGSV,2,1,07,66,69,050,41,76,58,112,36,67,40,307,,77,29,170,28,1*7E
$GLGSV,2,2,07,75,27,033,26,65,26,102,28,82,24,275,33,1*4E
$GAGSV,3,1,11,09,81,018,39,06,60,075,38,05,36,274,33,04,34,082,35,7*75
$GAGSV,3,2,11,34,34,295,33,36,33,231,33,31,29,123,34,15,06,338,26,7*79
$GAGSV,3,3,11,11,04,190,19,24,03,166,19,21,03,020,26,7*4D
$GBGSV,4,1,13,20,69,304,37,37,52,155,31,32,50,114,30,23,45,067,31,1*7F
$GBGSV,4,2,13,58,32,069,,19,19,298,23,46,10,195,,35,10,310,29,1*73
$GBGSV,4,3,13,31,07,330,,29,05,256,18,25,03,035,17,04,01,261,,1*74
$GBGSV,4,4,13,44,01,351,,1*42
$GNRMC,204048.000,A,4910.429254,N,12304.400616,W,0.01,0.00,091024,,,D,V*19
$GNVTG,0.00,T,,M,0.01,N,0.02,K,D*25
$GNGGA,204049.000,4910.429224,N,12304.400574,W,2,30,0.51,4.703,M,-16.816,M,,*4B
$GNGLL,4910.429224,N,12304.400574,W,204049.000,A,D*5A
$GNGSA,A,3,03,04,31,26,09,06,28,16,02,,,,0.89,0.51,0.73,1*01
$GNGSA,A,3,66,76,77,75,65,82,,,,,,,0.89,0.51,0.73,2*09
$GNGSA,A,3,09,06,05,04,34,36,31,15,,,,,0.89,0.51,0.73,3*08
$GNGSA,A,3,20,37,32,23,19,35,29,,,,,,0.89,0.51,0.73,4*06
$GPGSV,3,1,10,03,77,197,43,04,59,283,40,31,56,064,41,26,37,103,37,1*69
$GPGSV,3,2,10,44,33,171,36,09,26,277,33,06,23,314,36,28,23,052,36,1*64
$GPGSV,3,3,10,16,20,138,33,02,07,205,32,1*69
$GLGSV,2,1,07,66,69,050,41,76,58,112,36,67,40,307,,77,29,170,28,1*7E
$GLGSV,2,2,07,75,27,033,26,65,26,102,28,82,24,275,33,1*4E
$GAGSV,3,1,11,09,81,018,39,06,60,075,38,05,36,274,33,04,34,082,35,7*75
$GAGSV,3,2,11,34,34,295,33,36,33,231,33,31,29,123,34,15,06,338,26,7*79
$GAGSV,3,3,11,11,04,190,19,24,03,166,19,21,03,020,26,7*4D
$GBGSV,4,1,13,20,69,304,37,37,52,155,31,32,50,114,30,23,45,067,31,1*7F
$GBGSV,4,2,13,58,32,069,,19,19,298,25,35,10,310,29,46,10,195,,1*75
$GBGSV,4,3,13,31,07,330,,29,05,256,17,25,03,035,17,04,01,261,,1*7B
$GBGSV,4,4,13,44,01,351,,1*42
$GNRMC,204049.000,A,4910.429224,N,12304.400574,W,0.01,0.00,091024,,,D,V*18
$GNVTG,0.00,T,,M,0.01,N,0.02,K,D*25
$GNGGA,204050.000,4910.429182,N,12304.400562,W,2,30,0.51,4.479,M,-16.816,M,,*45
$GNGLL,4910.429182,N,12304.400562,W,204050.000,A,D*5A
$GNGSA,A,3,03,04,31,26,09,06,28,16,02,,,,0.89,0.51,0.73,1*01
$GNGSA,A,3,66,76,77,75,65,82,,,,,,,0.89,0.51,0.73,2*09
$GNGSA,A,3,09,06,05,04,34,36,31,15,,,,,0.89,0.51,0.73,3*08
$GNGSA,A,3,20,37,32,23,19,35,29,,,,,,0.89,0.51,0.73,4*06
$GPGSV,3,1,10,03,76,194,43,04,59,283,40,31,56,064,41,26,37,103,37,1*6B
$GPGSV,3,2,10,44,33,171,36,09,26,277,33,06,23,314,36,28,23,052,36,1*64
$GPGSV,3,3,10,16,20,138,33,02,07,205,32,1*69
$GLGSV,2,1,07,66,69,050,41,76,58,112,36,67,40,307,,77,29,170,28,1*7E
$GLGSV,2,2,07,75,27,033,26,65,26,102,28,82,24,275,33,1*4E
$GAGSV,3,1,11,09,81,018,39,06,60,075,38,05,36,274,33,04,34,082,35,7*75
$GAGSV,3,2,11,34,34,295,33,36,33,231,33,31,29,123,34,15,06,338,26,7*79
$GAGSV,3,3,11,11,04,190,19,24,03,166,19,21,03,020,26,7*4D
$GBGSV,4,1,13,20,69,304,37,37,52,155,31,32,50,114,30,23,45,067,31,1*7F
$GBGSV,4,2,13,58,32,069,,19,19,298,26,35,10,310,29,46,10,195,,1*76
$GBGSV,4,3,13,31,07,330,,29,05,256,17,25,03,035,16,04,01,261,,1*7A
$GBGSV,4,4,13,44,01,351,,1*42
$GNRMC,204050.000,A,4910.429182,N,12304.400562,W,0.01,0.00,091024,,,D,V*18
$GNVTG,0.00,T,,M,0.01,N,0.02,K,D*25
$GNGGA,204051.000,4910.429128,N,12304.400598,W,2,30,0.51,4.198,M,-16.816,M,,*4B
$GNGLL,4910.429128,N,12304.400598,W,204051.000,A,D*5E
$GNGSA,A,3,03,04,31,26,09,06,28,16,02,,,,0.89,0.51,0.73,1*01
$GNGSA,A,3,66,76,77,75,65,82,,,,,,,0.89,0.51,0.73,2*09
$GNGSA,A,3,09,06,05,04,34,36,31,15,,,,,0.89,0.51,0.73,3*08
$GNGSA,A,3,20,37,32,23,19,35,29,,,,,,0.89,0.51,0.73,4*06
$GPGSV,3,1,10,03,76,194,43,04,61,285,40,31,56,064,40,26,37,103,37,1*67
$GPGSV,3,2,10,44,33,171,36,09,26,277,33,06,23,314,36,28,23,052,36,1*64
$GPGSV,3,3,10,16,20,138,33,02,07,205,32,1*69
$GLGSV,2,1,07,66,69,050,41,76,58,112,36,67,40,307,,77,29,170,28,1*7E
$GLGSV,2,2,07,75,27,033,26,65,26,102,28,82,24,275,33,1*4E
$GAGSV,3,1,11,09,81,018,39,06,60,075,38,05,36,274,33,04,34,082,35,7*75
$GAGSV,3,2,11,34,34,295,33,36,33,231,33,31,29,123,33,15,06,338,26,7*7E
$GAGSV,3,3,11,11,04,190,18,24,03,166,19,21,03,020,26,7*4C
$GBGSV,4,1,13,20,69,304,37,37,52,155,31,32,50,114,30,23,45,067,31,1*7F
$GBGSV,4,2,13,58,32,069,,19,19,298,23,35,10,310,29,46,10,195,,1*73
$GBGSV,4,3,13,31,07,330,,29,05,256,17,25,03,035,16,04,01,261,,1*7A
$GBGSV,4,4,13,44,01,351,,1*42
$GNRMC,204051.000,A,4910.429128,N,12304.400598,W,0.01,0.00,091024,,,D,V*1C
$GNVTG,0.00,T,,M,0.01,N,0.01,K,D*26
$GNGGA,204052.000,4910.429074,N,12304.400646,W,2,30,0.51,4.046,M,-16.816,M,,*42
$GNGLL,4910.429074,N,12304.400646,W,204052.000,A,D*55
$GNGSA,A,3,03,04,31,26,09,06,28,16,02,,,,0.89,0.51,0.73,1*01
$GNGSA,A,3,66,76,77,75,65,82,,,,,,,0.89,0.51,0.73,2*09
$GNGSA,A,3,09,06,05,04,34,36,31,15,,,,,0.89,0.51,0.73,3*08
$GNGSA,A,3,20,37,32,23,19,35,29,,,,,,0.89,0.51,0.73,4*06
$GPGSV,3,1,10,03,76,194,43,04,61,285,40,31,56,064,40,26,37,103,37,1*67
$GPGSV,3,2,10,44,33,171,36,09,26,277,33,06,23,314,36,28,23,052,36,1*64
$GPGSV,3,3,10,16,20,138,33,02,07,205,32,1*69
$GLGSV,2,1,07,66,69,050,41,76,58,112,36,67,40,307,,77,29,170,28,1*7E
$GLGSV,2,2,07,75,27,033,26,65,26,102,28,82,24,275,33,1*4E
$GAGSV,3,1,11,09,81,018,39,06,60,075,38,05,36,274,33,04,34,082,35,7*75
$GAGSV,3,2,11,34,34,295,33,36,33,231,33,31,29,123,33,15,06,338,26,7*7E
$GAGSV,3,3,11,11,04,190,18,24,03,166,19,21,03,020,26,7*4C
$GBGSV,4,1,13,20,69,304,37,37,52,155,31,32,50,114,30,23,45,067,32,1*7C
$GBGSV,4,2,13,58,32,069,,19,19,298,24,35,10,310,29,46,10,195,,1*74
$GBGSV,4,3,13,31,07,330,,29,05,256,17,25,03,035,16,04,01,261,,1*7A
$GBGSV,4,4,13,44,01,351,,1*42
$GNRMC,204052.000,A,4910.429074,N,12304.400646,W,0.01,0.00,091024,,,D,V*17
$GNVTG,0.00,T,,M,0.01,N,0.01,K,D*26
$GNGGA,204053.000,4910.429044,N,12304.400622,W,2,30,0.51,3.787,M,-16.816,M,,*4F
$GNGLL,4910.429044,N,12304.400622,W,204053.000,A,D*55
$GNGSA,A,3,03,04,31,26,09,06,28,16,02,,,,0.89,0.51,0.73,1*01
$GNGSA,A,3,66,76,77,75,65,82,,,,,,,0.89,0.51,0.73,2*09
$GNGSA,A,3,09,06,05,04,34,36,31,15,,,,,0.89,0.51,0.73,3*08
$GNGSA,A,3,20,37,32,23,19,35,29,,,,,,0.89,0.51,0.73,4*06
$GPGSV,3,1,10,03,76,194,43,04,61,285,40,31,56,064,40,26,37,103,37,1*67
$GPGSV,3,2,10,44,33,171,36,09,26,277,33,06,23,313,36,28,23,052,36,1*63
$GPGSV,3,3,10,16,20,138,33,02,07,205,32,1*69
$GLGSV,2,1,07,66,69,050,41,76,58,112,36,67,40,307,,77,29,170,28,1*7E
$GLGSV,2,2,07,75,27,033,25,65,26,102,28,82,24,275,33,1*4D
$GAGSV,3,1,11,09,81,018,39,06,60,075,38,05,36,274,33,04,34,082,35,7*75
$GAGSV,3,2,11,34,34,295,33,36,33,231,32,31,29,123,33,15,06,338,26,7*7F
$GAGSV,3,3,11,11,04,190,18,24,03,166,19,21,03,020,26,7*4C
$GBGSV,4,1,13,20,69,304,36,37,52,155,30,32,50,114,30,23,45,067,32,1*7C
$GBGSV,4,2,13,58,32,069,,19,19,298,25,35,10,310,29,46,10,195,,1*75
$GBGSV,4,3,13,31,07,330,,29,05,256,16,25,03,035,16,04,01,261,,1*7B
$GBGSV,4,4,13,44,01,351,,1*42
$GNRMC,204053.000,A,4910.429044,N,12304.400622,W,0.01,0.00,091024,,,D,V*17
$GNVTG,0.00,T,,M,0.01,N,0.02,K,D*25
$GNGGA,204054.000,4910.428996,N,12304.400688,W,2,30,0.51,3.683,M,-16.817,M,,*4B
$GNGLL,4910.428996,N,12304.400688,W,204054.000,A,D*55
$GNGSA,A,3,03,04,31,26,09,06,28,16,02,,,,0.89,0.51,0.73,1*01
$GNGSA,A,3,66,76,77,75,65,82,,,,,,,0.89,0.51,0.73,2*09
$GNGSA,A,3,09,06,05,04,34,36,31,15,,,,,0.89,0.51,0.73,3*08
$GNGSA,A,3,20,37,32,23,19,35,29,,,,,,0.89,0.51,0.73,4*06
$GPGSV,3,1,10,03,76,194,43,04,61,285,40,31,56,064,40,26,37,103,37,1*67
$GPGSV,3,2,10,44,33,171,36,09,26,277,33,06,23,313,36,28,23,052,36,1*63
$GPGSV,3,3,10,16,20,138,33,02,07,205,32,1*69
$GLGSV,2,1,07,66,69,050,41,76,58,112,36,67,40,307,,77,29,170,28,1*7E
$GLGSV,2,2,07,75,27,033,25,65,26,102,28,82,24,275,33,1*4D
$GAGSV,3,1,11,09,81,018,39,06,60,075,38,05,36,274,33,04,34,082,35,7*75
$GAGSV,3,2,11,34,34,295,33,36,33,231,32,31,29,123,33,15,06,338,26,7*7F
$GAGSV,3,3,11,11,04,190,18,24,03,166,19,21,03,020,26,7*4C
$GBGSV,4,1,13,20,69,304,36,37,52,155,30,32,50,114,31,23,45,067,32,1*7D
$GBGSV,4,2,13,58,32,069,,19,19,298,25,35,10,310,29,46,10,195,,1*75
$GBGSV,4,3,13,31,07,330,,29,05,256,16,25,03,035,17,04,01,261,,1*7A
$GBGSV,4,4,13,44,01,351,,1*42
$GNRMC,204054.000,A,4910.428996,N,12304.400688,W,0.01,0.00,091024,,,D,V*17
$GNVTG,0.00,T,,M,0.01,N,0.02,K,D*25
$GNGGA,204055.000,4910.428990,N,12304.400682,W,2,30,0.51,3.619,M,-16.817,M,,*45
$GNGLL,4910.428990,N,12304.400682,W,204055.000,A,D*58
$GNGSA,A,3,03,04,31,26,09,06,28,16,02,,,,0.89,0.51,0.73,1*01
$GNGSA,A,3,66,76,77,75,65,82,,,,,,,0.89,0.51,0.73,2*09
$GNGSA,A,3,09,06,05,04,34,36,31,15,,,,,0.89,0.51,0.73,3*08
$GNGSA,A,3,20,37,32,23,19,35,29,,,,,,0.89,0.51,0.73,4*06
$GPGSV,3,1,10,03,76,194,43,04,61,285,40,31,56,064,40,26,37,103,37,1*67
$GPGSV,3,2,10,44,33,171,36,09,26,277,33,06,23,313,36,28,23,052,36,1*63
$GPGSV,3,3,10,16,20,138,33,02,07,205,32,1*69
$GLGSV,2,1,07,66,69,050,40,76,58,112,36,67,40,307,,77,29,170,28,1*7F
$GLGSV,2,2,07,75,27,033,25,65,26,102,28,82,24,275,33,1*4D
$GAGSV,3,1,11,09,81,018,39,06,60,075,38,05,36,274,33,04,34,082,35,7*75
$GAGSV,3,2,11,34,34,295,33,36,33,231,32,31,29,123,33,15,06,338,26,7*7F
$GAGSV,3,3,11,11,04,190,18,24,03,166,19,21,03,020,26,7*4C
$GBGSV,4,1,13,20,69,304,36,37,52,155,30,32,50,114,31,23,45,067,32,1*7D
$GBGSV,4,2,13,58,32,069,,19,19,298,25,35,10,310,29,46,10,195,,1*75
$GBGSV,4,3,13,31,07,330,,29,05,256,15,25,03,035,16,04,01,261,,1*78
$GBGSV,4,4,13,44,01,351,,1*42
$GNRMC,204055.000,A,4910.428990,N,12304.400682,W,0.01,0.00,091024,,,D,V*1A
$GNVTG,0.00,T,,M,0.01,N,0.02,K,D*25
$GNGGA,204056.000,4910.428942,N,12304.400712,W,2,30,0.51,3.567,M,-16.816,M,,*4A
$GNGLL,4910.428942,N,12304.400712,W,204056.000,A,D*5C
$GNGSA,A,3,03,04,31,26,09,06,28,16,02,,,,0.89,0.51,0.73,1*01
$GNGSA,A,3,66,76,77,75,65,82,,,,,,,0.89,0.51,0.73,2*09
$GNGSA,A,3,09,06,05,04,34,36,31,15,,,,,0.89,0.51,0.73,3*08
$GNGSA,A,3,20,37,32,23,19,35,29,,,,,,0.89,0.51,0.73,4*06
$GPGSV,3,1,10,03,76,194,43,04,61,285,40,31,56,064,40,26,37,103,37,1*67
$GPGSV,3,2,10,44,33,171,36,09,27,277,33,06,23,313,36,28,23,052,36,1*62
$GPGSV,3,3,10,16,20,138,33,02,07,205,32,1*69
$GLGSV,2,1,06,66,69,050,40,76,58,112,36,77,29,170,27,75,27,033,24,1*71
$GLGSV,2,2,06,65,26,102,28,82,24,275,33,1*7C
$GAGSV,3,1,11,09,81,018,39,06,60,075,38,05,36,274,33,04,34,082,36,7*76
$GAGSV,3,2,11,34,34,295,33,36,33,231,32,31,29,123,33,15,06,338,26,7*7F
$GAGSV,3,3,11,11,04,190,18,24,03,166,19,21,03,020,26,7*4C
$GBGSV,4,1,13,20,69,304,36,37,52,155,30,32,50,114,31,23,45,067,32,1*7D
$GBGSV,4,2,13,58,32,069,,19,19,298,25,35,10,310,29,46,10,195,,1*75
$GBGSV,4,3,13,31,07,330,,29,05,256,15,25,03,035,15,44,01,351,,1*7D
$GBGSV,4,4,13,04,01,261,,1*44
$GNRMC,204056.000,A,4910.428942,N,12304.400712,W,0.01,0.00,091024,,,D,V*1E
$GNVTG,0.00,T,,M,0.01,N,0.02,K,D*25
$GNGGA,204057.000,4910.428990,N,12304.400694,W,2,30,0.51,3.564,M,-16.816,M,,*48
$GNGLL,4910.428990,N,12304.400694,W,204057.000,A,D*5D
$GNGSA,A,3,03,04,31,26,09,06,28,16,02,,,,0.89,0.51,0.73,1*01
$GNGSA,A,3,66,76,77,75,65,82,,,,,,,0.89,0.51,0.73,2*09
$GNGSA,A,3,09,06,05,04,34,36,31,15,,,,,0.89,0.51,0.73,3*08
$GNGSA,A,3,20,37,32,23,19,35,29,,,,,,0.89,0.51,0.73,4*06
$GPGSV,3,1,10,03,76,194,43,04,61,285,40,31,56,064,40,26,37,103,37,1*67
$GPGSV,3,2,10,44,33,171,36,09,27,277,32,06,23,313,36,28,23,052,36,1*63
$GPGSV,3,3,10,16,20,138,33,02,07,205,32,1*69
$GLGSV,2,1,07,66,69,050,40,76,58,112,36,67,40,307,,77,29,170,26,1*71
$GLGSV,2,2,07,75,27,033,24,65,26,102,27,82,24,275,33,1*43
$GAGSV,3,1,11,09,81,018,39,06,60,075,38,05,36,274,33,04,34,082,36,7*76
$GAGSV,3,2,11,34,34,295,33,36,33,231,32,31,29,123,33,15,06,338,26,7*7F
$GAGSV,3,3,11,11,04,190,18,24,03,166,19,21,03,020,26,7*4C
$GBGSV,4,1,13,20,69,304,36,37,52,155,30,32,50,114,31,23,45,067,32,1*7D
$GBGSV,4,2,13,58,32,069,,19,19,298,25,35,10,310,29,46,10,195,,1*75
$GBGSV,4,3,13,31,07,330,,29,05,256,15,25,03,035,15,04,01,261,,1*7B
$GBGSV,4,4,13,44,01,351,,1*42
$GNRMC,204057.000,A,4910.428990,N,12304.400694,W,0.01,0.00,091024,,,D,V*1F
$GNVTG,0.00,T,,M,0.01,N,0.03,K,D*24
$GNGGA,204058.000,4910.429014,N,12304.400718,W,2,30,0.51,3.557,M,-16.816,M,,*46
$GNGLL,4910.429014,N,12304.400718,W,204058.000,A,D*53
$GNGSA,A,3,03,04,31,26,09,06,28,16,02,,,,0.89,0.51,0.73,1*01
$GNGSA,A,3,66,76,77,75,65,82,,,,,,,0.89,0.51,0.73,2*09
$GNGSA,A,3,09,06,05,04,34,36,31,15,,,,,0.89,0.51,0.73,3*08
$GNGSA,A,3,20,37,32,23,19,35,29,,,,,,0.89,0.51,0.73,4*06
$GPGSV,3,1,10,03,76,194,43,04,61,285,40,31,56,064,40,26,37,103,38,1*68
$GPGSV,3,2,10,44,33,171,36,09,27,277,32,06,23,313,36,28,23,052,36,1*63
$GPGSV,3,3,10,16,20,138,33,02,07,205,32,1*69
$GLGSV,2,1,07,66,69,050,40,76,58,112,36,67,40,307,,77,29,170,26,1*71
$GLGSV,2,2,07,75,27,033,24,65,26,102,27,82,24,275,33,1*43
$GAGSV,3,1,11,09,81,018,39,06,60,075,38,05,36,274,33,04,34,082,36,7*76
$GAGSV,3,2,11,34,34,295,33,36,33,231,32,31,29,123,33,15,06,338,26,7*7F
$GAGSV,3,3,11,11,04,190,18,24,03,166,19,21,03,020,26,7*4C
$GBGSV,4,1,13,20,69,304,36,37,52,155,30,32,50,114,31,23,45,067,32,1*7D
$GBGSV,4,2,13,58,32,069,,19,19,298,25,35,10,310,29,46,10,195,,1*75
$GBGSV,4,3,13,31,07,330,,29,05,256,13,25,03,035,16,04,01,261,,1*7E
$GBGSV,4,4,13,44,01,351,,1*42
$GNRMC,204058.000,A,4910.429014,N,12304.400718,W,0.01,0.00,091024,,,D,V*11
$GNVTG,0.00,T,,M,0.01,N,0.03,K,D*24
$GNGGA,204059.000,4910.428990,N,12304.400706,W,2,30,0.51,3.566,M,-16.816,M,,*4E
$GNGLL,4910.428990,N,12304.400706,W,204059.000,A,D*59
$GNGSA,A,3,03,04,31,26,09,06,28,16,02,,,,0.89,0.51,0.73,1*01
$GNGSA,A,3,66,76,77,75,65,82,,,,,,,0.89,0.51,0.73,2*09
$GNGSA,A,3,09,06,05,04,34,36,31,15,,,,,0.89,0.51,0.73,3*08
$GNGSA,A,3,20,37,32,23,19,35,29,,,,,,0.89,0.51,0.73,4*06
$GPGSV,3,1,10,03,76,194,43,04,61,285,40,31,56,064,40,26,37,103,38,1*68
$GPGSV,3,2,10,44,33,171,36,09,27,277,32,06,23,313,36,28,23,052,36,1*63
$GPGSV,3,3,10,16,20,138,33,02,07,205,32,1*69
$GLGSV,2,1,07,66,69,050,40,76,58,112,36,67,40,307,,77,29,170,26,1*71
$GLGSV,2,2,07,75,27,033,23,65,26,102,27,82,24,275,34,1*43
$GAGSV,3,1,11,09,81,018,39,06,60,075,38,05,36,274,33,04,34,082,36,7*76
$GAGSV,3,2,11,34,34,295,33,36,33,231,32,31,29,123,33,15,06,338,25,7*7C
$GAGSV,3,3,11,11,04,190,18,24,03,166,19,21,03,020,25,7*4F
$GBGSV,4,1,13,20,69,304,36,37,52,155,30,32,50,114,31,23,45,067,32,1*7D
$GBGSV,4,2,13,58,32,069,,19,19,298,26,35,10,310,29,46,10,195,,1*76
$GBGSV,4,3,13,31,07,330,,29,05,256,16,25,03,035,16,04,01,261,,1*7B
$GBGSV,4,4,13,44,01,351,,1*42
$GNRMC,204059.000,A,4910.428990,N,12304.400706,W,0.02,0.00,091024,,,D,V*18
$GNVTG,0.00,T,,M,0.02,N,0.03,K,D*27
$GNGGA,204100.000,4910.428978,N,12304.400784,W,2,30,0.51,3.530,M,-16.816,M,,*4C
$GNGLL,4910.428978,N,12304.400784,W,204100.000,A,D*58
$GNGSA,A,3,03,04,31,26,09,06,28,16,02,,,,0.89,0.51,0.73,1*01
$GNGSA,A,3,66,76,77,75,65,82,,,,,,,0.89,0.51,0.73,2*09
$GNGSA,A,3,09,06,05,04,34,36,31,15,,,,,0.89,0.51,0.73,3*08
$GNGSA,A,3,20,37,32,23,19,35,29,,,,,,0.89,0.51,0.73,4*06
$GPGSV,3,1,10,03,76,194,43,04,61,285,40,31,56,064,40,26,37,103,38,1*68
$GPGSV,3,2,10,44,33,171,36,09,27,277,32,06,23,313,36,28,23,052,36,1*63
$GPGSV,3,3,10,16,20,138,33,02,07,205,32,1*69
$GLGSV,2,1,07,66,69,050,40,76,58,112,36,67,40,307,,77,29,170,26,1*71
$GLGSV,2,2,07,75,27,033,23,65,26,102,27,82,24,275,34,1*43
$GAGSV,3,1,11,09,81,018,39,06,60,075,38,05,36,274,33,04,34,082,35,7*75
$GAGSV,3,2,11,34,34,295,33,36,33,231,32,31,29,123,33,15,06,338,25,7*7C
$GAGSV,3,3,11,11,04,190,18,24,03,166,19,21,03,020,25,7*4F
$GBGSV,4,1,13,20,69,304,36,37,52,155,30,32,50,114,31,23,45,067,32,1*7D
$GBGSV,4,2,13,58,32,069,,19,19,298,24,35,10,310,30,46,10,195,,1*7C
$GBGSV,4,3,13,31,07,330,,29,05,256,16,25,03,035,16,04,01,261,,1*7B
$GBGSV,4,4,13,44,01,351,,1*42
$GNRMC,204100.000,A,4910.428978,N,12304.400784,W,0.02,0.00,091024,,,D,V*19
$GNVTG,0.00,T,,M,0.02,N,0.03,K,D*27
$GNGGA,204101.000,4910.428930,N,12304.400838,W,2,30,0.51,3.418,M,-16.817,M,,*43
$GNGLL,4910.428930,N,12304.400838,W,204101.000,A,D*5D
$GNGSA,A,3,03,04,31,26,09,06,28,16,02,,,,0.89,0.51,0.73,1*01
$GNGSA,A,3,66,76,77,75,65,82,,,,,,,0.89,0.51,0.73,2*09
$GNGSA,A,3,09,06,05,04,34,36,31,15,,,,,0.89,0.51,0.73,3*08
$GNGSA,A,3,20,37,32,23,19,35,29,,,,,,0.89,0.51,0.73,4*06
$GPGSV,3,1,10,03,76,194,43,04,61,285,40,31,56,064,40,26,37,103,38,1*68
$GPGSV,3,2,10,44,33,171,36,09,27,277,32,06,23,313,36,28,23,052,36,1*63
$GPGSV,3,3,10,16,20,138,33,02,07,205,32,1*69
$GLGSV,2,1,07,66,69,050,40,76,58,112,36,67,40,307,,77,29,170,26,1*71
$GLGSV,2,2,07,75,27,033,23,65,26,102,27,82,24,275,34,1*43
$GAGSV,3,1,11,09,81,018,39,06,60,075,38,05,36,274,33,04,34,082,35,7*75
$GAGSV,3,2,11,34,34,295,33,36,33,231,32,31,29,123,33,15,06,338,25,7*7C
$GAGSV,3,3,11,11,04,190,18,24,03,166,19,21,03,020,25,7*4F
$GBGSV,4,1,13,20,69,304,35,37,52,155,30,32,50,114,30,23,45,067,32,1*7F
$GBGSV,4,2,13,58,32,069,,19,19,298,23,35,10,310,30,46,10,195,,1*7B
$GBGSV,4,3,13,31,07,330,,29,05,256,17,25,03,035,16,04,01,261,,1*7A
$GBGSV,4,4,13,44,01,351,,1*42
$GNRMC,204101.000,A,4910.428930,N,12304.400838,W,0.02,0.00,091024,,,D,V*1C
$GNVTG,0.00,T,,M,0.02,N,0.04,K,D*20
$GNGGA,204102.000,4910.428876,N,12304.400844,W,2,30,0.51,3.406,M,-16.817,M,,*47
$GNGLL,4910.428876,N,12304.400844,W,204102.000,A,D*56
$GNGSA,A,3,03,04,31,26,09,06,28,16,02,,,,0.89,0.51,0.73,1*01
$GNGSA,A,3,66,76,77,75,65,82,,,,,,,0.89,0.51,0.73,2*09
$GNGSA,A,3,09,06,05,04,34,36,31,15,,,,,0.89,0.51,0.73,3*08
$GNGSA,A,3,20,37,32,23,19,35,29,,,,,,0.89,0.51,0.73,4*06
$GPGSV,3,1,10,03,76,194,43,04,61,285,40,31,56,064,40,26,37,103,38,1*68
$GPGSV,3,2,10,44,33,171,36,09,27,277,32,06,23,313,36,28,23,052,36,1*63
$GPGSV,3,3,10,16,20,138,33,02,07,205,32,1*69
$GLGSV,2,1,07,66,69,050,40,76,58,112,36,67,40,307,,77,29,170,26,1*71
$GLGSV,2,2,07,75,27,033,23,65,26,102,27,82,24,275,34,1*43
$GAGSV,3,1,11,09,81,018,39,06,60,075,38,05,36,274,33,04,34,082,35,7*75
$GAGSV,3,2,11,34,34,295,32,36,33,231,32,31,29,123,33,15,06,338,25,7*7D
$GAGSV,3,3,11,11,04,190,19,24,03,166,20,21,03,020,25,7*44
$GBGSV,4,1,13,20,69,304,35,37,52,155,30,32,50,114,30,23,45,067,32,1*7F
$GBGSV,4,2,13,58,32,069,,19,19,298,25,35,10,310,30,46,10,195,,1*7D
$GBGSV,4,3,13,31,07,330,,29,05,256,17,25,03,035,14,04,01,261,,1*78
$GBGSV,4,4,13,44,01,351,,1*42
$GNRMC,204102.000,A,4910.428876,N,12304.400844,W,0.02,0.00,091024,,,D,V*17
$GNVTG,0.00,T,,M,0.02,N,0.03,K,D*27
$GNGGA,204103.000,4910.428864,N,12304.400838,W,2,30,0.51,3.369,M,-16.817,M,,*40
$GNGLL,4910.428864,N,12304.400838,W,204103.000,A,D*5F
$GNGSA,A,3,03,04,31,26,09,06,28,16,02,,,,0.89,0.51,0.73,1*01
$GNGSA,A,3,66,76,77,75,65,82,,,,,,,0.89,0.51,0.73,2*09
