$GNGGA,230136.000,4910.429806,N,12304.402980,W,2,34,0.44,3.905,M,-16.817,M,,*44
$GNGLL,4910.429806,N,12304.402980,W,230136.000,A,D*5B
$GNGSA,A,3,09,04,07,16,30,20,27,26,11,03,08,,0.72,0.44,0.57,1*00
$GNGSA,A,3,67,77,68,78,76,66,,,,,,,0.72,0.44,0.57,2*04
$GNGSA,A,3,05,24,31,09,03,06,25,15,13,34,,,0.72,0.44,0.57,3*0F
$GNGSA,A,3,19,20,37,22,36,38,08,,,,,,0.72,0.44,0.57,4*0B
$GPGSV,4,1,13,09,88,274,44,04,56,117,39,07,55,257,41,16,42,062,39,1*6C
$GPGSV,4,2,13,44,33,171,38,30,23,253,36,20,21,317,36,27,15,102,34,1*6B
$GPGSV,4,3,13,26,13,044,32,11,10,295,33,03,09,174,31,08,06,132,30,1*6E
$GPGSV,4,4,13,06,03,256,25,1*55
$GLGSV,2,1,07,67,65,139,34,69,65,320,,77,61,044,33,68,59,321,34,1*7D
$GLGSV,2,2,07,78,52,212,38,76,15,039,34,66,12,139,30,1*4E
$GAGSV,3,1,10,05,82,306,40,24,55,147,39,31,43,061,37,09,41,115,38,7*74
$GAGSV,3,2,10,03,28,297,34,06,18,115,33,25,16,192,35,15,14,296,30,7*78
$GAGSV,3,3,10,13,06,345,30,34,05,248,31,7*79
$GBGSV,3,1,12,46,70,204,,19,69,274,41,20,48,161,37,37,48,060,36,1*70
$GBGSV,3,2,12,22,20,314,32,36,19,226,29,38,16,331,25,57,08,046,,1*73
$GBGSV,3,3,12,08,07,341,27,11,03,015,23,43,02,035,15,04,01,261,,1*78
$GNRMC,230136.000,A,4910.429806,N,12304.402980,W,0.01,159.82,091024,,,D,V*1E
$GNVTG,159.82,T,,M,0.01,N,0.02,K,D*22
$GNGGA,230137.000,4910.429740,N,12304.402980,W,2,34,0.44,3.880,M,-16.816,M,,*45
$GNGLL,4910.429740,N,12304.402980,W,230137.000,A,D*57
$GNGSA,A,3,09,04,07,16,30,20,27,26,11,03,08,,0.72,0.44,0.57,1*00
$GNGSA,A,3,67,77,68,78,76,66,,,,,,,0.72,0.44,0.57,2*04
$GNGSA,A,3,05,24,31,09,03,06,25,15,13,34,,,0.72,0.44,0.57,3*0F
$GNGSA,A,3,19,20,37,22,36,38,08,,,,,,0.72,0.44,0.57,4*0B
$GPGSV,4,1,13,09,88,274,44,04,56,117,39,07,55,257,41,16,42,062,39,1*6C
$GPGSV,4,2,13,44,33,171,38,30,23,253,36,20,21,317,36,27,15,102,34,1*6B
$GPGSV,4,3,13,26,13,044,32,11,10,295,33,03,09,174,31,08,06,132,30,1*6E
$GPGSV,4,4,13,06,03,256,25,1*55
$GLGSV,2,1,07,67,65,139,34,69,65,320,,77,61,044,33,68,59,321,34,1*7D
$GLGSV,2,2,07,78,52,212,38,76,15,039,34,66,12,139,30,1*4E
$GAGSV,3,1,10,05,82,306,40,24,55,147,39,31,43,061,37,09,41,115,38,7*74
$GAGSV,3,2,10,03,28,297,34,06,18,115,33,25,16,192,35,15,14,296,30,7*78
$GAGSV,3,3,10,13,06,345,30,34,05,248,31,7*79
$GBGSV,3,1,12,46,70,204,,19,69,274,41,20,48,161,37,37,48,060,36,1*70
$GBGSV,3,2,12,22,20,314,32,36,19,226,29,38,16,331,25,57,08,046,,1*73
$GBGSV,3,3,12,08,07,341,27,11,03,015,23,43,02,035,15,04,01,261,,1*78
$GNRMC,230137.000,A,4910.429740,N,12304.402980,W,0.01,159.82,091024,,,D,V*12
$GNVTG,159.82,T,,M,0.01,N,0.02,K,D*22
$GNGGA,230138.000,4910.429686,N,12304.403010,W,2,34,0.44,3.816,M,-16.816,M,,*4F
$GNGLL,4910.429686,N,12304.403010,W,230138.000,A,D*52
$GNGSA,A,3,09,04,07,16,30,20,27,26,11,03,08,,0.72,0.44,0.57,1*00
$GNGSA,A,3,67,77,68,78,76,66,,,,,,,0.72,0.44,0.57,2*04
$GNGSA,A,3,05,24,31,09,03,06,25,15,13,34,,,0.72,0.44,0.57,3*0F
$GNGSA,A,3,19,20,37,22,36,38,08,,,,,,0.72,0.44,0.57,4*0B
$GPGSV,4,1,13,09,88,274,44,04,56,117,39,07,55,257,41,16,42,062,39,1*6C
$GPGSV,4,2,13,44,33,171,38,30,23,253,36,20,21,317,36,27,15,102,34,1*6B
$GPGSV,4,3,13,26,13,044,32,11,10,295,33,03,09,174,31,08,06,132,30,1*6E
$GPGSV,4,4,13,06,03,256,25,1*55
$GLGSV,2,1,07,67,65,139,35,69,65,320,,77,61,044,33,68,59,321,34,1*7C
$GLGSV,2,2,07,78,52,212,38,76,15,039,34,66,12,139,30,1*4E
$GAGSV,3,1,10,05,82,306,40,24,55,147,39,31,43,061,37,09,41,115,38,7*74
$GAGSV,3,2,10,03,28,297,34,06,18,115,33,25,16,192,35,15,14,296,30,7*78
$GAGSV,3,3,10,13,06,345,30,34,05,248,31,7*79
$GBGSV,3,1,12,46,70,204,,19,69,274,41,20,48,161,37,37,48,060,36,1*70
$GBGSV,3,2,12,22,20,314,32,36,19,226,30,38,16,331,25,57,08,046,,1*7B
$GBGSV,3,3,12,08,07,341,27,11,03,015,23,43,02,035,15,04,01,261,,1*78
$GNRMC,230138.000,A,4910.429686,N,12304.403010,W,0.01,159.82,091024,,,D,V*17
$GNVTG,159.82,T,,M,0.01,N,0.01,K,D*21
$GNGGA,230139.000,4910.429614,N,12304.403016,W,2,34,0.44,3.858,M,-16.817,M,,*48
$GNGLL,4910.429614,N,12304.403016,W,230139.000,A,D*5E
$GNGSA,A,3,09,04,07,16,30,20,27,26,11,03,08,,0.72,0.44,0.57,1*00
$GNGSA,A,3,67,77,68,78,76,66,,,,,,,0.72,0.44,0.57,2*04
$GNGSA,A,3,05,24,31,09,03,06,25,15,13,34,,,0.72,0.44,0.57,3*0F
$GNGSA,A,3,19,20,37,22,36,38,08,,,,,,0.72,0.44,0.57,4*0B
$GPGSV,4,1,13,09,88,274,44,04,56,117,39,07,55,257,41,16,42,062,39,1*6C
$GPGSV,4,2,13,44,33,171,38,30,23,253,36,20,21,317,36,27,15,102,34,1*6B
$GPGSV,4,3,13,26,13,044,32,11,10,295,33,03,09,174,31,08,06,132,30,1*6E
$GPGSV,4,4,13,06,03,256,25,1*55
$GLGSV,2,1,07,67,65,139,35,69,65,320,,77,61,044,33,68,59,321,34,1*7C
$GLGSV,2,2,07,78,52,212,38,76,15,039,34,66,12,139,30,1*4E
$GAGSV,3,1,10,05,82,306,40,24,55,147,40,31,43,061,37,09,41,115,38,7*7A
$GAGSV,3,2,10,03,28,297,34,06,18,115,33,25,16,192,35,15,14,296,30,7*78
$GAGSV,3,3,10,13,06,345,30,34,05,248,31,7*79
$GBGSV,3,1,12,46,70,204,,19,69,274,41,20,48,161,37,37,48,060,36,1*70
$GBGSV,3,2,12,22,20,314,32,36,19,226,30,38,16,331,25,57,08,046,,1*7B
$GBGSV,3,3,12,08,07,341,27,11,03,015,22,43,02,035,15,04,01,261,,1*79
$GNRMC,230139.000,A,4910.429614,N,12304.403016,W,0.01,159.82,091024,,,D,V*1B
$GNVTG,159.82,T,,M,0.01,N,0.02,K,D*22
$GNGGA,230140.000,4910.429554,N,12304.403082,W,2,34,0.44,3.872,M,-16.816,M,,*45
$GNGLL,4910.429554,N,12304.403082,W,230140.000,A,D*5A
$GNGSA,A,3,09,04,07,16,30,20,27,26,11,03,08,,0.72,0.44,0.57,1*00
$GNGSA,A,3,67,77,68,78,76,66,,,,,,,0.72,0.44,0.57,2*04
$GNGSA,A,3,05,24,31,09,03,06,25,15,13,34,,,0.72,0.44,0.57,3*0F
$GNGSA,A,3,19,20,37,22,36,38,08,,,,,,0.72,0.44,0.57,4*0B
$GPGSV,4,1,13,09,88,274,44,04,56,117,39,07,55,257,41,16,42,062,39,1*6C
$GPGSV,4,2,13,44,33,171,38,30,23,253,36,20,21,317,36,27,15,102,34,1*6B
$GPGSV,4,3,13,26,13,044,32,11,10,295,33,03,09,174,31,08,06,132,30,1*6E
$GPGSV,4,4,13,06,03,256,25,1*55
$GLGSV,2,1,07,67,65,139,35,69,65,320,,77,61,044,34,68,59,321,34,1*7B
$GLGSV,2,2,07,78,52,212,38,76,15,039,34,66,12,139,30,1*4E
$GAGSV,3,1,10,05,82,306,40,24,55,147,40,31,43,061,37,09,41,115,38,7*7A
$GAGSV,3,2,10,03,28,297,34,06,18,115,33,25,16,192,35,15,14,296,30,7*78
$GAGSV,3,3,10,13,06,345,30,34,05,248,31,7*79
$GBGSV,3,1,12,46,70,204,,19,69,274,41,20,48,161,37,37,48,060,36,1*70
$GBGSV,3,2,12,22,20,314,32,36,19,226,30,38,16,331,25,57,08,046,,1*7B
$GBGSV,3,3,12,08,07,341,27,11,03,015,22,43,02,035,14,04,01,261,,1*78
$GNRMC,230140.000,A,4910.429554,N,12304.403082,W,0.01,159.82,091024,,,D,V*1F
$GNVTG,159.82,T,,M,0.01,N,0.02,K,D*22
$GNGGA,230141.000,4910.429488,N,12304.403082,W,2,34,0.44,3.885,M,-16.817,M,,*4D
$GNGLL,4910.429488,N,12304.403082,W,230141.000,A,D*5B
$GNGSA,A,3,09,04,07,16,30,20,27,26,11,03,08,,0.72,0.44,0.57,1*00
$GNGSA,A,3,67,77,68,78,76,66,,,,,,,0.72,0.44,0.57,2*04
$GNGSA,A,3,05,24,31,09,03,06,25,15,13,34,,,0.72,0.44,0.57,3*0F
$GNGSA,A,3,19,20,37,22,36,38,08,,,,,,0.72,0.44,0.57,4*0B
$GPGSV,4,1,13,09,88,274,44,04,56,117,39,07,55,257,41,16,42,062,39,1*6C
$GPGSV,4,2,13,44,33,171,38,30,23,253,36,20,21,317,36,27,15,102,34,1*6B
$GPGSV,4,3,13,26,13,044,32,11,10,295,33,03,09,174,31,08,06,132,30,1*6E
$GPGSV,4,4,13,06,03,256,24,1*54
$GLGSV,2,1,07,67,65,139,35,69,65,320,,77,61,044,34,68,59,321,34,1*7B
$GLGSV,2,2,07,78,52,212,38,76,15,039,34,66,12,139,30,1*4E
$GAGSV,3,1,10,05,82,306,40,24,55,147,40,31,43,061,37,09,41,115,38,7*7A
$GAGSV,3,2,10,03,28,297,34,06,18,115,33,25,16,192,35,15,14,296,30,7*78
$GAGSV,3,3,10,13,06,345,30,34,05,248,31,7*79
$GBGSV,3,1,12,46,70,204,,19,69,274,41,20,48,161,37,37,48,060,36,1*70
$GBGSV,3,2,12,22,20,314,32,36,19,226,30,38,16,331,25,57,08,046,,1*7B
$GBGSV,3,3,12,08,07,341,27,11,03,015,22,43,02,035,13,04,01,261,,1*7F
$GNRMC,230141.000,A,4910.429488,N,12304.403082,W,0.01,159.82,091024,,,D,V*1E
$GNVTG,159.82,T,,M,0.01,N,0.02,K,D*22
$GNGGA,230142.000,4910.429452,N,12304.403094,W,2,34,0.44,3.794,M,-16.817,M,,*41
$GNGLL,4910.429452,N,12304.403094,W,230142.000,A,D*58
$GNGSA,A,3,09,04,07,16,30,20,27,26,11,03,08,,0.72,0.44,0.57,1*00
$GNGSA,A,3,67,77,68,78,76,66,,,,,,,0.72,0.44,0.57,2*04
$GNGSA,A,3,05,24,31,09,03,06,25,15,13,34,,,0.72,0.44,0.57,3*0F
$GNGSA,A,3,19,20,37,22,36,38,08,,,,,,0.72,0.44,0.57,4*0B
$GPGSV,4,1,13,09,88,274,44,04,56,117,39,07,55,257,41,16,42,062,39,1*6C
$GPGSV,4,2,13,44,33,171,38,30,23,253,35,20,21,317,36,27,15,102,34,1*68
$GPGSV,4,3,13,26,13,044,32,11,10,295,33,03,09,174,31,08,06,132,30,1*6E
$GPGSV,4,4,13,06,03,256,24,1*54
$GLGSV,2,1,07,67,65,139,35,69,65,320,,77,61,044,34,68,59,321,34,1*7B
$GLGSV,2,2,07,78,52,212,38,76,15,039,34,66,12,139,30,1*4E
$GAGSV,3,1,10,05,82,306,40,24,55,147,40,31,43,061,37,09,41,115,38,7*7A
$GAGSV,3,2,10,03,28,297,34,06,18,115,33,25,16,192,35,15,14,296,30,7*78
$GAGSV,3,3,10,13,06,345,30,34,05,248,30,7*78
$GBGSV,3,1,12,46,70,204,,19,69,274,41,20,48,161,37,37,48,060,36,1*70
$GBGSV,3,2,12,22,20,314,32,36,19,226,30,38,16,331,25,57,08,046,,1*7B
$GBGSV,3,3,12,08,07,341,27,11,03,015,22,43,02,035,12,04,01,261,,1*7E
$GNRMC,230142.000,A,4910.429452,N,12304.403094,W,0.01,159.82,091024,,,D,V*1D
$GNVTG,159.82,T,,M,0.01,N,0.03,K,D*23
$GNGGA,230143.000,4910.429410,N,12304.403100,W,2,34,0.44,3.684,M,-16.816,M,,*4B
$GNGLL,4910.429410,N,12304.403100,W,230143.000,A,D*53
$GNGSA,A,3,09,04,07,16,30,20,27,26,11,03,08,,0.72,0.44,0.57,1*00
$GNGSA,A,3,67,77,68,78,76,66,,,,,,,0.72,0.44,0.57,2*04
$GNGSA,A,3,05,24,31,09,03,06,25,15,13,34,,,0.72,0.44,0.57,3*0F
$GNGSA,A,3,19,20,37,22,36,38,08,,,,,,0.72,0.44,0.57,4*0B
$GPGSV,4,1,13,09,88,274,44,04,56,117,39,07,55,257,41,16,42,062,39,1*6C
$GPGSV,4,2,13,44,33,171,38,30,23,253,35,20,21,317,36,27,15,102,34,1*68
$GPGSV,4,3,13,26,13,044,32,11,10,295,33,03,09,174,31,08,06,132,30,1*6E
$GPGSV,4,4,13,06,03,256,23,1*53
$GLGSV,2,1,07,67,65,139,35,69,65,320,,77,61,044,34,68,59,321,34,1*7B
$GLGSV,2,2,07,78,52,212,38,76,15,039,34,66,12,139,30,1*4E
$GAGSV,3,1,10,05,82,306,40,24,55,147,40,31,43,061,37,09,41,115,38,7*7A
$GAGSV,3,2,10,03,28,297,34,06,18,115,33,25,16,192,35,15,14,296,29,7*70
$GAGSV,3,3,10,13,06,345,30,34,05,248,30,7*78
$GBGSV,3,1,12,46,70,204,,19,69,274,41,20,48,161,37,37,48,060,36,1*70
$GBGSV,3,2,12,22,20,314,31,36,19,226,30,38,16,331,25,57,08,046,,1*78
$GBGSV,3,3,12,08,07,341,27,11,03,015,22,43,02,035,12,04,01,261,,1*7E
$GNRMC,230143.000,A,4910.429410,N,12304.403100,W,0.02,159.82,091024,,,D,V*15
$GNVTG,159.82,T,,M,0.02,N,0.03,K,D*20
$GNGGA,230144.000,4910.429410,N,12304.403142,W,2,34,0.44,3.554,M,-16.816,M,,*44
$GNGLL,4910.429410,N,12304.403142,W,230144.000,A,D*52
$GNGSA,A,3,09,04,07,16,30,20,27,26,11,03,08,,0.72,0.44,0.57,1*00
$GNGSA,A,3,67,77,68,78,76,66,,,,,,,0.72,0.44,0.57,2*04
$GNGSA,A,3,05,24,31,09,03,06,25,15,13,34,,,0.72,0.44,0.57,3*0F
$GNGSA,A,3,19,20,37,22,36,38,08,,,,,,0.72,0.44,0.57,4*0B
$GPGSV,4,1,13,09,88,274,44,04,56,117,39,07,55,257,41,16,42,062,39,1*6C
$GPGSV,4,2,13,44,33,171,38,30,23,253,35,20,21,317,36,27,15,102,34,1*68
$GPGSV,4,3,13,26,13,044,32,11,10,295,33,03,09,174,31,08,06,132,30,1*6E
$GPGSV,4,4,13,06,03,256,23,1*53
$GLGSV,2,1,07,67,65,139,34,69,65,320,,77,61,044,34,68,59,321,34,1*7A
$GLGSV,2,2,07,78,52,212,38,76,15,039,34,66,12,139,31,1*4F
$GAGSV,3,1,10,05,82,306,40,24,55,147,40,31,43,061,37,09,41,115,38,7*7A
$GAGSV,3,2,10,03,28,297,34,06,18,115,33,25,16,192,35,15,14,296,29,7*70
$GAGSV,3,3,10,13,06,345,30,34,05,248,30,7*78
$GBGSV,3,1,12,46,70,204,,19,69,274,41,20,48,161,37,37,48,060,36,1*70
$GBGSV,3,2,12,22,20,314,31,36,19,226,30,38,16,331,25,57,08,046,,1*78
$GBGSV,3,3,12,08,07,341,27,11,03,015,22,43,02,035,12,04,01,261,,1*7E
$GNRMC,230144.000,A,4910.429410,N,12304.403142,W,0.01,159.82,091024,,,D,V*17
$GNVTG,159.82,T,,M,0.01,N,0.02,K,D*22
$GNGGA,230145.000,4910.429380,N,12304.403190,W,2,34,0.44,3.540,M,-16.817,M,,*40
$GNGLL,4910.429380,N,12304.403190,W,230145.000,A,D*52
$GNGSA,A,3,09,04,07,16,30,20,27,26,11,03,08,,0.72,0.44,0.57,1*00
$GNGSA,A,3,67,77,68,78,76,66,,,,,,,0.72,0.44,0.57,2*04
$GNGSA,A,3,05,24,31,09,03,06,25,15,13,34,,,0.72,0.44,0.57,3*0F
$GNGSA,A,3,19,20,37,22,36,38,08,,,,,,0.72,0.44,0.57,4*0B
$GPGSV,4,1,13,09,88,274,44,04,56,117,39,07,55,257,41,16,42,062,39,1*6C
$GPGSV,4,2,13,44,33,171,38,30,23,253,35,20,21,317,36,27,15,102,34,1*68
$GPGSV,4,3,13,26,13,044,32,11,10,295,32,03,09,174,31,08,06,132,30,1*6F
$GPGSV,4,4,13,06,03,256,23,1*53
$GLGSV,2,1,07,67,65,139,34,69,65,320,,77,61,044,34,68,59,321,34,1*7A
$GLGSV,2,2,07,78,52,212,38,76,15,039,34,66,12,139,31,1*4F
$GAGSV,3,1,10,05,82,306,40,24,55,147,40,31,43,061,37,09,41,115,38,7*7A
$GAGSV,3,2,10,03,28,297,34,06,18,115,33,25,16,192,35,15,14,296,29,7*70
$GAGSV,3,3,10,13,06,345,30,34,05,248,30,7*78
$GBGSV,3,1,12,46,70,204,,19,69,274,41,20,48,161,37,37,48,060,36,1*70
$GBGSV,3,2,12,22,20,314,31,36,19,226,30,38,16,331,25,57,08,046,,1*78
$GBGSV,3,3,12,08,07,341,27,11,03,015,22,43,02,035,12,04,01,261,,1*7E
$GNRMC,230145.000,A,4910.429380,N,12304.403190,W,0.02,159.82,091024,,,D,V*14
$GNVTG,159.82,T,,M,0.02,N,0.03,K,D*20
$GNGGA,230146.000,4910.429386,N,12304.403202,W,2,34,0.44,3.423,M,-16.816,M,,*48
$GNGLL,4910.429386,N,12304.403202,W,230146.000,A,D*5F
$GNGSA,A,3,09,04,07,16,30,20,27,26,11,03,08,,0.72,0.44,0.57,1*00
$GNGSA,A,3,67,77,68,78,76,66,,,,,,,0.72,0.44,0.57,2*04
$GNGSA,A,3,05,24,31,09,03,06,25,15,13,34,,,0.72,0.44,0.57,3*0F
$GNGSA,A,3,19,20,37,22,36,38,08,,,,,,0.72,0.44,0.57,4*0B
$GPGSV,4,1,13,09,88,274,44,04,56,117,39,07,55,257,41,16,42,062,38,1*6D
$GPGSV,4,2,13,44,33,171,38,30,23,253,35,20,21,317,36,27,15,102,34,1*68
$GPGSV,4,3,13,26,13,044,32,11,10,295,32,03,09,174,31,08,06,132,30,1*6F
$GPGSV,4,4,13,06,03,256,23,1*53
$GLGSV,2,1,07,67,65,139,34,69,65,320,,77,61,044,34,68,59,321,34,1*7A
$GLGSV,2,2,07,78,52,212,38,76,15,039,33,66,12,139,30,1*49
$GAGSV,3,1,10,05,82,306,40,24,55,147,40,31,43,061,37,09,41,115,38,7*7A
$GAGSV,3,2,10,03,29,298,34,06,18,115,33,25,16,192,35,15,14,296,28,7*7F
$GAGSV,3,3,10,13,06,345,30,34,05,248,30,7*78
$GBGSV,3,1,12,46,70,204,,19,69,274,41,20,48,161,38,37,48,060,37,1*7E
$GBGSV,3,2,12,22,20,314,31,36,19,226,31,38,16,331,26,57,08,046,,1*7A
$GBGSV,3,3,12,08,07,341,27,11,03,015,23,43,02,035,13,04,01,261,,1*7E
$GNRMC,230146.000,A,4910.429386,N,12304.403202,W,0.02,159.82,091024,,,D,V*19
$GNVTG,159.82,T,,M,0.02,N,0.03,K,D*20
$GNGGA,230147.000,4910.429416,N,12304.403244,W,2,34,0.44,3.355,M,-16.817,M,,*42
$GNGLL,4910.429416,N,12304.403244,W,230147.000,A,D*52
$GNGSA,A,3,09,04,07,16,30,20,27,26,11,03,08,,0.72,0.44,0.57,1*00
$GNGSA,A,3,67,77,68,78,76,66,,,,,,,0.72,0.44,0.57,2*04
$GNGSA,A,3,05,24,31,09,03,06,25,15,13,34,,,0.72,0.44,0.57,3*0F
$GNGSA,A,3,19,20,37,22,36,38,08,,,,,,0.72,0.44,0.57,4*0B
$GPGSV,4,1,13,09,88,274,44,04,56,117,39,07,55,257,41,16,42,062,38,1*6D
$GPGSV,4,2,13,44,33,171,38,30,23,253,35,20,21,317,36,27,15,102,34,1*68
$GPGSV,4,3,13,26,13,044,32,11,10,295,32,03,09,174,31,08,06,132,31,1*6E
$GPGSV,4,4,13,06,03,256,23,1*53
$GLGSV,2,1,07,67,65,139,34,69,65,320,,77,61,044,34,68,59,321,34,1*7A
$GLGSV,2,2,07,78,52,212,38,76,15,039,32,66,12,139,30,1*48
$GAGSV,3,1,10,05,82,306,40,24,55,147,40,31,43,061,37,09,41,115,38,7*7A
$GAGSV,3,2,10,03,29,298,34,06,18,115,33,25,16,192,35,15,14,296,28,7*7F
$GAGSV,3,3,10,13,06,345,30,34,05,248,30,7*78
$GBGSV,3,1,12,46,70,204,,19,69,274,41,20,48,161,38,37,48,060,37,1*7E
$GBGSV,3,2,12,22,20,314,31,36,19,226,31,38,16,331,26,57,08,046,,1*7A
$GBGSV,3,3,12,08,07,341,27,11,03,015,23,43,02,035,13,04,01,261,,1*7E
$GNRMC,230147.000,A,4910.429416,N,12304.403244,W,0.02,159.82,091024,,,D,V*14
$GNVTG,159.82,T,,M,0.02,N,0.03,K,D*20
$GNGGA,230148.000,4910.429446,N,12304.403286,W,2,34,0.44,3.318,M,-16.816,M,,*4E
$GNGLL,4910.429446,N,12304.403286,W,230148.000,A,D*56
$GNGSA,A,3,09,04,07,16,30,20,27,26,11,03,08,,0.72,0.44,0.57,1*00
$GNGSA,A,3,67,77,68,78,76,66,,,,,,,0.72,0.44,0.57,2*04
$GNGSA,A,3,05,24,31,09,03,06,25,15,13,34,,,0.72,0.44,0.57,3*0F
$GNGSA,A,3,19,20,37,22,36,38,08,,,,,,0.72,0.44,0.57,4*0B
$GPGSV,4,1,13,09,88,274,44,04,56,117,39,07,55,257,41,16,42,062,38,1*6D
$GPGSV,4,2,13,44,33,171,38,30,23,253,35,20,21,317,36,27,15,102,34,1*68
$GPGSV,4,3,13,26,13,044,32,11,10,295,32,03,09,174,31,08,06,132,31,1*6E
$GPGSV,4,4,13,06,03,256,23,1*53
$GLGSV,2,1,07,67,65,139,34,69,65,320,,77,61,044,34,68,59,321,34,1*7A
$GLGSV,2,2,07,78,52,212,38,76,15,039,32,66,12,139,30,1*48
$GAGSV,3,1,10,05,83,306,40,24,55,147,40,31,43,061,37,09,41,115,38,7*7B
$GAGSV,3,2,10,03,29,298,34,06,18,115,33,25,16,192,35,15,14,296,28,7*7F
$GAGSV,3,3,10,13,06,345,30,34,05,248,30,7*78
$GBGSV,3,1,12,46,70,204,,19,69,274,41,20,48,161,38,37,48,060,37,1*7E
$GBGSV,3,2,12,22,20,314,31,36,19,226,31,38,16,331,26,57,08,046,,1*7A
$GBGSV,3,3,12,08,07,341,27,11,03,015,23,43,02,035,13,04,01,261,,1*7E
$GNRMC,230148.000,A,4910.429446,N,12304.403286,W,0.02,159.82,091024,,,D,V*10
$GNVTG,159.82,T,,M,0.02,N,0.03,K,D*20
$GNGGA,230149.000,4910.429476,N,12304.403334,W,2,34,0.44,3.220,M,-16.816,M,,*4E
$GNGLL,4910.429476,N,12304.403334,W,230149.000,A,D*5C
$GNGSA,A,3,09,04,07,16,30,20,27,26,11,03,08,,0.72,0.44,0.57,1*00
$GNGSA,A,3,67,77,68,78,76,66,,,,,,,0.72,0.44,0.57,2*04
$GNGSA,A,3,05,24,31,09,03,06,25,15,13,34,,,0.72,0.44,0.57,3*0F
$GNGSA,A,3,19,20,37,22,36,38,08,,,,,,0.72,0.44,0.57,4*0B
$GPGSV,4,1,13,09,88,274,44,04,56,117,39,07,55,257,41,16,42,062,38,1*6D
$GPGSV,4,2,13,44,33,171,38,30,23,253,35,20,21,317,36,27,15,102,34,1*68
$GPGSV,4,3,13,26,13,044,32,11,10,295,31,03,09,174,31,08,06,132,31,1*6D
$GPGSV,4,4,13,06,03,256,23,1*53
$GLGSV,2,1,07,67,65,139,34,69,65,320,,77,61,044,34,68,59,321,34,1*7A
$GLGSV,2,2,07,78,52,212,38,76,15,039,32,66,12,139,30,1*48
$GAGSV,3,1,10,05,83,306,40,24,55,147,40,31,43,061,37,09,41,115,38,7*7B
$GAGSV,3,2,10,03,29,298,34,06,17,116,33,25,16,192,35,15,14,296,28,7*73
$GAGSV,3,3,10,13,06,345,30,34,05,248,30,7*78
$GBGSV,3,1,12,46,70,204,,19,69,274,42,20,48,161,38,37,48,060,37,1*7D
$GBGSV,3,2,12,22,20,314,31,36,19,226,32,38,16,331,27,57,08,046,,1*78
$GBGSV,3,3,12,08,07,341,27,11,03,015,23,43,02,035,14,04,01,261,,1*79
$GNRMC,230149.000,A,4910.429476,N,12304.403334,W,0.01,159.82,091024,,,D,V*19
$GNVTG,159.82,T,,M,0.01,N,0.02,K,D*22
$GNGGA,230150.000,4910.429464,N,12304.403334,W,2,34,0.44,3.233,M,-16.816,M,,*47
$GNGLL,4910.429464,N,12304.403334,W,230150.000,A,D*57
$GNGSA,A,3,09,04,07,16,30,20,27,26,11,03,08,,0.72,0.44,0.57,1*00
$GNGSA,A,3,67,77,68,78,76,66,,,,,,,0.72,0.44,0.57,2*04
$GNGSA,A,3,05,24,31,09,03,06,25,15,13,34,,,0.72,0.44,0.57,3*0F
$GNGSA,A,3,19,20,37,22,36,38,08,,,,,,0.72,0.44,0.57,4*0B
$GPGSV,4,1,13,09,88,274,44,04,56,117,39,07,55,257,41,16,42,062,38,1*6D
$GPGSV,4,2,13,44,33,171,38,30,23,253,35,20,21,317,36,27,15,102,33,1*6F
$GPGSV,4,3,13,26,13,044,32,11,10,295,31,03,09,174,31,08,06,132,31,1*6D
$GPGSV,4,4,13,06,03,256,22,1*52
$GLGSV,2,1,07,67,65,139,34,69,65,320,,77,61,044,33,68,59,321,34,1*7D
$GLGSV,2,2,07,78,52,212,38,76,15,039,32,66,12,139,30,1*48
$GAGSV,3,1,10,05,83,306,40,24,55,147,40,31,43,061,37,09,41,115,38,7*7B
$GAGSV,3,2,10,03,29,298,34,06,17,116,33,25,16,192,35,15,14,296,28,7*73
$GAGSV,3,3,10,13,06,345,30,34,05,248,30,7*78
$GBGSV,3,1,12,46,70,204,,19,69,274,42,20,48,161,38,37,48,060,37,1*7D
$GBGSV,3,2,12,22,20,314,31,36,19,226,32,38,16,331,27,57,08,046,,1*78
$GBGSV,3,3,12,08,07,341,27,11,03,015,24,43,02,035,15,04,01,261,,1*7F
$GNRMC,230150.000,A,4910.429464,N,12304.403334,W,0.01,159.82,091024,,,D,V*12
$GNVTG,159.82,T,,M,0.01,N,0.02,K,D*22
$GNGGA,230151.000,4910.429440,N,12304.403292,W,2,34,0.44,3.226,M,-16.817,M,,*48
$GNGLL,4910.429440,N,12304.403292,W,230151.000,A,D*5D
$GNGSA,A,3,09,04,07,16,30,20,27,26,11,03,08,,0.72,0.44,0.57,1*00
$GNGSA,A,3,67,77,68,78,76,66,,,,,,,0.72,0.44,0.57,2*04
$GNGSA,A,3,05,24,31,09,03,06,25,15,13,34,,,0.72,0.44,0.57,3*0F
$GNGSA,A,3,19,20,37,22,36,38,08,,,,,,0.72,0.44,0.57,4*0B
$GPGSV,4,1,13,09,88,274,44,04,56,117,39,07,55,257,41,16,42,062,38,1*6D
$GPGSV,4,2,13,44,33,171,38,30,23,253,35,20,21,317,36,27,15,102,33,1*6F
$GPGSV,4,3,13,26,13,044,32,11,10,295,31,03,09,174,31,08,06,132,31,1*6D
$GPGSV,4,4,13,06,03,256,22,1*52
$GLGSV,2,1,07,67,65,139,34,69,65,320,,77,61,044,33,68,59,321,34,1*7D
$GLGSV,2,2,07,78,52,212,38,76,15,039,32,66,12,139,30,1*48
$GAGSV,3,1,10,05,83,306,40,24,55,147,40,31,43,061,37,09,41,115,38,7*7B
$GAGSV,3,2,10,03,29,298,34,06,17,116,33,25,16,192,35,15,14,296,28,7*73
$GAGSV,3,3,10,13,06,345,30,34,05,248,30,7*78
$GBGSV,3,1,12,46,70,204,,19,69,274,42,20,48,161,38,37,48,060,37,1*7D
$GBGSV,3,2,12,22,20,314,31,36,19,226,32,38,16,331,27,57,08,046,,1*78
$GBGSV,3,3,12,08,07,341,27,11,03,015,24,43,02,035,15,04,01,261,,1*7F
$GNRMC,230151.000,A,4910.429440,N,12304.403292,W,0.01,159.82,091024,,,D,V*18
$GNVTG,159.82,T,,M,0.01,N,0.01,K,D*21
$GNGGA,230152.000,4910.429410,N,12304.403334,W,2,34,0.44,3.315,M,-16.817,M,,*42
$GNGLL,4910.429410,N,12304.403334,W,230152.000,A,D*56
$GNGSA,A,3,09,04,07,16,30,20,27,26,11,03,08,,0.72,0.44,0.57,1*00
$GNGSA,A,3,67,77,68,78,76,66,,,,,,,0.72,0.44,0.57,2*04
$GNGSA,A,3,05,24,31,09,03,06,25,15,13,34,,,0.72,0.44,0.57,3*0F
$GNGSA,A,3,19,20,37,22,36,38,08,,,,,,0.72,0.44,0.57,4*0B
$GPGSV,4,1,13,09,88,274,44,04,56,117,39,07,55,257,41,16,42,062,38,1*6D
$GPGSV,4,2,13,44,33,171,38,30,23,253,36,20,21,317,36,27,15,102,33,1*6C
$GPGSV,4,3,13,26,13,044,32,11,10,295,31,03,09,174,31,08,06,132,31,1*6D
$GPGSV,4,4,13,06,03,256,22,1*52
$GLGSV,2,1,07,67,65,139,34,69,65,320,,77,61,044,33,68,59,321,34,1*7D
$GLGSV,2,2,07,78,52,212,38,76,15,039,32,66,12,139,29,1*40
$GAGSV,3,1,10,05,83,306,40,24,55,147,40,31,43,061,37,09,40,115,38,7*7A
$GAGSV,3,2,10,03,29,298,34,06,17,116,34,25,16,192,35,15,14,296,28,7*74
$GAGSV,3,3,10,13,06,345,30,34,05,248,30,7*78
$GBGSV,3,1,12,46,70,204,,19,69,274,41,20,48,161,38,37,48,060,37,1*7E
$GBGSV,3,2,12,22,20,314,31,36,19,226,32,38,16,331,26,57,08,046,,1*79
$GBGSV,3,3,12,08,07,341,27,11,03,015,24,43,02,035,15,04,01,261,,1*7F
$GNRMC,230152.000,A,4910.429410,N,12304.403334,W,0.01,159.82,091024,,,D,V*13
$GNVTG,159.82,T,,M,0.01,N,0.02,K,D*22
$GNGGA,230153.000,4910.429368,N,12304.403352,W,2,34,0.44,3.339,M,-16.816,M,,*44
$GNGLL,4910.429368,N,12304.403352,W,230153.000,A,D*5F
$GNGSA,A,3,09,04,07,16,30,20,27,26,11,03,08,,0.72,0.44,0.57,1*00
$GNGSA,A,3,67,77,68,78,76,66,,,,,,,0.72,0.44,0.57,2*04
$GNGSA,A,3,05,24,31,09,03,06,25,15,13,34,,,0.72,0.44,0.57,3*0F
$GNGSA,A,3,19,20,37,22,36,38,08,,,,,,0.72,0.44,0.57,4*0B
$GPGSV,4,1,13,09,88,274,44,04,56,117,39,07,55,257,41,16,42,062,38,1*6D
$GPGSV,4,2,13,44,33,171,38,30,23,253,36,20,21,317,36,27,15,102,33,1*6C
$GPGSV,4,3,13,26,13,044,32,11,10,295,31,03,09,174,31,08,06,132,31,1*6D
$GPGSV,4,4,13,06,03,256,22,1*52
$GLGSV,2,1,07,67,65,139,34,69,65,320,,77,61,044,33,68,59,321,34,1*7D
$GLGSV,2,2,07,78,52,212,38,76,15,039,32,66,12,139,29,1*40
$GAGSV,3,1,10,05,83,306,40,24,55,147,40,31,43,061,37,09,40,115,38,7*7A
$GAGSV,3,2,10,03,29,298,34,06,17,116,34,25,16,192,35,15,14,296,28,7*74
$GAGSV,3,3,10,13,06,345,30,34,05,248,30,7*78
$GBGSV,3,1,12,46,70,204,,19,69,274,41,20,48,161,38,37,48,060,37,1*7E
$GBGSV,3,2,12,22,20,314,31,36,19,226,32,38,16,331,26,57,08,046,,1*79
$GBGSV,3,3,12,08,07,341,27,11,03,015,24,43,02,035,15,04,01,261,,1*7F
$GNRMC,230153.000,A,4910.429368,N,12304.403352,W,0.01,159.82,091024,,,D,V*1A
$GNVTG,159.82,T,,M,0.01,N,0.02,K,D*22
$GNGGA,230154.000,4910.429320,N,12304.403382,W,2,34,0.44,3.372,M,-16.816,M,,*4D
$GNGLL,4910.429320,N,12304.403382,W,230154.000,A,D*59
$GNGSA,A,3,09,04,07,16,30,20,27,26,11,03,08,,0.72,0.44,0.57,1*00
$GNGSA,A,3,67,77,68,78,76,66,,,,,,,0.72,0.44,0.57,2*04
$GNGSA,A,3,05,24,31,09,03,06,25,15,13,34,,,0.72,0.44,0.57,3*0F
$GNGSA,A,3,19,20,37,22,36,38,08,,,,,,0.72,0.44,0.57,4*0B
$GPGSV,4,1,13,09,88,274,44,04,56,117,39,07,55,257,41,16,42,062,38,1*6D
$GPGSV,4,2,13,44,33,171,38,30,23,253,36,20,21,317,36,27,15,102,33,1*6C
$GPGSV,4,3,13,26,13,044,32,11,10,295,31,03,09,174,31,08,06,132,31,1*6D
$GPGSV,4,4,13,06,03,256,22,1*52
$GLGSV,2,1,07,67,65,139,34,69,65,320,,77,61,044,33,68,59,321,34,1*7D
$GLGSV,2,2,07,78,52,212,38,76,15,039,32,66,12,139,29,1*40
$GAGSV,3,1,10,05,83,306,40,24,55,147,40,31,43,061,37,09,40,115,38,7*7A
$GAGSV,3,2,10,03,29,298,34,06,17,116,34,25,16,192,35,15,14,296,28,7*74
$GAGSV,3,3,10,13,06,345,30,34,05,248,30,7*78
$GBGSV,3,1,12,46,70,204,,19,69,274,41,20,48,161,38,37,48,060,37,1*7E
$GBGSV,3,2,12,22,20,314,31,36,19,226,32,38,16,331,26,57,08,046,,1*79
$GBGSV,3,3,12,08,07,341,27,11,03,015,23,43,02,035,14,04,01,261,,1*79
$GNRMC,230154.000,A,4910.429320,N,12304.403382,W,0.02,159.82,091024,,,D,V*1F
$GNVTG,159.82,T,,M,0.02,N,0.04,K,D*27
$GNGGA,230155.000,4910.429236,N,12304.403358,W,2,34,0.44,3.387,M,-16.816,M,,*47
$GNGLL,4910.429236,N,12304.403358,W,230155.000,A,D*59
$GNGSA,A,3,09,04,07,16,30,20,27,26,11,03,08,,0.72,0.44,0.57,1*00
$GNGSA,A,3,67,77,68,78,76,66,,,,,,,0.72,0.44,0.57,2*04
$GNGSA,A,3,05,24,31,09,03,06,25,15,13,34,,,0.72,0.44,0.57,3*0F
$GNGSA,A,3,19,20,37,22,36,38,08,,,,,,0.72,0.44,0.57,4*0B
$GPGSV,4,1,13,09,88,274,44,04,56,117,39,07,55,257,41,16,42,062,38,1*6D
$GPGSV,4,2,13,44,33,171,38,30,23,253,36,20,21,317,36,27,15,102,33,1*6C
$GPGSV,4,3,13,26,13,044,32,11,10,295,31,03,09,174,31,08,06,132,31,1*6D
$GPGSV,4,4,13,06,03,256,22,1*52
$GLGSV,2,1,07,67,65,139,33,69,65,320,,77,61,044,33,68,59,321,34,1*7A
$GLGSV,2,2,07,78,52,212,38,76,15,039,32,66,12,139,29,1*40
$GAGSV,3,1,10,05,83,306,40,24,55,147,40,31,43,061,37,09,40,115,38,7*7A
$GAGSV,3,2,10,03,29,298,34,06,17,116,34,25,16,192,35,15,14,296,28,7*74
$GAGSV,3,3,10,13,06,345,30,34,05,248,30,7*78
$GBGSV,3,1,12,46,70,204,,19,69,274,41,20,48,161,38,37,48,060,37,1*7E
$GBGSV,3,2,12,22,20,314,31,36,19,226,32,38,16,331,25,57,08,046,,1*7A
$GBGSV,3,3,12,08,07,341,27,11,03,015,23,43,02,035,14,04,01,261,,1*79
$GNRMC,230155.000,A,4910.429236,N,12304.403358,W,0.03,159.82,091024,,,D,V*1E
$GNVTG,159.82,T,,M,0.03,N,0.05,K,D*27
$GNGGA,230156.000,4910.429254,N,12304.403352,W,2,34,0.44,3.389,M,-16.817,M,,*45
$GNGLL,4910.429254,N,12304.403352,W,230156.000,A,D*54
$GNGSA,A,3,09,04,07,16,30,20,27,26,11,03,08,,0.72,0.44,0.57,1*00
$GNGSA,A,3,67,77,68,78,76,66,,,,,,,0.72,0.44,0.57,2*04
$GNGSA,A,3,05,24,31,09,03,06,25,15,13,34,,,0.72,0.44,0.57,3*0F
$GNGSA,A,3,19,20,37,22,36,38,08,,,,,,0.72,0.44,0.57,4*0B
$GPGSV,4,1,13,09,88,274,44,04,56,117,39,07,55,257,41,16,42,062,38,1*6D
$GPGSV,4,2,13,44,33,171,38,30,23,253,36,20,21,317,36,27,15,102,33,1*6C
$GPGSV,4,3,13,26,13,044,32,11,10,295,31,03,09,174,31,08,06,132,31,1*6D
$GPGSV,4,4,13,06,03,256,22,1*52
$GLGSV,2,1,07,69,65,320,,67,65,139,33,77,61,044,33,68,59,321,34,1*7A
$GLGSV,2,2,07,78,52,212,38,76,15,039,32,66,12,139,29,1*40
$GAGSV,3,1,10,05,83,306,40,24,55,147,40,31,43,061,37,09,40,115,38,7*7A
$GAGSV,3,2,10,03,29,298,34,06,17,116,34,25,16,192,35,15,14,296,28,7*74
$GAGSV,3,3,10,13,07,344,30,34,05,248,30,7*78
$GBGSV,3,1,12,46,70,204,,19,69,274,41,20,48,161,38,37,48,060,37,1*7E
$GBGSV,3,2,12,22,20,314,30,36,19,226,31,38,16,331,24,57,08,046,,1*79
$GBGSV,3,3,12,08,07,341,27,11,03,015,23,43,02,035,14,04,01,261,,1*79
$GNRMC,230156.000,A,4910.429254,N,12304.403352,W,0.03,159.82,091024,,,D,V*13
$GNVTG,159.82,T,,M,0.03,N,0.05,K,D*27
$GNGGA,230157.000,4910.429260,N,12304.403394,W,2,34,0.44,3.420,M,-16.816,M,,*4C
$GNGLL,4910.429260,N,12304.403394,W,230157.000,A,D*58
$GNGSA,A,3,09,04,07,16,30,20,27,26,11,03,08,,0.72,0.44,0.57,1*00
$GNGSA,A,3,67,77,68,78,76,66,,,,,,,0.72,0.44,0.57,2*04
$GNGSA,A,3,05,24,31,09,03,06,25,15,13,34,,,0.72,0.44,0.57,3*0F
$GNGSA,A,3,19,20,37,22,36,38,08,,,,,,0.72,0.44,0.57,4*0B
$GPGSV,4,1,13,09,88,274,44,04,56,117,39,07,55,257,41,16,42,062,38,1*6D
$GPGSV,4,2,13,44,33,171,38,30,23,253,36,20,21,317,36,27,15,102,33,1*6C
$GPGSV,4,3,13,26,13,044,32,11,10,295,31,03,09,174,31,08,06,132,31,1*6D
$GPGSV,4,4,13,06,03,256,22,1*52
$GLGSV,2,1,07,69,65,320,,67,65,139,33,77,61,044,33,68,59,321,34,1*7A
$GLGSV,2,2,07,78,52,212,38,76,15,039,32,66,12,139,29,1*40
$GAGSV,3,1,10,05,83,306,40,24,55,147,40,31,43,061,37,09,40,115,38,7*7A
$GAGSV,3,2,10,03,29,298,34,06,17,116,34,25,16,192,35,15,14,296,28,7*74
$GAGSV,3,3,10,13,07,344,30,34,05,248,30,7*78
$GBGSV,3,1,12,46,70,204,,19,69,274,41,20,48,161,38,37,48,060,37,1*7E
$GBGSV,3,2,12,22,20,314,30,36,19,226,31,38,16,331,24,57,08,046,,1*79
$GBGSV,3,3,12,08,07,341,27,11,03,015,23,43,02,035,14,04,01,261,,1*79
$GNRMC,230157.000,A,4910.429260,N,12304.403394,W,0.02,159.82,091024,,,D,V*1E
$GNVTG,159.82,T,,M,0.02,N,0.04,K,D*27
$GNGGA,230158.000,4910.429290,N,12304.403442,W,2,34,0.44,3.463,M,-16.816,M,,*47
$GNGLL,4910.429290,N,12304.403442,W,230158.000,A,D*54
$GNGSA,A,3,09,04,07,16,30,20,27,26,11,03,08,,0.72,0.44,0.57,1*00
$GNGSA,A,3,67,77,68,78,76,66,,,,,,,0.72,0.44,0.57,2*04
$GNGSA,A,3,05,24,31,09,03,06,25,15,13,34,,,0.72,0.44,0.57,3*0F
$GNGSA,A,3,19,20,37,22,36,38,08,,,,,,0.72,0.44,0.57,4*0B
$GPGSV,4,1,13,09,88,274,44,04,56,117,39,07,55,257,41,16,42,062,38,1*6D
$GPGSV,4,2,13,44,33,171,38,30,23,253,36,20,21,317,36,27,15,102,33,1*6C
$GPGSV,4,3,13,26,13,044,32,11,10,295,31,03,09,174,31,08,06,132,30,1*6C
$GPGSV,4,4,13,06,03,256,22,1*52
$GLGSV,2,1,07,69,65,320,,67,65,139,33,77,61,044,33,68,59,321,33,1*7D
$GLGSV,2,2,07,78,52,212,38,76,15,039,32,66,12,139,29,1*40
$GAGSV,3,1,10,05,83,306,40,24,55,147,40,31,43,061,37,09,40,115,38,7*7A
$GAGSV,3,2,10,03,29,298,34,06,17,116,34,25,16,192,35,15,14,295,28,7*77
$GAGSV,3,3,10,13,07,344,30,34,05,248,30,7*78
$GBGSV,3,1,12,46,70,204,,19,69,274,41,20,48,161,38,37,48,060,37,1*7E
$GBGSV,3,2,12,22,20,314,30,36,19,226,31,38,16,331,24,57,08,046,,1*79
$GBGSV,3,3,12,08,07,341,27,11,03,015,23,43,02,035,14,04,01,261,,1*79
$GNRMC,230158.000,A,4910.429290,N,12304.403442,W,0.02,159.82,091024,,,D,V*12
$GNVTG,159.82,T,,M,0.02,N,0.03,K,D*20
$GNGGA,230159.000,4910.429356,N,12304.403472,W,2,34,0.44,3.487,M,-16.816,M,,*44
$GNGLL,4910.429356,N,12304.403472,W,230159.000,A,D*5D
$GNGSA,A,3,09,04,07,16,30,20,27,26,11,03,08,,0.72,0.44,0.57,1*00
$GNGSA,A,3,67,77,68,78,76,66,,,,,,,0.72,0.44,0.57,2*04
$GNGSA,A,3,05,24,31,09,03,06,25,15,13,34,,,0.72,0.44,0.57,3*0F
$GNGSA,A,3,19,20,37,22,36,38,08,,,,,,0.72,0.44,0.57,4*0B
$GPGSV,4,1,13,09,88,274,44,04,56,117,39,07,55,257,41,16,42,062,38,1*6D
$GPGSV,4,2,13,44,33,171,38,30,23,253,36,20,21,317,36,27,15,102,33,1*6C
$GPGSV,4,3,13,26,13,044,33,11,10,295,31,03,09,174,31,08,06,132,30,1*6D
$GPGSV,4,4,13,06,03,256,23,1*53
$GLGSV,2,1,07,69,65,320,,67,65,139,33,77,61,044,33,68,59,321,33,1*7D
$GLGSV,2,2,07,78,52,212,38,76,15,039,33,66,12,139,29,1*41
$GAGSV,3,1,10,05,83,306,40,24,55,147,40,31,43,061,37,09,40,115,38,7*7A
$GAGSV,3,2,10,03,29,298,34,06,17,116,34,25,16,192,35,15,14,295,29,7*76
$GAGSV,3,3,10,13,07,344,30,34,05,248,30,7*78
$GBGSV,3,1,12,46,70,204,,19,69,274,41,20,48,161,38,37,48,060,37,1*7E
$GBGSV,3,2,12,22,20,314,30,36,19,226,31,38,16,331,24,57,08,046,,1*79
$GBGSV,3,3,12,08,07,341,27,11,03,015,23,43,02,035,13,04,01,261,,1*7E
$GNRMC,230159.000,A,4910.429356,N,12304.403472,W,0.01,159.82,091024,,,D,V*18
$GNVTG,159.82,T,,M,0.01,N,0.02,K,D*22
$GNGGA,230200.000,4910.429380,N,12304.403484,W,2,34,0.44,3.497,M,-16.817,M,,*49
$GNGLL,4910.429380,N,12304.403484,W,230200.000,A,D*50
$GNGSA,A,3,09,04,07,16,30,20,27,26,11,03,08,,0.72,0.44,0.57,1*00
$GNGSA,A,3,67,77,68,78,76,66,,,,,,,0.72,0.44,0.57,2*04
$GNGSA,A,3,05,24,31,09,03,06,25,15,13,34,,,0.72,0.44,0.57,3*0F
$GNGSA,A,3,19,20,37,22,36,38,08,,,,,,0.72,0.44,0.57,4*0B
$GPGSV,4,1,13,09,88,274,44,04,56,117,39,07,55,257,41,16,42,062,38,1*6D
$GPGSV,4,2,13,44,33,171,38,30,23,253,36,20,21,317,36,27,15,102,33,1*6C
$GPGSV,4,3,13,26,13,044,33,11,10,295,31,03,09,174,31,08,06,132,30,1*6D
$GPGSV,4,4,13,06,03,256,23,1*53
$GLGSV,2,1,07,69,65,320,,67,65,139,33,77,61,044,33,68,59,321,33,1*7D
$GLGSV,2,2,07,78,52,212,38,76,15,039,33,66,12,139,29,1*41
$GAGSV,3,1,10,05,83,306,40,24,55,147,40,31,43,061,37,09,40,115,38,7*7A
$GAGSV,3,2,10,03,29,298,34,06,17,116,34,25,16,192,35,15,14,295,29,7*76
$GAGSV,3,3,10,13,07,344,30,34,05,248,30,7*78
$GBGSV,3,1,12,46,70,204,,19,69,274,41,20,48,161,38,37,48,060,37,1*7E
$GBGSV,3,2,12,22,20,314,30,36,19,226,31,38,16,331,24,57,08,046,,1*79
$GBGSV,3,3,12,08,07,341,27,11,03,015,23,43,02,035,13,04,01,261,,1*7E
$GNRMC,230200.000,A,4910.429380,N,12304.403484,W,0.01,159.82,091024,,,D,V*15
$GNVTG,159.82,T,,M,0.01,N,0.01,K,D*21
$GNGGA,230201.000,4910.429482,N,12304.403466,W,2,34,0.44,3.514,M,-16.816,M,,*4A
$GNGLL,4910.429482,N,12304.403466,W,230201.000,A,D*58
$GNGSA,A,3,09,04,07,16,30,20,27,26,11,03,08,,0.72,0.44,0.57,1*00
$GNGSA,A,3,67,77,68,78,76,66,,,,,,,0.72,0.44,0.57,2*04
$GNGSA,A,3,05,24,31,09,03,06,25,15,13,34,,,0.72,0.44,0.57,3*0F
$GNGSA,A,3,19,20,37,22,36,38,08,,,,,,0.72,0.44,0.57,4*0B
$GPGSV,4,1,13,09,88,274,44,04,56,117,39,07,55,257,41,16,42,062,38,1*6D
$GPGSV,4,2,13,44,33,171,38,30,23,253,36,20,21,317,36,27,15,102,33,1*6C
$GPGSV,4,3,13,26,13,044,33,11,10,295,31,03,09,174,31,08,06,132,30,1*6D
$GPGSV,4,4,13,06,03,256,23,1*53
$GLGSV,2,1,07,69,65,320,,67,65,139,33,77,61,044,33,68,59,321,33,1*7D
$GLGSV,2,2,07,78,52,212,38,76,15,039,33,66,12,139,29,1*41
$GAGSV,3,1,10,05,83,306,40,24,55,147,40,31,43,061,37,09,40,115,38,7*7A
$GAGSV,3,2,10,03,29,298,34,06,17,116,34,25,16,192,35,15,14,295,29,7*76
$GAGSV,3,3,10,13,07,344,30,34,05,248,30,7*78
$GBGSV,3,1,12,46,70,204,,19,69,274,41,20,48,161,38,37,48,060,37,1*7E
$GBGSV,3,2,12,22,20,314,30,36,19,226,31,38,16,331,24,57,08,046,,1*79
$GBGSV,3,3,12,08,07,341,26,11,03,015,23,43,02,035,13,04,01,261,,1*7F
$GNRMC,230201.000,A,4910.429482,N,12304.403466,W,0.01,159.82,091024,,,D,V*1D
$GNVTG,159.82,T,,M,0.01,N,0.02,K,D*22
$GNGGA,230202.000,4910.429542,N,12304.403436,W,2,34,0.44,3.506,M,-16.816,M,,*42
$GNGLL,4910.429542,N,12304.403436,W,230202.000,A,D*53
$GNGSA,A,3,09,04,07,16,30,20,27,26,11,03,08,,0.72,0.44,0.57,1*00
$GNGSA,A,3,67,77,68,78,76,66,,,,,,,0.72,0.44,0.57,2*04
$GNGSA,A,3,05,24,31,09,03,06,25,15,13,34,,,0.72,0.44,0.57,3*0F
$GNGSA,A,3,19,20,37,22,36,38,08,,,,,,0.72,0.44,0.57,4*0B
$GPGSV,4,1,13,09,88,274,44,04,56,117,39,07,55,257,41,16,42,062,38,1*6D
$GPGSV,4,2,13,44,33,171,38,30,23,253,36,20,21,317,36,27,15,102,34,1*6B
$GPGSV,4,3,13,26,13,044,33,11,10,295,31,03,09,174,31,08,06,132,30,1*6D
$GPGSV,4,4,13,06,03,256,24,1*54
$GLGSV,2,1,07,69,65,320,,67,65,139,34,77,61,044,33,68,59,321,33,1*7A
$GLGSV,2,2,07,78,52,212,38,76,15,039,32,66,12,139,29,1*40
$GAGSV,3,1,10,05,83,306,40,24,55,147,40,31,43,061,37,09,40,115,38,7*7A
$GAGSV,3,2,10,03,29,298,34,06,17,116,34,25,16,192,35,15,14,295,29,7*76
$GAGSV,3,3,10,13,07,344,30,34,05,248,30,7*78
$GBGSV,3,1,12,46,70,204,,19,69,274,41,20,48,161,38,37,48,060,37,1*7E
$GBGSV,3,2,12,22,20,314,30,36,19,226,32,38,16,331,24,57,08,046,,1*7A
$GBGSV,3,3,12,08,07,341,26,11,03,015,23,43,02,035,13,04,01,261,,1*7F
$GNRMC,230202.000,A,4910.429542,N,12304.403436,W,0.01,159.82,091024,,,D,V*16
$GNVTG,159.82,T,,M,0.01,N,0.03,K,D*23
$GNGGA,230203.000,4910.429608,N,12304.403406,W,2,34,0.44,3.458,M,-16.816,M,,*47
$GNGLL,4910.429608,N,12304.403406,W,230203.000,A,D*5C
$GNGSA,A,3,09,04,07,16,30,20,27,26,11,03,08,,0.72,0.44,0.57,1*00
$GNGSA,A,3,67,77,68,78,76,66,,,,,,,0.72,0.44,0.57,2*04
$GNGSA,A,3,05,24,31,09,03,06,25,15,13,34,,,0.72,0.44,0.57,3*0F
$GNGSA,A,3,19,20,37,22,36,38,08,,,,,,0.72,0.44,0.57,4*0B
$GPGSV,4,1,13,09,88,274,44,04,56,117,39,07,55,257,41,16,42,062,38,1*6D
$GPGSV,4,2,13,44,33,171,38,30,23,253,36,20,21,317,36,27,15,102,34,1*6B
$GPGSV,4,3,13,26,13,044,33,11,10,295,31,03,09,174,31,08,06,132,30,1*6D
$GPGSV,4,4,13,06,03,256,24,1*54
$GLGSV,2,1,07,69,65,320,,67,65,139,34,77,61,044,33,68,59,321,33,1*7A
$GLGSV,2,2,07,78,52,212,38,76,15,039,32,66,12,139,29,1*40
$GAGSV,3,1,10,05,83,306,40,24,55,147,40,31,43,061,37,09,40,115,38,7*7A
$GAGSV,3,2,10,03,29,298,34,06,17,116,33,25,16,192,35,15,14,295,29,7*71
$GAGSV,3,3,10,13,07,344,30,34,05,248,30,7*78
$GBGSV,3,1,12,46,70,204,,19,69,274,41,20,48,161,38,37,48,060,37,1*7E
$GBGSV,3,2,12,22,20,314,30,36,19,226,32,38,16,331,24,57,08,046,,1*7A
$GBGSV,3,3,12,08,07,341,26,11,03,015,23,43,02,035,13,04,01,261,,1*7F
$GNRMC,230203.000,A,4910.429608,N,12304.403406,W,0.02,159.82,091024,,,D,V*1A
$GNVTG,159.82,T,,M,0.02,N,0.03,K,D*20
$GNGGA,230204.000,4910.429686,N,12304.403346,W,2,34,0.44,3.372,M,-16.816,M,,*4A
$GNGLL,4910.429686,N,12304.403346,W,230204.000,A,D*5E
$GNGSA,A,3,09,04,07,16,30,20,27,26,11,03,08,,0.72,0.44,0.57,1*00
$GNGSA,A,3,67,77,68,78,76,66,,,,,,,0.72,0.44,0.57,2*04
$GNGSA,A,3,05,24,31,09,03,06,25,15,13,34,,,0.72,0.44,0.57,3*0F
$GNGSA,A,3,19,20,37,22,36,38,08,,,,,,0.72,0.44,0.57,4*0B
$GPGSV,4,1,13,09,88,274,44,04,56,117,39,07,55,257,41,16,42,062,38,1*6D
$GPGSV,4,2,13,44,33,171,38,30,23,253,36,20,21,317,36,27,15,102,33,1*6C
$GPGSV,4,3,13,26,13,044,33,11,10,295,30,03,09,174,31,08,06,132,30,1*6C
$GPGSV,4,4,13,06,03,256,24,1*54
$GLGSV,2,1,07,69,65,320,,67,65,139,34,77,61,044,33,68,59,321,33,1*7A
$GLGSV,2,2,07,78,52,212,38,76,15,039,32,66,12,139,30,1*48
$GAGSV,3,1,10,05,83,306,40,24,55,147,40,31,43,061,37,09,40,115,38,7*7A
$GAGSV,3,2,10,03,29,298,34,06,17,116,33,25,16,192,35,15,14,295,29,7*71
$GAGSV,3,3,10,13,07,344,30,34,05,248,30,7*78
$GBGSV,3,1,12,46,70,204,,19,69,274,41,20,48,161,38,37,48,060,37,1*7E
$GBGSV,3,2,12,22,20,314,30,36,19,226,32,38,16,331,24,57,08,046,,1*7A
$GBGSV,3,3,12,08,07,341,26,11,03,015,23,43,02,035,13,04,01,261,,1*7F
$GNRMC,230204.000,A,4910.429686,N,12304.403346,W,0.02,159.82,091024,,,D,V*18
$GNVTG,159.82,T,,M,0.02,N,0.03,K,D*20
$GNGGA,230205.000,4910.429728,N,12304.403364,W,2,34,0.44,3.335,M,-16.816,M,,*4D
$GNGLL,4910.429728,N,12304.403364,W,230205.000,A,D*5A
$GNGSA,A,3,09,04,07,16,30,20,27,26,11,03,08,,0.72,0.44,0.57,1*00
$GNGSA,A,3,67,77,68,78,76,66,,,,,,,0.72,0.44,0.57,2*04
$GNGSA,A,3,05,24,31,09,03,06,25,15,13,34,,,0.72,0.44,0.57,3*0F
$GNGSA,A,3,19,20,37,22,36,38,08,,,,,,0.72,0.44,0.57,4*0B
$GPGSV,4,1,13,09,88,274,44,04,56,117,39,07,55,257,41,16,42,062,38,1*6D
$GPGSV,4,2,13,44,33,171,38,30,23,253,36,20,21,317,36,27,15,102,33,1*6C
$GPGSV,4,3,13,26,13,044,33,11,10,295,30,03,09,174,31,08,06,132,30,1*6C
$GPGSV,4,4,13,06,03,256,23,1*53
$GLGSV,2,1,07,69,65,320,,67,65,139,34,77,61,044,33,68,59,321,33,1*7A
$GLGSV,2,2,07,78,52,212,38,76,15,039,32,66,12,139,30,1*48
$GAGSV,3,1,10,05,83,306,40,24,55,147,40,31,43,061,37,09,40,115,38,7*7A
$GAGSV,3,2,10,03,29,298,34,06,17,116,33,25,16,192,35,15,14,295,29,7*71
$GAGSV,3,3,10,13,07,344,30,34,05,248,30,7*78
$GBGSV,3,1,12,46,70,204,,19,69,274,41,20,48,161,38,37,48,060,37,1*7E
$GBGSV,3,2,12,22,20,314,30,36,19,226,32,38,16,331,24,57,08,046,,1*7A
$GBGSV,3,3,12,08,07,341,26,11,03,015,23,43,02,035,12,04,01,261,,1*7E
$GNRMC,230205.000,A,4910.429728,N,12304.403364,W,0.02,159.82,091024,,,D,V*1C
$GNVTG,159.82,T,,M,0.02,N,0.03,K,D*20
$GNGGA,230206.000,4910.429800,N,12304.403352,W,2,34,0.44,3.280,M,-16.817,M,,*40
