$GNGGA,184440.000,4910.425672,N,12304.399632,W,2,36,0.43,7.883,M,-16.817,M,,*40
$GNGLL,4910.425672,N,12304.399632,W,184440.000,A,D*51
$GNGSA,A,3,28,02,31,21,03,32,04,25,17,10,19,12,0.77,0.43,0.64,1*00
$GNGSA,A,3,65,81,75,88,74,82,,,,,,,0.77,0.43,0.64,2*06
$GNGSA,A,3,06,04,09,36,11,10,19,21,34,12,,,0.77,0.43,0.64,3*06
$GNGSA,A,3,32,41,23,25,29,30,20,40,,,,,0.77,0.43,0.64,4*0D
$GPGSV,4,1,13,28,58,096,41,02,51,240,42,31,47,160,42,21,44,214,42,1*6A
$GPGSV,4,2,13,03,42,300,41,32,34,065,41,44,33,171,39,04,15,247,35,1*69
$GPGSV,4,3,13,25,14,060,31,17,12,310,33,10,11,115,39,19,07,334,33,1*65
$GPGSV,4,4,13,12,06,025,33,1*54
$GLGSV,2,1,07,65,68,021,34,81,46,288,33,66,42,284,,75,33,103,35,1*72
$GLGSV,2,2,07,88,30,217,29,74,27,040,29,82,19,336,35,1*48
$GAGSV,3,1,10,06,80,253,42,04,71,059,41,09,54,247,40,36,53,288,39,7*71
$GAGSV,3,2,10,11,50,198,35,10,27,175,35,19,13,063,24,21,12,053,35,7*78
$GAGSV,3,3,10,34,11,326,31,12,07,164,21,7*74
$GBGSV,3,1,12,32,79,329,38,58,77,074,,41,37,085,32,23,32,128,33,1*73
$GBGSV,3,2,12,25,31,065,35,29,26,298,25,30,26,237,30,20,25,278,33,1*75
$GBGSV,3,3,12,40,13,305,30,48,06,275,19,07,03,314,20,27,03,195,17,1*79
$GNRMC,184440.000,A,4910.425672,N,12304.399632,W,0.02,0.00,091024,,,D,V*10
$GNVTG,0.00,T,,M,0.02,N,0.03,K,D*27
$GNGGA,184441.000,4910.425684,N,12304.399638,W,2,36,0.43,7.813,M,-16.816,M,,*4A
$GNGLL,4910.425684,N,12304.399638,W,184441.000,A,D*53
$GNGSA,A,3,28,02,31,21,03,32,04,25,17,10,19,12,0.77,0.43,0.64,1*00
$GNGSA,A,3,65,81,75,88,74,82,,,,,,,0.77,0.43,0.64,2*06
$GNGSA,A,3,06,04,09,36,11,10,19,21,34,12,,,0.77,0.43,0.64,3*06
$GNGSA,A,3,32,41,23,25,29,30,20,40,,,,,0.77,0.43,0.64,4*0D
$GPGSV,4,1,13,28,58,096,41,02,51,240,42,31,47,160,42,21,44,214,42,1*6A
$GPGSV,4,2,13,03,42,300,41,32,34,065,41,44,33,171,39,04,15,247,35,1*69
$GPGSV,4,3,13,25,14,060,31,17,12,310,33,10,11,115,39,19,07,334,33,1*65
$GPGSV,4,4,13,12,06,025,33,1*54
$GLGSV,2,1,07,65,68,021,34,81,46,288,34,66,42,284,,75,33,103,35,1*75
$GLGSV,2,2,07,88,30,217,28,74,27,040,29,82,19,336,35,1*49
$GAGSV,3,1,10,06,80,253,42,04,71,059,41,09,54,248,40,36,53,288,39,7*7E
$GAGSV,3,2,10,11,50,198,35,10,27,175,35,19,13,063,25,21,12,053,35,7*79
$GAGSV,3,3,10,34,11,326,31,12,07,164,20,7*75
$GBGSV,3,1,12,32,79,329,38,58,77,074,,41,37,085,32,23,32,128,33,1*73
$GBGSV,3,2,12,25,31,065,35,29,26,298,26,30,26,237,30,20,25,278,32,1*77
$GBGSV,3,3,12,40,13,305,30,48,06,275,20,07,03,314,20,27,03,195,17,1*73
$GNRMC,184441.000,A,4910.425684,N,12304.399638,W,0.01,0.00,091024,,,D,V*11
$GNVTG,0.00,T,,M,0.01,N,0.03,K,D*24
$GNGGA,184442.000,4910.425726,N,12304.399650,W,2,36,0.43,7.700,M,-16.816,M,,*43
$GNGLL,4910.425726,N,12304.399650,W,184442.000,A,D*57
$GNGSA,A,3,28,02,31,21,03,32,04,25,17,10,19,12,0.77,0.43,0.64,1*00
$GNGSA,A,3,65,81,75,88,74,82,,,,,,,0.77,0.43,0.64,2*06
$GNGSA,A,3,06,04,09,36,11,10,19,21,34,12,,,0.77,0.43,0.64,3*06
$GNGSA,A,3,32,41,23,25,29,30,20,40,,,,,0.77,0.43,0.64,4*0D
$GPGSV,4,1,13,28,58,096,41,02,51,240,42,31,47,160,42,21,44,214,42,1*6A
$GPGSV,4,2,13,03,42,300,41,32,34,065,41,44,33,171,39,04,15,247,35,1*69
$GPGSV,4,3,13,25,14,060,31,17,12,310,33,10,11,115,39,19,07,334,33,1*65
$GPGSV,4,4,13,12,06,025,33,1*54
$GLGSV,2,1,07,65,68,021,34,81,46,288,34,66,42,284,,75,33,103,35,1*75
$GLGSV,2,2,07,88,30,217,27,74,27,040,29,82,19,336,35,1*46
$GAGSV,3,1,10,06,80,253,42,04,71,059,41,09,54,248,40,36,53,288,39,7*7E
$GAGSV,3,2,10,11,50,198,35,10,26,176,35,19,13,063,25,21,12,053,35,7*7B
$GAGSV,3,3,10,34,11,326,31,12,07,164,21,7*74
$GBGSV,3,1,12,32,79,329,38,58,77,074,,41,37,085,32,23,32,128,33,1*73
$GBGSV,3,2,12,25,31,065,35,29,26,298,26,30,26,237,30,20,25,278,32,1*77
$GBGSV,3,3,12,40,13,305,30,48,06,275,18,07,03,314,20,27,03,195,16,1*79
$GNRMC,184442.000,A,4910.425726,N,12304.399650,W,0.01,0.00,091024,,,D,V*15
$GNVTG,0.00,T,,M,0.01,N,0.03,K,D*24
$GNGGA,184443.000,4910.425774,N,12304.399746,W,2,36,0.43,7.560,M,-16.816,M,,*47
$GNGLL,4910.425774,N,12304.399746,W,184443.000,A,D*57
$GNGSA,A,3,28,02,31,21,03,32,04,25,17,10,19,12,0.77,0.43,0.64,1*00
$GNGSA,A,3,65,81,75,88,74,82,,,,,,,0.77,0.43,0.64,2*06
$GNGSA,A,3,06,04,09,36,11,10,19,21,34,12,,,0.77,0.43,0.64,3*06
$GNGSA,A,3,32,41,23,25,29,30,20,40,,,,,0.77,0.43,0.64,4*0D
$GPGSV,4,1,13,28,58,096,41,02,51,240,42,31,47,160,42,21,44,214,42,1*6A
$GPGSV,4,2,13,03,42,300,41,32,34,065,41,44,33,171,39,04,15,247,35,1*69
$GPGSV,4,3,13,25,14,060,32,17,12,310,33,10,11,115,39,19,07,334,33,1*66
$GPGSV,4,4,13,12,06,025,33,1*54
$GLGSV,2,1,07,65,68,021,34,81,46,288,34,66,42,284,,75,33,103,35,1*75
$GLGSV,2,2,07,88,30,217,26,74,27,040,29,82,19,336,35,1*47
$GAGSV,3,1,10,06,80,253,42,04,71,059,41,09,54,248,40,36,53,288,39,7*7E
$GAGSV,3,2,10,11,49,197,35,10,26,176,35,19,13,063,25,21,12,053,35,7*7C
$GAGSV,3,3,10,34,11,326,31,12,07,164,21,7*74
$GBGSV,3,1,12,32,79,329,37,58,77,074,,41,37,085,31,23,32,128,32,1*7E
$GBGSV,3,2,12,25,31,065,34,29,26,298,24,30,26,237,30,20,25,278,32,1*74
$GBGSV,3,3,12,40,13,305,30,48,06,275,18,07,03,314,20,27,03,195,15,1*7A
$GNRMC,184443.000,A,4910.425774,N,12304.399746,W,0.01,0.00,091024,,,D,V*15
$GNVTG,0.00,T,,M,0.01,N,0.02,K,D*25
$PAIR010,0,1,2335,326701*3C
$GNGGA,184444.000,4910.425828,N,12304.399794,W,2,36,0.43,7.345,M,-16.816,M,,*48
$GNGLL,4910.425828,N,12304.399794,W,184444.000,A,D*59
$GNGSA,A,3,28,02,31,21,03,32,04,25,17,10,19,12,0.77,0.43,0.64,1*00
$GNGSA,A,3,65,81,75,88,74,82,,,,,,,0.77,0.43,0.64,2*06
$GNGSA,A,3,06,04,09,36,11,10,19,21,34,12,,,0.77,0.43,0.64,3*06
$GNGSA,A,3,32,41,23,25,29,30,20,40,,,,,0.77,0.43,0.64,4*0D
$GPGSV,4,1,13,28,58,096,41,02,51,240,42,31,47,160,42,21,44,214,42,1*6A
$GPGSV,4,2,13,03,42,300,41,32,34,065,41,44,33,171,39,04,15,247,35,1*69
$GPGSV,4,3,13,25,14,060,32,17,12,310,33,10,11,115,39,19,07,334,33,1*66
$GPGSV,4,4,13,12,06,025,33,1*54
$GLGSV,2,1,07,65,68,021,34,81,46,288,34,66,42,284,,75,33,103,35,1*75
$GLGSV,2,2,07,88,30,217,27,74,27,040,29,82,19,336,35,1*46
$GAGSV,3,1,10,06,80,253,42,04,71,059,41,09,54,248,40,36,53,288,39,7*7E
$GAGSV,3,2,10,11,49,197,35,10,26,176,35,19,13,063,25,21,12,053,35,7*7C
$GAGSV,3,3,10,34,11,326,31,12,06,164,20,7*74
$GBGSV,3,1,12,32,79,329,37,58,77,074,,41,37,085,32,23,32,128,32,1*7D
$GBGSV,3,2,12,25,31,065,34,29,26,298,26,30,26,237,31,20,25,278,32,1*77
$GBGSV,3,3,12,40,13,305,30,48,06,275,18,07,03,314,19,27,03,195,15,1*70
$GNRMC,184444.000,A,4910.425828,N,12304.399794,W,0.01,0.00,091024,,,D,V*1B
$GNVTG,0.00,T,,M,0.01,N,0.02,K,D*25
$GNGGA,184445.000,4910.425864,N,12304.399824,W,2,36,0.43,7.237,M,-16.816,M,,*41
$GNGLL,4910.425864,N,12304.399824,W,184445.000,A,D*54
$GNGSA,A,3,28,02,31,21,03,32,04,25,17,10,19,12,0.77,0.43,0.64,1*00
$GNGSA,A,3,65,81,75,88,74,82,,,,,,,0.77,0.43,0.64,2*06
$GNGSA,A,3,06,04,09,36,11,10,19,21,34,12,,,0.77,0.43,0.64,3*06
$GNGSA,A,3,32,41,23,25,29,30,20,40,,,,,0.77,0.43,0.64,4*0D
$GPGSV,4,1,13,28,58,096,41,02,51,240,42,31,47,160,42,21,44,214,42,1*6A
$GPGSV,4,2,13,03,42,300,41,32,34,065,41,44,33,171,39,04,15,247,35,1*69
$GPGSV,4,3,13,25,14,060,32,17,12,310,33,10,11,115,39,19,07,334,33,1*66
$GPGSV,4,4,13,12,06,025,34,1*53
$GLGSV,2,1,07,65,68,021,34,81,46,288,35,66,42,284,,75,33,103,35,1*74
$GLGSV,2,2,07,88,30,217,27,74,27,040,29,82,19,336,35,1*46
$GAGSV,3,1,10,06,80,253,42,04,71,059,41,09,54,248,40,36,53,288,39,7*7E
$GAGSV,3,2,10,11,49,197,35,10,26,176,35,19,13,063,25,21,12,053,35,7*7C
$GAGSV,3,3,10,34,11,326,31,12,06,164,20,7*74
$GBGSV,3,1,12,32,79,329,37,58,77,074,,41,37,085,32,23,32,128,33,1*7C
$GBGSV,3,2,12,25,31,065,34,29,26,298,27,30,26,237,31,20,25,278,32,1*76
$GBGSV,3,3,12,40,13,305,30,48,06,275,18,07,03,314,19,27,03,195,17,1*72
$GNRMC,184445.000,A,4910.425864,N,12304.399824,W,0.01,0.00,091024,,,D,V*16
$GNVTG,0.00,T,,M,0.01,N,0.01,K,D*26
$GNGGA,184446.000,4910.425912,N,12304.399902,W,2,36,0.43,7.104,M,-16.817,M,,*45
$GNGLL,4910.425912,N,12304.399902,W,184446.000,A,D*52
$GNGSA,A,3,28,02,31,21,03,32,04,25,17,10,19,12,0.77,0.43,0.64,1*00
$GNGSA,A,3,65,81,75,88,74,82,,,,,,,0.77,0.43,0.64,2*06
$GNGSA,A,3,06,04,09,36,11,10,19,21,34,12,,,0.77,0.43,0.64,3*06
$GNGSA,A,3,32,41,23,25,29,30,20,40,,,,,0.77,0.43,0.64,4*0D
$GPGSV,4,1,13,28,58,096,41,02,51,240,42,31,47,160,42,21,44,214,42,1*6A
$GPGSV,4,2,13,03,42,300,41,32,34,065,41,44,33,171,39,04,15,247,34,1*68
$GPGSV,4,3,13,25,14,060,32,17,12,310,32,10,11,115,39,19,07,334,33,1*67
$GPGSV,4,4,13,12,06,025,34,1*53
$GLGSV,2,1,07,65,68,021,33,81,46,288,34,66,42,284,,75,33,103,35,1*72
$GLGSV,2,2,07,88,30,217,26,74,27,040,30,82,19,336,36,1*4C
$GAGSV,3,1,10,06,80,253,42,04,71,059,41,09,54,248,40,36,53,288,38,7*7F
$GAGSV,3,2,10,11,49,197,35,10,26,176,35,19,13,063,25,21,12,053,35,7*7C
$GAGSV,3,3,10,34,11,326,31,12,06,164,20,7*74
$GBGSV,3,1,12,32,79,329,37,58,77,074,,41,37,085,32,23,32,128,33,1*7C
$GBGSV,3,2,12,25,31,065,34,29,26,298,25,30,26,237,31,20,25,278,32,1*74
$GBGSV,3,3,12,40,13,305,30,48,06,275,18,07,03,314,19,27,03,195,17,1*72
$GNRMC,184446.000,A,4910.425912,N,12304.399902,W,0.01,0.00,091024,,,D,V*10
$GNVTG,0.00,T,,M,0.01,N,0.02,K,D*25
$GNGGA,184447.000,4910.425996,N,12304.399962,W,2,36,0.43,6.927,M,-16.817,M,,*46
$GNGLL,4910.425996,N,12304.399962,W,184447.000,A,D*59
$GNGSA,A,3,28,02,31,21,03,32,04,25,17,10,19,12,0.77,0.43,0.64,1*00
$GNGSA,A,3,65,81,75,88,74,82,,,,,,,0.77,0.43,0.64,2*06
$GNGSA,A,3,06,04,09,36,11,10,19,21,34,12,,,0.77,0.43,0.64,3*06
$GNGSA,A,3,32,41,23,25,29,30,20,40,,,,,0.77,0.43,0.64,4*0D
$GPGSV,4,1,13,28,58,096,41,02,51,240,42,31,47,160,42,21,44,214,42,1*6A
$GPGSV,4,2,13,03,42,300,41,32,34,065,41,44,33,171,39,04,15,247,34,1*68
$GPGSV,4,3,13,25,14,060,32,17,12,310,33,10,11,115,39,19,07,334,33,1*66
$GPGSV,4,4,13,12,06,025,34,1*53
$GLGSV,2,1,07,65,68,021,33,81,46,288,34,66,42,284,,75,33,103,35,1*72
$GLGSV,2,2,07,88,30,217,26,74,27,040,30,82,19,336,36,1*4C
$GAGSV,3,1,10,06,80,253,42,04,71,059,41,09,54,248,40,36,53,288,38,7*7F
$GAGSV,3,2,10,11,49,197,35,10,26,176,35,19,13,063,25,21,12,053,35,7*7C
$GAGSV,3,3,10,34,11,326,31,12,06,164,21,7*75
$GBGSV,3,1,12,32,79,329,37,58,77,074,,41,37,085,32,23,32,128,33,1*7C
$GBGSV,3,2,12,25,31,065,34,29,26,298,24,30,26,237,30,20,25,278,32,1*74
$GBGSV,3,3,12,40,13,305,30,48,06,275,17,07,03,314,19,27,03,195,15,1*7F
$GNRMC,184447.000,A,4910.425996,N,12304.399962,W,0.01,0.00,091024,,,D,V*1B
$GNVTG,0.00,T,,M,0.01,N,0.02,K,D*25
$GNGGA,184448.000,4910.426104,N,12304.399992,W,2,36,0.43,6.817,M,-16.817,M,,*44
$GNGLL,4910.426104,N,12304.399992,W,184448.000,A,D*59
$GNGSA,A,3,28,02,31,21,03,32,04,25,17,10,19,12,0.77,0.43,0.64,1*00
$GNGSA,A,3,65,81,75,88,74,82,,,,,,,0.77,0.43,0.64,2*06
$GNGSA,A,3,06,04,09,36,11,10,19,21,34,12,,,0.77,0.43,0.64,3*06
$GNGSA,A,3,32,41,23,25,29,30,20,40,,,,,0.77,0.43,0.64,4*0D
$GPGSV,4,1,13,28,58,096,41,02,51,240,42,31,47,160,42,21,44,214,42,1*6A
$GPGSV,4,2,13,03,42,300,41,32,34,065,41,44,33,171,39,04,15,247,34,1*68
$GPGSV,4,3,13,25,14,060,32,17,12,310,33,10,11,115,39,19,07,334,33,1*66
$GPGSV,4,4,13,12,06,025,34,1*53
$GLGSV,2,1,07,65,68,021,33,81,46,288,34,66,42,284,,75,33,103,35,1*72
$GLGSV,2,2,07,88,30,217,26,74,27,040,30,82,19,336,35,1*4F
$GAGSV,3,1,10,06,80,253,42,04,71,059,41,09,54,248,40,36,53,288,38,7*7F
$GAGSV,3,2,10,11,49,197,35,10,26,176,35,19,13,063,25,21,12,053,35,7*7C
$GAGSV,3,3,10,34,11,326,32,12,06,164,21,7*76
$GBGSV,3,1,12,32,79,329,37,58,77,074,,41,37,085,32,23,32,128,33,1*7C
$GBGSV,3,2,12,25,31,065,34,29,26,298,26,30,26,237,30,20,25,278,32,1*76
$GBGSV,3,3,12,40,13,305,30,48,06,275,17,07,03,314,19,27,03,195,15,1*7F
$GNRMC,184448.000,A,4910.426104,N,12304.399992,W,0.01,0.00,091024,,,D,V*1B
$GNVTG,0.00,T,,M,0.01,N,0.03,K,D*24
$GNGGA,184449.000,4910.426200,N,12304.400016,W,2,36,0.43,6.650,M,-16.816,M,,*4C
$GNGLL,4910.426200,N,12304.400016,W,184449.000,A,D*5D
$GNGSA,A,3,28,02,31,21,03,32,04,25,17,10,19,12,0.77,0.43,0.64,1*00
$GNGSA,A,3,65,81,75,88,74,82,,,,,,,0.77,0.43,0.64,2*06
$GNGSA,A,3,06,04,09,36,11,10,19,21,34,12,,,0.77,0.43,0.64,3*06
$GNGSA,A,3,32,41,23,25,29,30,20,40,,,,,0.77,0.43,0.64,4*0D
$GPGSV,4,1,13,28,58,096,41,02,51,240,42,31,47,160,42,21,44,214,42,1*6A
$GPGSV,4,2,13,03,42,300,41,32,34,065,41,44,33,171,39,04,15,247,34,1*68
$GPGSV,4,3,13,25,14,060,32,17,12,310,33,10,11,115,39,19,07,334,33,1*66
$GPGSV,4,4,13,12,06,025,34,1*53
$GLGSV,2,1,07,65,68,021,34,81,46,288,33,66,42,284,,75,33,103,35,1*72
$GLGSV,2,2,07,88,30,217,27,74,27,040,30,82,19,336,35,1*4E
$GAGSV,3,1,10,06,80,253,42,04,71,059,41,09,54,248,40,36,53,288,38,7*7F
$GAGSV,3,2,10,11,49,197,35,10,26,176,35,19,13,063,24,21,12,053,35,7*7D
$GAGSV,3,3,10,34,11,326,32,12,06,164,21,7*76
$GBGSV,3,1,12,32,79,329,37,58,77,074,,41,37,085,32,23,32,128,33,1*7C
$GBGSV,3,2,12,25,31,065,34,29,26,298,28,30,26,237,31,20,25,278,32,1*79
$GBGSV,3,3,12,40,13,305,31,48,06,275,17,07,03,314,19,27,03,195,16,1*7D
$GNRMC,184449.000,A,4910.426200,N,12304.400016,W,0.02,0.00,091024,,,D,V*1C
$GNVTG,0.00,T,,M,0.02,N,0.03,K,D*27
$GNGGA,184450.000,4910.426236,N,12304.400046,W,2,36,0.43,6.497,M,-16.816,M,,*4D
$GNGLL,4910.426236,N,12304.400046,W,184450.000,A,D*55
$GNGSA,A,3,28,02,31,21,03,32,04,25,17,10,19,12,0.77,0.43,0.64,1*00
$GNGSA,A,3,65,81,75,88,74,82,,,,,,,0.77,0.43,0.64,2*06
$GNGSA,A,3,06,04,09,36,11,10,19,21,34,12,,,0.77,0.43,0.64,3*06
$GNGSA,A,3,32,41,23,25,29,30,20,40,,,,,0.77,0.43,0.64,4*0D
$GPGSV,4,1,13,28,58,096,41,02,51,240,42,31,47,160,42,21,44,214,42,1*6A
$GPGSV,4,2,13,03,42,300,41,32,34,065,41,44,33,171,39,04,15,247,34,1*68
$GPGSV,4,3,13,25,14,060,32,17,12,310,33,10,11,115,39,19,07,334,33,1*66
$GPGSV,4,4,13,12,06,025,34,1*53
$GLGSV,2,1,07,65,68,021,35,81,46,288,32,66,42,284,,75,33,103,35,1*72
$GLGSV,2,2,07,88,30,217,27,74,27,040,30,82,19,336,35,1*4E
$GAGSV,3,1,10,06,80,253,42,04,71,059,41,09,54,248,40,36,53,288,38,7*7F
$GAGSV,3,2,10,11,49,197,35,10,26,176,35,19,13,063,24,21,12,053,35,7*7D
$GAGSV,3,3,10,34,11,326,32,12,06,164,21,7*76
$GBGSV,3,1,12,32,79,329,37,58,77,074,,41,37,085,32,23,32,128,33,1*7C
$GBGSV,3,2,12,25,31,065,34,29,26,298,28,30,26,237,31,20,25,278,32,1*79
$GBGSV,3,3,12,40,13,305,31,48,06,275,17,07,03,314,19,27,03,195,16,1*7D
$GNRMC,184450.000,A,4910.426236,N,12304.400046,W,0.02,0.00,091024,,,D,V*14
$GNVTG,0.00,T,,M,0.02,N,0.03,K,D*27
$GNGGA,184451.000,4910.426308,N,12304.400118,W,2,36,0.43,6.316,M,-16.816,M,,*44
$GNGLL,4910.426308,N,12304.400118,W,184451.000,A,D*52
$GNGSA,A,3,28,02,31,21,03,32,04,25,17,10,19,12,0.77,0.43,0.64,1*00
$GNGSA,A,3,65,81,75,88,74,82,,,,,,,0.77,0.43,0.64,2*06
$GNGSA,A,3,06,04,09,36,11,10,21,19,34,12,,,0.77,0.43,0.64,3*06
$GNGSA,A,3,32,41,23,25,30,29,20,40,,,,,0.77,0.43,0.64,4*0D
$GPGSV,4,1,13,28,58,096,41,02,51,240,42,31,47,160,42,21,44,214,42,1*6A
$GPGSV,4,2,13,03,42,300,41,32,34,065,41,44,33,171,39,04,15,247,34,1*68
$GPGSV,4,3,13,25,14,060,32,17,12,310,32,10,11,115,39,19,07,334,33,1*67
$GPGSV,4,4,13,12,06,025,34,1*53
$GLGSV,2,1,07,65,68,021,34,81,46,288,31,66,42,284,,75,33,103,35,1*70
$GLGSV,2,2,07,88,30,217,27,74,27,040,29,82,19,336,35,1*46
$GAGSV,3,1,10,06,80,253,42,04,71,059,41,09,54,248,40,36,53,288,38,7*7F
$GAGSV,3,2,10,11,49,197,35,10,26,176,35,21,12,053,35,19,12,064,24,7*7B
$GAGSV,3,3,10,34,11,326,32,12,06,164,21,7*76
$GBGSV,3,1,12,32,79,329,37,58,77,074,,41,37,085,32,23,32,128,33,1*7C
$GBGSV,3,2,12,25,31,065,34,30,26,237,31,29,26,298,28,20,25,278,32,1*79
$GBGSV,3,3,12,40,13,305,31,48,06,275,17,07,03,314,19,27,03,195,16,1*7D
$GNRMC,184451.000,A,4910.426308,N,12304.400118,W,0.02,0.00,091024,,,D,V*13
$GNVTG,0.00,T,,M,0.02,N,0.03,K,D*27
$GNGGA,184452.000,4910.426344,N,12304.400172,W,2,36,0.43,6.153,M,-16.816,M,,*40
$GNGLL,4910.426344,N,12304.400172,W,184452.000,A,D*55
$GNGSA,A,3,28,02,31,21,03,32,04,25,17,10,19,12,0.77,0.43,0.64,1*00
$GNGSA,A,3,65,81,75,88,74,82,,,,,,,0.77,0.43,0.64,2*06
$GNGSA,A,3,06,04,09,36,11,10,21,19,34,12,,,0.77,0.43,0.64,3*06
$GNGSA,A,3,32,41,23,25,30,29,20,40,,,,,0.77,0.43,0.64,4*0D
$GPGSV,4,1,13,28,58,096,41,02,51,240,42,31,47,160,42,21,44,214,42,1*6A
$GPGSV,4,2,13,03,42,300,41,32,34,065,41,44,33,171,39,04,15,247,34,1*68
$GPGSV,4,3,13,25,14,060,32,17,12,310,32,10,11,115,39,19,07,334,33,1*67
$GPGSV,4,4,13,12,06,025,34,1*53
$GLGSV,2,1,07,65,68,021,34,81,46,288,31,66,42,284,,75,33,103,36,1*73
$GLGSV,2,2,07,88,30,217,27,74,27,040,29,82,19,336,35,1*46
$GAGSV,3,1,10,06,80,253,42,04,71,059,41,09,54,248,40,36,53,288,38,7*7F
$GAGSV,3,2,10,11,49,197,35,10,26,176,35,21,12,053,35,19,12,064,24,7*7B
$GAGSV,3,3,10,34,11,326,32,12,06,164,21,7*76
$GBGSV,3,1,12,32,79,329,38,58,77,074,,41,37,085,33,23,32,128,33,1*72
$GBGSV,3,2,12,25,31,065,34,30,26,237,32,29,26,298,28,20,25,278,33,1*7B
$GBGSV,3,3,12,40,13,305,31,48,06,275,18,07,03,314,19,27,03,195,16,1*72
$GNRMC,184452.000,A,4910.426344,N,12304.400172,W,0.02,0.00,091024,,,D,V*14
$GNVTG,0.00,T,,M,0.02,N,0.03,K,D*27
$GNGGA,184453.000,4910.426410,N,12304.400232,W,2,36,0.43,6.041,M,-16.816,M,,*42
$GNGLL,4910.426410,N,12304.400232,W,184453.000,A,D*55
$GNGSA,A,3,28,02,31,21,03,32,04,25,17,10,19,12,0.77,0.43,0.64,1*00
$GNGSA,A,3,65,81,75,88,74,82,,,,,,,0.77,0.43,0.64,2*06
$GNGSA,A,3,06,04,09,36,11,10,21,19,34,12,,,0.77,0.43,0.64,3*06
$GNGSA,A,3,32,41,23,25,29,30,20,40,,,,,0.77,0.43,0.64,4*0D
$GPGSV,4,1,13,28,58,096,41,02,51,240,42,31,47,160,42,21,44,214,42,1*6A
$GPGSV,4,2,13,03,42,300,41,32,34,065,41,44,33,171,39,04,15,247,34,1*68
$GPGSV,4,3,13,25,14,060,32,17,12,310,31,10,11,115,39,19,07,334,33,1*64
$GPGSV,4,4,13,12,06,025,34,1*53
$GLGSV,2,1,07,65,68,021,34,81,46,288,31,66,42,284,,75,33,103,36,1*73
$GLGSV,2,2,07,88,30,217,27,74,27,040,29,82,19,336,35,1*46
$GAGSV,3,1,10,06,80,253,42,04,71,059,41,09,54,248,40,36,53,288,38,7*7F
$GAGSV,3,2,10,11,49,197,35,10,26,176,35,21,13,052,35,19,12,064,24,7*7B
$GAGSV,3,3,10,34,11,326,32,12,06,164,21,7*76
$GBGSV,3,1,12,32,79,329,38,58,77,074,,41,37,085,33,23,32,128,33,1*72
$GBGSV,3,2,12,25,31,065,34,29,26,298,28,30,26,237,32,20,25,278,33,1*7B
$GBGSV,3,3,12,40,13,305,31,48,06,275,18,07,03,314,19,27,03,195,16,1*72
$GNRMC,184453.000,A,4910.426410,N,12304.400232,W,0.02,0.00,091024,,,D,V*14
$GNVTG,0.00,T,,M,0.02,N,0.03,K,D*27
$GNGGA,184454.000,4910.426440,N,12304.400340,W,2,36,0.43,5.921,M,-16.817,M,,*49
$GNGLL,4910.426440,N,12304.400340,W,184454.000,A,D*53
$GNGSA,A,3,28,02,31,21,03,32,04,25,17,10,19,12,0.77,0.43,0.64,1*00
$GNGSA,A,3,65,81,75,88,74,82,,,,,,,0.77,0.43,0.64,2*06
$GNGSA,A,3,06,04,09,36,11,10,21,19,34,12,,,0.77,0.43,0.64,3*06
$GNGSA,A,3,32,41,23,25,29,30,20,40,,,,,0.77,0.43,0.64,4*0D
$GPGSV,4,1,13,28,58,096,41,02,51,240,42,31,47,160,42,21,44,214,42,1*6A
$GPGSV,4,2,13,03,42,300,41,32,34,065,41,44,33,171,39,04,15,247,34,1*68
$GPGSV,4,3,13,25,14,060,32,17,12,310,31,10,11,115,39,19,07,334,33,1*64
$GPGSV,4,4,13,12,06,025,34,1*53
$GLGSV,2,1,07,65,68,021,34,81,46,288,31,66,42,284,,75,33,103,36,1*73
$GLGSV,2,2,07,88,30,217,26,74,27,040,30,82,19,336,35,1*4F
$GAGSV,3,1,10,06,80,253,42,04,71,059,41,09,54,248,40,36,53,288,38,7*7F
$GAGSV,3,2,10,11,49,197,35,10,26,176,35,21,13,052,35,19,12,064,24,7*7B
$GAGSV,3,3,10,34,11,326,32,12,06,164,21,7*76
$GBGSV,3,1,12,32,79,329,38,58,77,074,,41,37,085,33,23,32,128,33,1*72
$GBGSV,3,2,12,25,31,065,34,29,26,298,27,30,26,237,32,20,25,278,33,1*74
$GBGSV,3,3,12,40,13,305,31,48,06,275,18,07,03,314,19,27,03,195,16,1*72
$GNRMC,184454.000,A,4910.426440,N,12304.400340,W,0.02,0.00,091024,,,D,V*12
$GNVTG,0.00,T,,M,0.02,N,0.04,K,D*20
$GNGGA,184455.000,4910.426476,N,12304.400364,W,2,36,0.43,5.783,M,-16.816,M,,*4C
$GNGLL,4910.426476,N,12304.400364,W,184455.000,A,D*51
$GNGSA,A,3,28,02,31,21,03,32,04,25,17,10,19,12,0.77,0.43,0.64,1*00
$GNGSA,A,3,65,81,75,88,74,82,,,,,,,0.77,0.43,0.64,2*06
$GNGSA,A,3,06,04,09,36,11,10,21,19,34,12,,,0.77,0.43,0.64,3*06
$GNGSA,A,3,32,41,23,25,29,30,20,40,,,,,0.77,0.43,0.64,4*0D
$GPGSV,4,1,13,28,58,096,41,02,51,240,42,31,47,160,42,21,44,214,42,1*6A
$GPGSV,4,2,13,03,42,300,41,32,34,065,41,44,33,171,39,04,15,247,34,1*68
$GPGSV,4,3,13,25,14,060,32,17,12,310,31,10,11,115,39,19,07,334,33,1*64
$GPGSV,4,4,13,12,06,025,34,1*53
$GLGSV,2,1,07,65,68,021,34,81,46,288,30,66,42,284,,75,33,103,36,1*72
$GLGSV,2,2,07,88,30,217,27,74,27,040,30,82,19,336,35,1*4E
$GAGSV,3,1,10,06,80,253,42,04,71,059,41,09,54,248,40,36,53,288,38,7*7F
$GAGSV,3,2,10,11,49,197,36,10,26,176,35,21,13,052,35,19,12,064,25,7*79
$GAGSV,3,3,10,34,11,326,32,12,06,164,21,7*76
$GBGSV,3,1,12,32,79,329,38,58,77,074,,41,37,085,33,23,32,128,33,1*72
$GBGSV,3,2,12,25,31,065,34,29,26,298,27,30,26,237,31,20,25,278,33,1*77
$GBGSV,3,3,12,40,13,305,31,48,06,275,18,07,03,314,19,27,03,195,16,1*72
$GNRMC,184455.000,A,4910.426476,N,12304.400364,W,0.02,0.00,091024,,,D,V*10
$GNVTG,0.00,T,,M,0.02,N,0.04,K,D*20
$GNGGA,184456.000,4910.426494,N,12304.400400,W,2,36,0.43,5.651,M,-16.816,M,,*48
$GNGLL,4910.426494,N,12304.400400,W,184456.000,A,D*5B
$GNGSA,A,3,28,02,31,21,03,32,04,25,17,10,19,12,0.77,0.43,0.64,1*00
$GNGSA,A,3,65,81,75,88,74,82,,,,,,,0.77,0.43,0.64,2*06
$GNGSA,A,3,06,04,09,36,11,10,21,19,34,12,,,0.77,0.43,0.64,3*06
$GNGSA,A,3,32,41,23,25,29,30,20,40,,,,,0.77,0.43,0.64,4*0D
$GPGSV,4,1,13,28,58,096,41,02,51,240,42,31,47,160,42,21,44,214,42,1*6A
$GPGSV,4,2,13,03,42,300,41,32,34,065,41,44,33,171,39,04,15,247,34,1*68
$GPGSV,4,3,13,25,14,060,32,17,12,310,32,10,11,115,39,19,07,334,33,1*67
$GPGSV,4,4,13,12,06,025,34,1*53
$GLGSV,2,1,07,65,68,021,34,81,46,288,30,66,42,284,,75,33,103,36,1*72
$GLGSV,2,2,07,88,30,217,27,74,27,040,30,82,19,336,35,1*4E
$GAGSV,3,1,10,06,80,253,42,04,71,059,41,09,54,248,40,36,53,288,38,7*7F
$GAGSV,3,2,10,11,49,197,36,10,26,176,35,21,13,052,35,19,12,064,26,7*7A
$GAGSV,3,3,10,34,11,326,32,12,06,164,21,7*76
$GBGSV,3,1,12,32,79,329,38,58,77,074,,41,37,085,33,23,32,128,33,1*72
$GBGSV,3,2,12,25,31,065,34,29,26,298,27,30,26,237,31,20,25,278,33,1*77
$GBGSV,3,3,12,40,13,305,31,48,06,275,18,07,03,314,19,27,03,195,16,1*72
$GNRMC,184456.000,A,4910.426494,N,12304.400400,W,0.02,0.00,091024,,,D,V*1A
$GNVTG,0.00,T,,M,0.02,N,0.04,K,D*20
$GNGGA,184457.000,4910.426494,N,12304.400472,W,2,36,0.43,5.383,M,-16.816,M,,*46
$GNGLL,4910.426494,N,12304.400472,W,184457.000,A,D*5F
$GNGSA,A,3,28,02,31,21,03,32,04,25,17,10,19,12,0.77,0.43,0.64,1*00
$GNGSA,A,3,65,81,75,88,74,82,,,,,,,0.77,0.43,0.64,2*06
$GNGSA,A,3,06,04,09,36,11,10,21,19,34,12,,,0.77,0.43,0.64,3*06
$GNGSA,A,3,32,41,23,25,29,30,20,40,,,,,0.77,0.43,0.64,4*0D
$GPGSV,4,1,13,28,58,096,41,02,51,240,42,31,47,160,42,21,44,214,42,1*6A
$GPGSV,4,2,13,03,42,300,41,32,34,065,41,44,33,171,39,04,15,247,34,1*68
$GPGSV,4,3,13,25,14,060,32,17,12,310,32,10,11,115,39,19,07,334,33,1*67
$GPGSV,4,4,13,12,06,025,34,1*53
$GLGSV,2,1,07,65,68,021,33,81,46,288,30,66,42,284,,75,33,103,36,1*75
$GLGSV,2,2,07,88,30,217,27,74,27,040,30,82,19,336,35,1*4E
$GAGSV,3,1,10,06,80,253,42,04,71,059,41,09,54,248,40,36,53,288,38,7*7F
$GAGSV,3,2,10,11,49,197,36,10,26,176,35,21,13,052,35,19,12,064,26,7*7A
$GAGSV,3,3,10,34,11,326,32,12,06,164,21,7*76
$GBGSV,3,1,12,32,79,329,38,58,77,074,,41,37,085,33,23,32,128,33,1*72
$GBGSV,3,2,12,25,31,065,34,29,26,298,26,30,26,237,31,20,25,278,33,1*76
$GBGSV,3,3,12,40,13,305,31,48,06,275,18,07,03,314,19,27,03,195,16,1*72
$GNRMC,184457.000,A,4910.426494,N,12304.400472,W,0.02,0.00,091024,,,D,V*1E
$GNVTG,0.00,T,,M,0.02,N,0.03,K,D*27
$GNGGA,184458.000,4910.426488,N,12304.400538,W,2,36,0.43,5.150,M,-16.817,M,,*46
$GNGLL,4910.426488,N,12304.400538,W,184458.000,A,D*52
$GNGSA,A,3,28,02,31,21,03,32,04,25,17,10,19,12,0.77,0.43,0.64,1*00
$GNGSA,A,3,65,81,75,88,74,82,,,,,,,0.77,0.43,0.64,2*06
$GNGSA,A,3,06,04,09,36,11,10,21,19,34,12,,,0.77,0.43,0.64,3*06
$GNGSA,A,3,32,41,23,25,29,30,20,40,,,,,0.77,0.43,0.64,4*0D
$GPGSV,4,1,13,28,58,096,41,02,51,240,42,31,47,160,42,21,44,214,42,1*6A
$GPGSV,4,2,13,03,42,300,41,32,34,065,41,44,33,171,39,04,15,247,34,1*68
$GPGSV,4,3,13,25,14,060,32,17,12,310,32,10,11,115,39,19,07,334,33,1*67
$GPGSV,4,4,13,12,06,025,34,1*53
$GLGSV,2,1,07,65,68,021,33,81,46,288,30,66,42,284,,75,33,103,36,1*75
$GLGSV,2,2,07,88,30,217,27,74,27,040,31,82,19,336,35,1*4F
$GAGSV,3,1,10,06,80,253,42,04,71,059,41,09,54,248,40,36,53,288,38,7*7F
$GAGSV,3,2,10,11,49,197,36,10,26,176,35,21,13,052,35,19,12,064,25,7*79
$GAGSV,3,3,10,34,11,326,32,12,06,164,21,7*76
$GBGSV,3,1,12,32,79,329,38,58,77,074,,41,37,085,33,23,32,128,33,1*72
$GBGSV,3,2,12,25,31,065,34,29,26,298,26,30,26,237,31,20,25,278,33,1*76
$GBGSV,3,3,12,40,13,305,31,48,06,275,18,07,03,314,19,27,03,195,16,1*72
$GNRMC,184458.000,A,4910.426488,N,12304.400538,W,0.02,0.00,091024,,,D,V*13
$GNVTG,0.00,T,,M,0.02,N,0.03,K,D*27
$GNGGA,184459.000,4910.426536,N,12304.400616,W,2,36,0.43,4.909,M,-16.817,M,,*49
$GNGLL,4910.426536,N,12304.400616,W,184459.000,A,D*58
$GNGSA,A,3,28,02,31,21,03,32,04,25,17,10,19,12,0.77,0.43,0.64,1*00
$GNGSA,A,3,65,81,75,88,74,82,,,,,,,0.77,0.43,0.64,2*06
$GNGSA,A,3,06,04,09,36,11,10,21,19,34,12,,,0.77,0.43,0.64,3*06
$GNGSA,A,3,32,41,23,25,29,30,20,40,,,,,0.77,0.43,0.64,4*0D
$GPGSV,4,1,13,28,58,096,41,02,51,240,42,31,47,160,42,21,44,214,42,1*6A
$GPGSV,4,2,13,03,42,300,41,32,34,065,41,44,33,171,39,04,15,247,34,1*68
$GPGSV,4,3,13,25,14,060,32,17,12,310,32,10,11,115,39,19,07,334,33,1*67
$GPGSV,4,4,13,12,06,025,34,1*53
$GLGSV,2,1,07,65,68,021,33,81,46,288,30,66,42,284,,75,33,103,36,1*75
$GLGSV,2,2,07,88,30,217,27,74,27,040,31,82,19,336,35,1*4F
$GAGSV,3,1,10,06,80,253,42,04,71,059,41,09,54,248,40,36,53,288,38,7*7F
$GAGSV,3,2,10,11,49,197,36,10,26,176,35,21,13,052,35,19,12,064,25,7*79
$GAGSV,3,3,10,34,11,326,32,12,06,164,21,7*76
$GBGSV,3,1,12,32,79,329,38,58,77,074,,41,37,085,34,23,32,128,33,1*75
$GBGSV,3,2,12,25,31,065,34,29,26,298,26,30,26,237,31,20,25,278,33,1*76
$GBGSV,3,3,12,40,13,305,32,48,06,275,18,07,03,314,19,27,03,195,15,1*72
$GNRMC,184459.000,A,4910.426536,N,12304.400616,W,0.01,0.00,091024,,,D,V*1A
$GNVTG,0.00,T,,M,0.01,N,0.02,K,D*25
$GNGGA,184500.000,4910.426566,N,12304.400694,W,2,36,0.43,4.808,M,-16.816,M,,*4A
$GNGLL,4910.426566,N,12304.400694,W,184500.000,A,D*5A
$GNGSA,A,3,28,02,31,21,03,32,04,25,17,10,19,12,0.77,0.43,0.64,1*00
$GNGSA,A,3,65,81,75,88,74,82,,,,,,,0.77,0.43,0.64,2*06
$GNGSA,A,3,06,04,09,36,11,10,21,19,34,12,,,0.77,0.43,0.64,3*06
$GNGSA,A,3,32,41,23,25,29,30,20,40,,,,,0.77,0.43,0.64,4*0D
$GPGSV,4,1,13,28,58,096,41,02,51,240,42,31,47,160,42,21,44,214,42,1*6A
$GPGSV,4,2,13,03,42,300,41,32,34,065,41,44,33,171,39,04,15,247,34,1*68
$GPGSV,4,3,13,25,14,060,32,17,12,310,32,10,11,115,39,19,07,334,33,1*67
$GPGSV,4,4,13,12,06,025,34,1*53
$GLGSV,2,1,07,65,68,021,33,81,46,288,31,66,42,284,,75,33,103,36,1*74
$GLGSV,2,2,07,88,30,217,27,74,27,040,31,82,19,336,35,1*4F
$GAGSV,3,1,10,06,80,253,42,04,71,059,41,09,54,248,40,36,53,288,38,7*7F
$GAGSV,3,2,10,11,49,197,36,10,26,176,35,21,13,052,35,19,12,064,25,7*79
$GAGSV,3,3,10,34,11,326,32,12,06,164,21,7*76
$GBGSV,3,1,12,32,79,329,38,58,77,074,,41,37,085,34,23,32,128,33,1*75
$GBGSV,3,2,12,25,31,065,34,29,26,298,26,30,26,237,31,20,25,278,33,1*76
$GBGSV,3,3,12,40,13,305,32,48,06,275,18,07,03,314,19,27,03,195,13,1*74
$GNRMC,184500.000,A,4910.426566,N,12304.400694,W,0.01,0.00,091024,,,D,V*18
$GNVTG,0.00,T,,M,0.01,N,0.03,K,D*24
$GNGGA,184501.000,4910.426596,N,12304.400766,W,2,36,0.43,4.679,M,-16.816,M,,*40
$GNGLL,4910.426596,N,12304.400766,W,184501.000,A,D*58
$GNGSA,A,3,28,02,31,21,03,32,04,25,17,10,19,12,0.77,0.43,0.64,1*00
$GNGSA,A,3,65,81,75,88,74,82,,,,,,,0.77,0.43,0.64,2*06
$GNGSA,A,3,06,04,09,36,11,10,21,19,34,12,,,0.77,0.43,0.64,3*06
$GNGSA,A,3,32,41,23,25,29,30,20,40,,,,,0.77,0.43,0.64,4*0D
$GPGSV,4,1,13,28,58,096,41,02,51,240,42,31,47,160,42,21,44,214,42,1*6A
$GPGSV,4,2,13,03,42,300,41,32,34,065,41,44,33,171,39,04,15,247,35,1*69
$GPGSV,4,3,13,25,14,060,32,17,12,310,32,10,11,115,39,19,07,334,33,1*67
$GPGSV,4,4,13,12,06,025,34,1*53
$GLGSV,2,1,07,65,68,021,33,81,46,288,31,66,42,284,,75,33,103,36,1*74
$GLGSV,2,2,07,88,30,217,27,74,27,040,31,82,19,336,35,1*4F
$GAGSV,3,1,10,06,80,253,42,04,71,059,41,09,54,248,40,36,53,288,38,7*7F
$GAGSV,3,2,10,11,49,197,36,10,26,176,35,21,13,052,35,19,12,064,25,7*79
$GAGSV,3,3,10,34,11,326,32,12,06,164,21,7*76
$GBGSV,3,1,12,32,79,329,38,58,77,074,,41,37,085,34,23,32,128,33,1*75
$GBGSV,3,2,12,25,31,065,34,29,26,298,26,30,26,237,31,20,25,278,33,1*76
$GBGSV,3,3,12,40,13,305,32,48,06,275,18,07,03,314,19,27,03,195,13,1*74
$GNRMC,184501.000,A,4910.426596,N,12304.400766,W,0.01,0.00,091024,,,D,V*1A
$GNVTG,0.00,T,,M,0.01,N,0.03,K,D*24
$GNGGA,184502.000,4910.426614,N,12304.400784,W,2,36,0.43,4.516,M,-16.816,M,,*4C
$GNGLL,4910.426614,N,12304.400784,W,184502.000,A,D*5E
$GNGSA,A,3,28,02,31,21,03,32,04,25,17,10,19,12,0.77,0.43,0.64,1*00
$GNGSA,A,3,65,81,75,88,74,82,,,,,,,0.77,0.43,0.64,2*06
$GNGSA,A,3,06,04,09,36,11,10,21,19,34,12,,,0.77,0.43,0.64,3*06
$GNGSA,A,3,32,41,23,25,29,30,20,40,,,,,0.77,0.43,0.64,4*0D
$GPGSV,4,1,13,28,58,096,41,02,51,240,42,31,47,160,42,21,44,214,42,1*6A
$GPGSV,4,2,13,03,42,300,41,32,34,065,41,44,33,171,39,04,15,247,35,1*69
$GPGSV,4,3,13,25,14,060,32,17,12,310,32,10,11,115,39,19,07,334,33,1*67
$GPGSV,4,4,13,12,06,025,34,1*53
$GLGSV,2,1,07,65,68,021,33,81,46,288,32,66,42,284,,75,33,103,36,1*77
$GLGSV,2,2,07,88,30,217,27,74,27,040,31,82,19,336,35,1*4F
$GAGSV,3,1,10,06,80,253,42,04,71,059,41,09,54,248,40,36,53,288,38,7*7F
$GAGSV,3,2,10,11,49,197,36,10,26,176,35,21,13,052,35,19,12,064,25,7*79
$GAGSV,3,3,10,34,11,326,32,12,06,164,21,7*76
$GBGSV,3,1,12,32,79,329,38,58,77,074,,41,37,085,34,23,32,128,33,1*75
$GBGSV,3,2,12,25,31,065,35,29,26,298,26,30,26,237,31,20,25,278,33,1*77
$GBGSV,3,3,12,40,13,305,32,48,06,275,18,07,03,314,19,27,03,195,11,1*76
$GNRMC,184502.000,A,4910.426614,N,12304.400784,W,0.01,0.00,091024,,,D,V*1C
$GNVTG,0.00,T,,M,0.01,N,0.02,K,D*25
$GNGGA,184503.000,4910.426626,N,12304.400790,W,2,36,0.43,4.406,M,-16.816,M,,*49
$GNGLL,4910.426626,N,12304.400790,W,184503.000,A,D*5B
$GNGSA,A,3,28,02,31,21,03,32,04,25,17,10,19,12,0.77,0.43,0.64,1*00
$GNGSA,A,3,65,81,75,88,74,82,,,,,,,0.77,0.43,0.64,2*06
$GNGSA,A,3,06,04,09,36,11,10,21,19,34,12,,,0.77,0.43,0.64,3*06
$GNGSA,A,3,32,41,23,25,29,30,20,40,,,,,0.77,0.43,0.64,4*0D
$GPGSV,4,1,13,28,58,096,41,02,51,240,42,31,47,160,42,21,44,214,42,1*6A
$GPGSV,4,2,13,03,42,300,41,32,34,065,41,44,33,171,39,04,15,247,35,1*69
$GPGSV,4,3,13,25,14,060,32,17,12,310,32,10,11,115,39,19,07,334,33,1*67
$GPGSV,4,4,13,12,06,025,34,1*53
$GLGSV,2,1,07,65,68,021,34,81,46,288,31,66,42,284,,75,33,103,36,1*73
$GLGSV,2,2,07,88,30,217,26,74,27,040,31,82,19,336,35,1*4E
$GAGSV,3,1,10,06,80,253,42,04,71,059,41,09,54,248,40,36,53,288,38,7*7F
$GAGSV,3,2,10,11,49,197,36,10,26,176,35,21,13,052,35,19,12,064,25,7*79
$GAGSV,3,3,10,34,11,326,32,12,06,164,21,7*76
$GBGSV,3,1,12,32,79,329,38,58,77,074,,41,37,085,35,23,32,128,33,1*74
$GBGSV,3,2,12,25,31,065,35,29,26,298,26,30,26,237,31,20,25,278,33,1*77
$GBGSV,3,3,12,40,13,305,32,48,06,275,18,07,03,314,20,27,03,195,13,1*7E
$GNRMC,184503.000,A,4910.426626,N,12304.400790,W,0.01,0.00,091024,,,D,V*19
$GNVTG,0.00,T,,M,0.01,N,0.02,K,D*25
$GNGGA,184504.000,4910.426650,N,12304.400808,W,2,36,0.43,4.269,M,-16.817,M,,*4F
$GNGLL,4910.426650,N,12304.400808,W,184504.000,A,D*53
$GNGSA,A,3,28,02,31,21,03,32,04,25,17,10,19,12,0.77,0.43,0.64,1*00
$GNGSA,A,3,65,81,75,88,74,82,,,,,,,0.77,0.43,0.64,2*06
$GNGSA,A,3,06,04,09,36,11,10,21,19,34,12,,,0.77,0.43,0.64,3*06
$GNGSA,A,3,32,41,23,25,29,30,20,40,,,,,0.77,0.43,0.64,4*0D
$GPGSV,4,1,13,28,58,096,41,02,51,240,42,31,47,160,42,21,44,214,42,1*6A
$GPGSV,4,2,13,03,42,300,41,32,34,065,41,44,33,171,39,04,15,247,35,1*69
$GPGSV,4,3,13,25,14,060,32,17,12,310,32,10,11,115,39,19,07,334,33,1*67
$GPGSV,4,4,13,12,06,025,34,1*53
$GLGSV,2,1,07,65,68,021,34,81,46,288,31,66,42,284,,75,33,103,36,1*73
$GLGSV,2,2,07,88,30,217,27,74,27,040,31,82,19,336,34,1*4E
$GAGSV,3,1,10,06,80,253,42,04,71,059,41,09,54,248,40,36,53,288,38,7*7F
$GAGSV,3,2,10,11,49,197,36,10,26,176,35,21,13,052,35,19,12,064,25,7*79
$GAGSV,3,3,10,34,11,326,32,12,06,164,21,7*76
$GBGSV,3,1,12,32,79,329,38,58,77,074,,41,37,085,35,23,32,128,33,1*74
$GBGSV,3,2,12,25,31,065,35,29,26,298,26,30,26,237,31,20,25,278,33,1*77
$GBGSV,3,3,12,40,13,305,32,48,06,275,,07,03,314,20,27,03,195,12,1*76
$GNRMC,184504.000,A,4910.426650,N,12304.400808,W,0.01,0.00,091024,,,D,V*11
$GNVTG,0.00,T,,M,0.01,N,0.01,K,D*26
$GNGGA,184505.000,4910.426650,N,12304.400796,W,2,36,0.43,4.172,M,-16.816,M,,*4E
$GNGLL,4910.426650,N,12304.400796,W,184505.000,A,D*5A
$GNGSA,A,3,28,02,31,21,03,32,04,25,17,10,19,12,0.77,0.43,0.64,1*00
$GNGSA,A,3,65,81,75,88,74,82,,,,,,,0.77,0.43,0.64,2*06
$GNGSA,A,3,06,04,09,36,11,10,21,19,34,12,,,0.77,0.43,0.64,3*06
$GNGSA,A,3,32,41,23,25,29,30,20,40,,,,,0.77,0.43,0.64,4*0D
$GPGSV,4,1,13,28,58,096,41,02,51,240,42,31,47,160,42,21,44,214,42,1*6A
$GPGSV,4,2,13,03,42,300,41,32,34,065,41,44,33,171,39,04,15,247,35,1*69
$GPGSV,4,3,13,25,14,060,32,17,12,310,33,10,11,115,39,19,07,334,33,1*66
$GPGSV,4,4,13,12,06,025,34,1*53
$GLGSV,2,1,07,65,68,021,34,81,46,288,30,66,42,284,,75,33,103,36,1*72
$GLGSV,2,2,07,88,30,217,27,74,27,040,31,82,19,336,34,1*4E
$GAGSV,3,1,10,06,80,253,42,04,71,059,41,09,54,248,40,36,53,288,38,7*7F
$GAGSV,3,2,10,11,49,197,36,10,26,176,35,21,13,052,35,19,12,064,25,7*79
$GAGSV,3,3,10,34,11,326,32,12,06,164,21,7*76
$GBGSV,3,1,12,32,79,329,38,58,77,074,,41,37,085,35,23,32,128,33,1*74
$GBGSV,3,2,12,25,31,065,35,29,26,298,26,30,26,237,31,20,25,278,33,1*77
$GBGSV,3,3,12,40,13,305,32,48,06,275,,07,03,314,20,27,03,195,14,1*70
$GNRMC,184505.000,A,4910.426650,N,12304.400796,W,0.01,0.00,091024,,,D,V*18
$GNVTG,0.00,T,,M,0.01,N,0.01,K,D*26
$GNGGA,184506.000,4910.426596,N,12304.400730,W,2,36,0.43,4.100,M,-16.816,M,,*4D
$GNGLL,4910.426596,N,12304.400730,W,184506.000,A,D*5C
$GNGSA,A,3,28,02,31,21,03,32,04,25,17,10,19,12,0.77,0.43,0.64,1*00
$GNGSA,A,3,65,81,75,88,74,82,,,,,,,0.77,0.43,0.64,2*06
$GNGSA,A,3,06,04,09,36,11,10,21,34,19,12,,,0.77,0.43,0.64,3*06
$GNGSA,A,3,32,41,23,25,29,30,20,40,,,,,0.77,0.43,0.64,4*0D
$GPGSV,4,1,13,28,58,096,41,02,51,240,42,31,47,160,42,21,44,214,42,1*6A
$GPGSV,4,2,13,03,42,300,41,32,34,065,41,44,33,171,39,04,15,247,35,1*69
$GPGSV,4,3,13,25,14,060,32,17,12,310,33,10,11,115,39,19,07,334,33,1*66
$GPGSV,4,4,13,12,06,025,34,1*53
$GLGSV,2,1,07,65,68,021,34,81,46,288,30,66,42,284,,75,33,103,36,1*72
$GLGSV,2,2,07,88,30,217,26,74,27,040,31,82,19,336,34,1*4F
$GAGSV,3,1,10,06,80,253,42,04,71,059,41,09,54,248,40,36,53,288,38,7*7F
$GAGSV,3,2,10,11,49,197,36,10,26,176,35,21,13,052,35,34,12,325,33,7*77
$GAGSV,3,3,10,19,12,064,25,12,06,164,21,7*79
$GBGSV,3,1,12,32,79,329,38,58,77,074,,41,37,085,35,23,32,128,33,1*74
$GBGSV,3,2,12,25,31,065,35,29,26,298,24,30,26,237,31,20,25,278,33,1*75
$GBGSV,3,3,12,40,13,305,32,48,06,275,,07,03,314,20,27,03,195,11,1*75
$GNRMC,184506.000,A,4910.426596,N,12304.400730,W,0.01,0.00,091024,,,D,V*1E
$GNVTG,0.00,T,,M,0.01,N,0.03,K,D*24
$GNGGA,184507.000,4910.426560,N,12304.400688,W,2,36,0.43,3.977,M,-16.817,M,,*49
$GNGLL,4910.426560,N,12304.400688,W,184507.000,A,D*56
$GNGSA,A,3,28,02,31,21,03,32,04,25,17,10,19,12,0.77,0.43,0.64,1*00
$GNGSA,A,3,65,81,75,88,74,82,,,,,,,0.77,0.43,0.64,2*06
$GNGSA,A,3,06,04,09,36,11,10,21,34,19,12,,,0.77,0.43,0.64,3*06
$GNGSA,A,3,32,41,23,25,29,30,20,40,,,,,0.77,0.43,0.64,4*0D
$GPGSV,4,1,13,28,58,096,41,02,51,240,42,31,47,160,42,21,44,214,42,1*6A
$GPGSV,4,2,13,03,42,300,41,32,34,065,41,44,33,171,39,04,15,247,35,1*69
$GPGSV,4,3,13,25,14,060,32,17,12,310,33,10,11,115,39,19,07,334,33,1*66
$GPGSV,4,4,13,12,06,025,34,1*53
$GLGSV,2,1,07,65,68,021,34,81,46,288,30,66,42,284,,75,33,103,36,1*72
$GLGSV,2,2,07,88,30,217,26,74,27,040,31,82,19,336,33,1*48
$GAGSV,3,1,10,06,80,253,42,04,71,059,41,09,54,248,40,36,53,288,38,7*7F
$GAGSV,3,2,10,11,49,197,36,10,26,176,35,21,13,052,35,34,12,325,33,7*77
$GAGSV,3,3,10,19,12,064,25,12,06,164,21,7*79
$GBGSV,3,1,12,32,79,329,38,58,77,074,,41,37,085,35,23,32,128,34,1*73
$GBGSV,3,2,12,25,31,065,35,29,26,298,27,30,26,237,31,20,25,278,33,1*76
$GBGSV,3,3,12,40,13,305,32,48,06,275,,07,03,314,21,27,03,195,13,1*76
$GNRMC,184507.000,A,4910.426560,N,12304.400688,W,0.02,0.00,091024,,,D,V*17
$GNVTG,0.00,T,,M,0.02,N,0.03,K,D*27
$GNGGA,184508.000,4910.426470,N,12304.400676,W,2,36,0.43,3.914,M,-16.816,M,,*43
$GNGLL,4910.426470,N,12304.400676,W,184508.000,A,D*58
$GNGSA,A,3,28,02,31,21,03,32,04,25,17,10,19,12,0.77,0.43,0.64,1*00
$GNGSA,A,3,65,81,75,88,74,82,,,,,,,0.77,0.43,0.64,2*06
$GNGSA,A,3,06,04,09,36,11,10,21,34,19,12,,,0.77,0.43,0.64,3*06
$GNGSA,A,3,32,41,23,25,29,30,20,40,,,,,0.77,0.43,0.64,4*0D
$GPGSV,4,1,13,28,58,096,41,02,51,240,42,31,47,160,42,21,44,214,42,1*6A
$GPGSV,4,2,13,03,42,300,41,32,34,065,41,44,33,171,39,04,15,247,35,1*69
$GPGSV,4,3,13,25,14,060,32,17,12,310,33,10,11,115,39,19,07,334,33,1*66
$GPGSV,4,4,13,12,06,025,34,1*53
$GLGSV,2,1,07,65,68,021,34,81,46,288,30,66,42,284,,75,33,103,36,1*72
$GLGSV,2,2,07,88,30,217,26,74,27,040,31,82,19,336,33,1*48
$GAGSV,3,1,10,06,80,253,42,04,71,059,41,09,54,248,40,36,53,287,38,7*70
$GAGSV,3,2,10,11,49,197,36,10,26,176,35,21,13,052,35,34,12,325,33,7*77
$GAGSV,3,3,10,19,12,064,25,12,06,164,21,7*79
$GBGSV,3,1,12,32,79,329,38,58,77,074,,41,37,085,34,23,32,128,34,1*72
$GBGSV,3,2,12,25,31,065,35,29,26,298,24,30,26,237,31,20,25,278,32,1*74
$GBGSV,3,3,12,40,13,305,32,48,06,275,19,07,03,314,21,27,03,195,13,1*7E
$GNRMC,184508.000,A,4910.426470,N,12304.400676,W,0.02,0.00,091024,,,D,V*19
$GNVTG,0.00,T,,M,0.02,N,0.03,K,D*27
$GNGGA,184509.000,4910.426356,N,12304.400676,W,2,36,0.43,3.812,M,-16.816,M,,*46
$GNGLL,4910.426356,N,12304.400676,W,184509.000,A,D*5A
$GNGSA,A,3,28,02,31,21,03,32,04,25,17,10,19,12,0.77,0.43,0.64,1*00
$GNGSA,A,3,65,81,75,88,74,82,,,,,,,0.77,0.43,0.64,2*06
$GNGSA,A,3,06,04,09,36,11,10,21,34,19,12,,,0.77,0.43,0.64,3*06
$GNGSA,A,3,32,41,23,25,29,30,20,40,,,,,0.77,0.43,0.64,4*0D
$GPGSV,4,1,13,28,58,096,41,02,51,240,42,31,47,160,42,21,44,214,42,1*6A
$GPGSV,4,2,13,03,42,300,41,32,34,065,41,44,33,171,39,04,15,247,35,1*69
$GPGSV,4,3,13,25,14,060,32,17,12,310,33,10,11,115,39,19,07,334,33,1*66
$GPGSV,4,4,13,12,06,025,34,1*53
$GLGSV,2,1,07,65,67,024,35,81,46,288,30,66,42,284,,75,33,103,36,1*79
$GLGSV,2,2,07,88,30,217,26,74,27,040,31,82,19,336,33,1*48
$GAGSV,3,1,10,06,80,253,42,04,71,059,41,09,54,248,40,36,53,287,38,7*70
$GAGSV,3,2,10,11,49,197,36,10,26,176,35,21,13,052,35,34,12,325,33,7*77
$GAGSV,3,3,10,19,12,064,24,12,06,164,21,7*78
$GBGSV,3,1,12,32,79,329,38,58,77,074,,41,37,085,34,23,32,128,35,1*73
$GBGSV,3,2,12,25,31,065,35,29,26,298,26,30,26,237,31,20,25,278,32,1*76
$GBGSV,3,3,12,40,13,305,32,48,06,275,20,07,03,314,21,27,03,195,13,1*74
$GNRMC,184509.000,A,4910.426356,N,12304.400676,W,0.02,0.00,091024,,,D,V*1B
$GNVTG,0.00,T,,M,0.02,N,0.04,K,D*20
$GNGGA,184510.000,4910.426278,N,12304.400700,W,2,36,0.43,3.727,M,-16.816,M,,*4A
$GNGLL,4910.426278,N,12304.400700,W,184510.000,A,D*5F
$GNGSA,A,3,28,02,31,21,03,32,04,25,17,10,19,12,0.77,0.43,0.64,1*00
$GNGSA,A,3,65,81,75,88,74,82,,,,,,,0.77,0.43,0.64,2*06
$GNGSA,A,3,06,04,09,36,11,10,21,34,19,12,,,0.77,0.43,0.64,3*06
$GNGSA,A,3,32,41,23,25,29,30,20,40,,,,,0.77,0.43,0.64,4*0D
$GPGSV,4,1,13,28,58,096,41,02,51,240,42,31,47,160,42,21,44,214,42,1*6A
$GPGSV,4,2,13,03,42,300,41,32,34,065,41,44,33,171,39,04,15,247,35,1*69
$GPGSV,4,3,13,25,14,060,32,17,12,310,33,10,11,115,39,19,07,334,33,1*66
$GPGSV,4,4,13,12,06,025,34,1*53
$GLGSV,2,1,07,65,67,024,34,81,46,288,30,66,43,285,,75,33,103,36,1*78
$GLGSV,2,2,07,88,30,217,26,74,27,040,31,82,19,336,33,1*48
$GAGSV,3,1,10,06,80,253,42,04,71,059,41,09,54,248,40,36,53,287,38,7*70
$GAGSV,3,2,10,11,49,197,36,10,26,176,35,21,13,052,35,34,12,325,33,7*77
$GAGSV,3,3,10,19,12,064,24,12,06,164,21,7*78
$GBGSV,3,1,12,32,79,329,38,58,77,074,,41,37,085,34,23,32,128,35,1*73
$GBGSV,3,2,12,25,31,065,35,29,26,298,26,30,26,237,31,20,25,278,32,1*76
$GBGSV,3,3,12,40,13,305,32,48,06,275,20,07,03,314,21,27,03,195,12,1*75
$GNRMC,184510.000,A,4910.426278,N,12304.400700,W,0.02,0.00,091024,,,D,V*1E
$GNVTG,0.00,T,,M,0.02,N,0.04,K,D*20
$GNGGA,184511.000,4910.426194,N,12304.400760,W,2,36,0.43,3.732,M,-16.817,M,,*49
$GNGLL,4910.426194,N,12304.400760,W,184511.000,A,D*59
$GNGSA,A,3,28,02,31,21,03,32,04,25,17,10,19,12,0.77,0.43,0.64,1*00
$GNGSA,A,3,65,81,75,88,74,82,,,,,,,0.77,0.43,0.64,2*06
$GNGSA,A,3,06,04,09,36,11,10,21,34,19,12,,,0.77,0.43,0.64,3*06
$GNGSA,A,3,32,41,23,25,29,30,20,40,,,,,0.77,0.43,0.64,4*0D
$GPGSV,4,1,13,28,58,096,41,02,51,240,42,31,47,160,42,21,44,214,42,1*6A
$GPGSV,4,2,13,03,42,300,41,32,34,065,41,44,33,171,39,04,15,247,35,1*69
$GPGSV,4,3,13,25,14,060,32,17,12,310,33,10,11,115,39,19,07,334,33,1*66
$GPGSV,4,4,13,12,06,025,35,1*52
$GLGSV,2,1,07,65,67,024,34,81,46,288,30,66,43,285,,75,33,103,36,1*78
$GLGSV,2,2,07,88,30,217,26,74,27,040,32,82,19,336,33,1*4B
$GAGSV,3,1,10,06,80,253,42,04,71,059,41,09,54,248,40,36,53,287,38,7*70
$GAGSV,3,2,10,11,49,197,36,10,26,176,35,21,13,052,35,34,12,325,33,7*77
$GAGSV,3,3,10,19,12,064,24,12,06,164,21,7*78
$GBGSV,3,1,12,32,79,329,38,58,77,074,,41,37,085,34,23,32,128,35,1*73
$GBGSV,3,2,12,25,31,065,35,29,26,298,28,30,26,237,31,20,25,278,32,1*78
$GBGSV,3,3,12,40,13,305,32,48,06,275,20,07,03,314,21,27,03,195,13,1*74
$GNRMC,184511.000,A,4910.426194,N,12304.400760,W,0.02,0.00,091024,,,D,V*18
$GNVTG,0.00,T,,M,0.02,N,0.04,K,D*20
$GNGGA,184512.000,4910.426134,N,12304.400748,W,2,36,0.43,3.744,M,-16.816,M,,*4A
$GNGLL,4910.426134,N,12304.400748,W,184512.000,A,D*5A
$GNGSA,A,3,28,02,31,21,03,32,04,25,17,10,19,12,0.77,0.43,0.64,1*00
$GNGSA,A,3,65,81,75,88,74,82,,,,,,,0.77,0.43,0.64,2*06
$GNGSA,A,3,06,04,09,36,11,10,21,34,19,12,,,0.77,0.43,0.64,3*06
$GNGSA,A,3,32,41,23,25,29,30,20,40,,,,,0.77,0.43,0.64,4*0D
$GPGSV,4,1,13,28,58,096,41,02,51,240,42,31,47,160,42,21,44,214,42,1*6A
$GPGSV,4,2,13,03,42,300,40,32,34,065,41,44,33,171,39,04,15,247,35,1*68
$GPGSV,4,3,13,25,14,060,32,17,12,310,33,10,11,115,39,19,07,334,33,1*66
$GPGSV,4,4,13,12,06,025,35,1*52
$GLGSV,2,1,07,65,67,024,34,81,46,288,30,66,43,285,,75,33,103,36,1*78
$GLGSV,2,2,07,88,30,217,26,74,27,040,32,82,19,336,32,1*4A
$GAGSV,3,1,10,06,80,253,42,04,71,059,41,09,54,248,40,36,53,287,38,7*70
$GAGSV,3,2,10,11,49,197,36,10,26,176,35,21,13,052,35,34,12,325,33,7*77
$GAGSV,3,3,10,19,12,064,24,12,06,164,21,7*78
$GBGSV,3,1,12,32,79,329,39,58,77,074,,41,37,085,35,23,32,128,35,1*73
$GBGSV,3,2,12,25,31,065,35,29,26,298,29,30,26,237,31,20,25,278,33,1*78
$GBGSV,3,3,12,40,13,305,32,48,06,275,20,07,03,314,21,27,03,195,13,1*74
$GNRMC,184512.000,A,4910.426134,N,12304.400748,W,0.02,0.00,091024,,,D,V*1B
$GNVTG,0.00,T,,M,0.02,N,0.04,K,D*20
$GNGGA,184513.000,4910.426068,N,12304.400802,W,2,36,0.43,3.730,M,-16.816,M,,*41
$GNGLL,4910.426068,N,12304.400802,W,184513.000,A,D*52
$GNGSA,A,3,28,02,31,21,03,32,04,25,17,10,19,12,0.77,0.43,0.64,1*00
$GNGSA,A,3,65,81,75,88,74,82,,,,,,,0.77,0.43,0.64,2*06
$GNGSA,A,3,06,04,09,36,11,10,21,34,19,12,,,0.77,0.43,0.64,3*06
$GNGSA,A,3,32,41,23,25,29,30,20,40,,,,,0.77,0.43,0.64,4*0D
$GPGSV,4,1,13,28,58,096,41,02,51,240,42,31,47,160,42,21,44,214,42,1*6A
$GPGSV,4,2,13,03,42,300,40,32,34,065,41,44,33,171,39,04,15,247,35,1*68
$GPGSV,4,3,13,25,14,060,32,17,12,310,33,10,11,115,39,19,07,334,33,1*66
$GPGSV,4,4,13,12,06,025,35,1*52
$GLGSV,2,1,07,65,67,024,34,81,46,288,30,66,43,285,,75,33,103,36,1*78
$GLGSV,2,2,07,88,30,217,25,74,27,040,32,82,19,336,31,1*4A
$GAGSV,3,1,10,06,80,253,42,04,71,059,41,09,54,248,40,36,53,287,38,7*70
$GAGSV,3,2,10,11,49,197,36,10,26,176,35,21,13,052,35,34,12,325,33,7*77
$GAGSV,3,3,10,19,12,064,24,12,06,164,21,7*78
$GBGSV,3,1,12,32,79,329,39,58,77,074,,41,37,085,35,23,32,128,35,1*73
$GBGSV,3,2,12,25,31,065,35,29,26,298,29,30,26,237,32,20,25,278,33,1*7B
$GBGSV,3,3,12,40,13,305,32,48,06,275,20,07,03,314,22,27,03,195,15,1*71
$GNRMC,184513.000,A,4910.426068,N,12304.400802,W,0.02,0.00,091024,,,D,V*13
$GNVTG,0.00,T,,M,0.02,N,0.03,K,D*27
$GNGGA,184514.000,4910.425972,N,12304.400760,W,2,36,0.43,3.693,M,-16.817,M,,*45
$GNGLL,4910.425972,N,12304.400760,W,184514.000,A,D*5F
$GNGSA,A,3,28,02,31,21,03,32,04,25,17,10,19,12,0.77,0.43,0.64,1*00
$GNGSA,A,3,65,81,75,88,74,82,,,,,,,0.77,0.43,0.64,2*06
$GNGSA,A,3,06,04,09,36,11,10,21,34,19,12,,,0.77,0.43,0.64,3*06
$GNGSA,A,3,32,41,23,25,29,30,20,40,,,,,0.77,0.43,0.64,4*0D
$GPGSV,4,1,13,28,58,096,41,02,51,240,42,31,47,160,42,21,44,214,42,1*6A
$GPGSV,4,2,13,03,42,300,40,32,34,065,41,44,33,171,39,04,15,247,35,1*68
$GPGSV,4,3,13,25,14,060,32,17,12,310,33,10,11,115,39,19,07,334,33,1*66
$GPGSV,4,4,13,12,06,025,35,1*52
$GLGSV,2,1,07,65,67,024,34,81,46,288,30,66,43,285,,75,33,103,36,1*78
$GLGSV,2,2,07,88,30,217,25,74,27,040,31,82,19,336,31,1*49
$GAGSV,3,1,10,06,80,253,42,04,71,059,41,09,54,248,40,36,53,287,38,7*70
$GAGSV,3,2,10,11,49,197,36,10,26,176,35,21,13,052,35,34,12,325,33,7*77
$GAGSV,3,3,10,19,12,064,24,12,06,164,21,7*78
$GBGSV,3,1,12,32,79,329,39,58,77,074,,41,37,085,35,23,32,128,34,1*72
$GBGSV,3,2,12,25,31,065,35,29,26,298,29,30,26,237,31,20,25,278,33,1*78
$GBGSV,3,3,12,40,13,305,32,48,06,275,20,07,03,314,20,27,03,195,16,1*70
$GNRMC,184514.000,A,4910.425972,N,12304.400760,W,0.02,0.00,091024,,,D,V*1E
$GNVTG,0.00,T,,M,0.02,N,0.03,K,D*27
$GNGGA,184515.000,4910.425918,N,12304.400802,W,2,36,0.43,3.736,M,-16.816,M,,*4C
$GNGLL,4910.425918,N,12304.400802,W,184515.000,A,D*59
$GNGSA,A,3,28,02,31,21,03,32,04,25,17,10,19,12,0.77,0.43,0.64,1*00
$GNGSA,A,3,65,81,75,88,74,82,,,,,,,0.77,0.43,0.64,2*06
$GNGSA,A,3,06,04,09,36,11,10,21,34,19,12,,,0.77,0.43,0.64,3*06
$GNGSA,A,3,32,41,23,25,29,30,20,40,,,,,0.77,0.43,0.64,4*0D
$GPGSV,4,1,13,28,58,096,41,02,51,240,42,31,47,160,42,21,44,214,42,1*6A
$GPGSV,4,2,13,03,42,300,40,32,34,065,41,44,33,171,39,04,15,247,35,1*68
$GPGSV,4,3,13,25,14,060,32,17,12,310,33,10,11,115,39,19,07,334,33,1*66
$GPGSV,4,4,13,12,06,025,35,1*52
$GLGSV,2,1,07,65,67,024,34,81,46,288,30,66,43,285,,75,33,103,36,1*78
$GLGSV,2,2,07,88,30,217,26,74,27,040,31,82,19,336,31,1*4A
$GAGSV,3,1,10,06,80,253,42,04,71,059,41,09,54,248,40,36,53,287,38,7*70
$GAGSV,3,2,10,11,49,197,36,10,26,176,35,21,13,052,35,34,12,325,33,7*77
$GAGSV,3,3,10,19,12,064,24,12,06,164,21,7*78
$GBGSV,3,1,12,32,79,329,39,58,77,074,,41,37,085,35,23,32,128,34,1*72
$GBGSV,3,2,12,25,31,065,35,29,26,298,28,30,26,237,31,20,25,278,32,1*78
$GBGSV,3,3,12,40,13,305,32,48,06,275,21,07,03,314,20,27,03,195,16,1*71
$GNRMC,184515.000,A,4910.425918,N,12304.400802,W,0.01,0.00,091024,,,D,V*1B
$GNVTG,0.00,T,,M,0.01,N,0.03,K,D*24
$GNGGA,184516.000,4910.425864,N,12304.400796,W,2,36,0.43,3.764,M,-16.816,M,,*40
$GNGLL,4910.425864,N,12304.400796,W,184516.000,A,D*52
$GNGSA,A,3,28,02,31,21,03,32,04,25,17,10,19,12,0.77,0.43,0.64,1*00
$GNGSA,A,3,65,81,75,88,74,82,,,,,,,0.77,0.43,0.64,2*06
$GNGSA,A,3,06,04,09,36,11,10,21,34,19,12,,,0.77,0.43,0.64,3*06
$GNGSA,A,3,32,41,23,25,29,30,20,40,,,,,0.77,0.43,0.64,4*0D
$GPGSV,4,1,13,28,58,096,41,02,51,240,42,31,47,160,42,21,44,214,42,1*6A
$GPGSV,4,2,13,03,42,300,40,32,34,065,41,44,33,171,39,04,15,247,35,1*68
$GPGSV,4,3,13,25,14,060,32,17,12,310,33,10,11,115,39,19,07,334,33,1*66
$GPGSV,4,4,13,12,06,025,35,1*52
$GLGSV,2,1,07,65,67,024,34,81,46,288,29,66,43,285,,75,33,103,36,1*70
$GLGSV,2,2,07,88,30,217,26,74,27,040,31,82,19,336,31,1*4A
$GAGSV,3,1,10,06,80,253,42,04,71,059,41,09,54,248,40,36,53,287,38,7*70
$GAGSV,3,2,10,11,49,197,36,10,26,176,35,21,13,052,35,34,12,325,33,7*77
$GAGSV,3,3,10,19,12,064,24,12,06,164,21,7*78
$GBGSV,3,1,12,32,79,329,39,58,77,074,,41,37,085,35,23,32,128,34,1*72
$GBGSV,3,2,12,25,31,065,35,29,26,298,29,30,26,237,31,20,25,278,32,1*79
$GBGSV,3,3,12,40,13,305,31,48,06,275,21,07,03,314,22,27,03,195,15,1*73
$GNRMC,184516.000,A,4910.425864,N,12304.400796,W,0.01,0.00,091024,,,D,V*10
$GNVTG,0.00,T,,M,0.01,N,0.02,K,D*25
$GNGGA,184517.000,4910.425798,N,12304.400754,W,2,36,0.43,3.808,M,-16.816,M,,*46
$GNGLL,4910.425798,N,12304.400754,W,184517.000,A,D*51
$GNGSA,A,3,28,02,31,21,03,32,04,25,17,10,19,12,0.77,0.43,0.64,1*00
$GNGSA,A,3,65,81,75,88,74,82,,,,,,,0.77,0.43,0.64,2*06
$GNGSA,A,3,06,04,09,36,11,10,21,34,19,12,,,0.77,0.43,0.64,3*06
$GNGSA,A,3,32,41,23,25,29,30,20,40,,,,,0.77,0.43,0.64,4*0D
$GPGSV,4,1,13,28,58,096,41,02,51,240,42,31,47,160,42,21,44,214,42,1*6A
$GPGSV,4,2,13,03,42,300,40,32,34,065,41,44,33,171,39,04,15,247,35,1*68
$GPGSV,4,3,13,25,14,060,32,17,12,310,33,10,11,115,39,19,07,334,33,1*66
$GPGSV,4,4,13,12,06,025,35,1*52
$GLGSV,2,1,07,65,67,024,33,81,46,288,29,66,43,285,,75,33,103,36,1*77
$GLGSV,2,2,07,88,30,217,26,74,27,040,31,82,19,336,30,1*4B
$GAGSV,3,1,10,06,80,253,42,04,71,059,41,09,54,248,40,36,53,287,38,7*70
$GAGSV,3,2,10,11,49,197,36,10,26,176,35,21,13,052,35,34,12,325,33,7*77
$GAGSV,3,3,10,19,12,064,24,12,06,164,21,7*78
$GBGSV,3,1,12,32,79,329,39,58,77,074,,41,37,085,35,23,32,128,34,1*72
$GBGSV,3,2,12,25,31,065,35,29,26,298,29,30,26,237,30,20,25,278,31,1*7B
$GBGSV,3,3,12,40,13,305,31,48,06,275,21,07,03,314,22,27,03,195,15,1*73
$GNRMC,184517.000,A,4910.425798,N,12304.400754,W,0.01,0.00,091024,,,D,V*13
$GNVTG,0.00,T,,M,0.01,N,0.02,K,D*25
$GNGGA,184518.000,4910.425744,N,12304.400706,W,2,36,0.43,3.720,M,-16.816,M,,*4A
$GNGLL,4910.425744,N,12304.400706,W,184518.000,A,D*58
$GNGSA,A,3,28,02,31,21,03,32,04,25,17,10,19,12,0.77,0.43,0.64,1*00
$GNGSA,A,3,65,81,75,88,74,82,,,,,,,0.77,0.43,0.64,2*06
$GNGSA,A,3,06,04,09,36,11,10,21,34,19,12,,,0.77,0.43,0.64,3*06
$GNGSA,A,3,32,41,23,25,29,30,20,40,,,,,0.77,0.43,0.64,4*0D
$GPGSV,4,1,13,28,58,096,41,02,51,240,42,31,47,160,42,21,44,214,42,1*6A
$GPGSV,4,2,13,03,42,300,39,32,34,065,41,44,33,171,39,04,15,247,35,1*66
$GPGSV,4,3,13,25,14,060,33,17,12,310,33,10,11,115,39,19,07,334,33,1*67
$GPGSV,4,4,13,12,06,025,35,1*52
$GLGSV,2,1,07,65,67,024,33,81,46,288,29,66,43,285,,75,33,103,36,1*77
$GLGSV,2,2,07,88,30,217,26,74,26,038,31,82,19,336,30,1*45
$GAGSV,3,1,10,06,80,253,42,04,71,059,41,09,54,248,40,36,53,287,38,7*70
$GAGSV,3,2,10,11,49,197,36,10,26,176,35,21,13,052,35,34,12,325,33,7*77
$GAGSV,3,3,10,19,12,064,24,12,06,164,21,7*78
$GBGSV,3,1,12,32,79,329,38,58,77,074,,41,37,085,35,23,32,128,34,1*73
$GBGSV,3,2,12,25,31,065,35,29,26,298,29,30,26,237,30,20,25,278,31,1*7B
$GBGSV,3,3,12,40,13,305,31,48,06,275,20,07,03,314,21,27,03,195,14,1*70
$GNRMC,184518.000,A,4910.425744,N,12304.400706,W,0.02,0.00,091024,,,D,V*19
$GNVTG,0.00,T,,M,0.02,N,0.03,K,D*27
$GNGGA,184519.000,4910.425696,N,12304.400676,W,2,36,0.43,3.682,M,-16.816,M,,*4A
$GNGLL,4910.425696,N,12304.400676,W,184519.000,A,D*51
$GNGSA,A,3,28,02,31,21,03,32,04,25,17,10,19,12,0.77,0.43,0.64,1*00
$GNGSA,A,3,65,81,75,88,74,82,,,,,,,0.77,0.43,0.64,2*06
$GNGSA,A,3,06,04,09,36,11,10,21,34,19,12,,,0.77,0.43,0.64,3*06
$GNGSA,A,3,32,41,23,25,29,30,20,40,,,,,0.77,0.43,0.64,4*0D
$GPGSV,4,1,13,28,58,096,41,02,51,240,42,31,47,160,42,21,44,214,42,1*6A
$GPGSV,4,2,13,03,42,300,39,32,34,065,41,44,33,171,39,04,15,247,35,1*66
$GPGSV,4,3,13,25,14,060,33,17,12,310,33,10,11,115,39,19,07,334,33,1*67
$GPGSV,4,4,13,12,06,025,35,1*52
$GLGSV,2,1,07,65,67,024,33,81,46,288,30,66,43,285,,75,34,101,36,1*7A
$GLGSV,2,2,07,88,30,217,26,74,26,038,31,82,19,336,30,1*45
$GAGSV,3,1,10,06,80,253,42,04,71,059,41,09,54,248,40,36,53,287,38,7*70
$GAGSV,3,2,10,11,49,197,36,10,26,176,35,21,13,052,35,34,12,325,33,7*77
$GAGSV,3,3,10,19,12,064,24,12,06,164,21,7*78
$GBGSV,3,1,12,32,79,329,38,58,77,074,,41,37,085,35,23,32,128,34,1*73
$GBGSV,3,2,12,25,31,065,35,29,26,298,29,30,26,237,30,20,25,278,31,1*7B
$GBGSV,3,3,12,40,13,305,31,48,06,275,20,07,03,314,22,27,03,195,14,1*73
$GNRMC,184519.000,A,4910.425696,N,12304.400676,W,0.02,0.00,091024,,,D,V*10
$GNVTG,0.00,T,,M,0.02,N,0.03,K,D*27
$GNGGA,184520.000,4910.425678,N,12304.400604,W,2,36,0.43,3.599,M,-16.816,M,,*4C
$GNGLL,4910.425678,N,12304.400604,W,184520.000,A,D*5E
$GNGSA,A,3,28,02,31,21,03,32,04,25,17,10,19,12,0.77,0.43,0.64,1*00
$GNGSA,A,3,65,81,75,88,74,82,,,,,,,0.77,0.43,0.64,2*06
$GNGSA,A,3,06,04,09,36,11,10,21,34,19,12,,,0.77,0.43,0.64,3*06
$GNGSA,A,3,32,41,23,25,29,30,20,40,,,,,0.77,0.43,0.64,4*0D
$GPGSV,4,1,13,28,58,096,41,02,51,240,41,31,47,160,42,21,44,214,41,1*6A
$GPGSV,4,2,13,03,42,300,39,32,34,065,41,44,33,171,39,04,15,247,35,1*66
$GPGSV,4,3,13,25,14,060,33,17,12,310,33,10,11,115,39,19,07,334,33,1*67
$GPGSV,4,4,13,12,06,025,35,1*52
$GLGSV,2,1,07,65,67,024,33,81,46,288,30,66,43,285,,75,34,101,36,1*7A
$GLGSV,2,2,07,88,30,217,25,74,26,038,31,82,19,336,30,1*46
$GAGSV,3,1,10,06,80,253,42,04,71,059,41,09,54,248,40,36,53,287,38,7*70
$GAGSV,3,2,10,11,49,197,36,10,26,176,35,21,13,052,35,34,12,325,33,7*77
$GAGSV,3,3,10,19,12,064,24,12,06,164,21,7*78
$GBGSV,3,1,12,32,79,329,38,58,77,074,,41,37,085,35,23,32,128,34,1*73
$GBGSV,3,2,12,25,31,065,35,29,26,298,29,30,26,237,30,20,25,278,31,1*7B
$GBGSV,3,3,12,40,13,305,31,48,06,275,20,07,03,314,22,27,03,195,12,1*75
$GNRMC,184520.000,A,4910.425678,N,12304.400604,W,0.02,0.00,091024,,,D,V*1F
$GNVTG,0.00,T,,M,0.02,N,0.03,K,D*27
$GNGGA,184521.000,4910.425630,N,12304.400610,W,2,36,0.43,3.490,M,-16.817,M,,*4D
$GNGLL,4910.425630,N,12304.400610,W,184521.000,A,D*56
$GNGSA,A,3,28,02,31,21,03,32,04,25,17,10,19,12,0.77,0.43,0.64,1*00
$GNGSA,A,3,65,81,75,88,74,82,,,,,,,0.77,0.43,0.64,2*06
$GNGSA,A,3,06,04,09,36,11,10,21,34,19,12,,,0.77,0.43,0.64,3*06
$GNGSA,A,3,32,41,23,25,29,30,20,40,,,,,0.77,0.43,0.64,4*0D
$GPGSV,4,1,13,28,58,096,42,02,51,240,41,31,47,160,42,21,44,214,41,1*69
$GPGSV,4,2,13,03,42,300,39,32,34,065,41,44,33,171,39,04,15,247,35,1*66
$GPGSV,4,3,13,25,14,060,33,17,12,310,33,10,11,115,39,19,07,334,33,1*67
$GPGSV,4,4,13,12,06,025,35,1*52
$GLGSV,2,1,07,65,67,024,33,81,46,288,30,66,43,285,,75,34,101,36,1*7A
$GLGSV,2,2,07,88,30,217,25,74,26,038,31,82,19,336,30,1*46
$GAGSV,3,1,10,06,80,253,42,04,71,059,41,09,54,248,40,36,53,287,38,7*70
$GAGSV,3,2,10,11,49,197,36,10,26,176,35,21,13,052,35,34,12,325,33,7*77
$GAGSV,3,3,10,19,12,064,24,12,06,164,21,7*78
$GBGSV,3,1,12,32,79,329,38,58,77,074,,41,37,085,35,23,32,128,34,1*73
$GBGSV,3,2,12,25,31,065,35,29,26,298,29,30,26,237,30,20,25,278,31,1*7B
$GBGSV,3,3,12,40,13,305,31,48,06,275,20,07,03,314,20,27,03,195,12,1*77
$GNRMC,184521.000,A,4910.425630,N,12304.400610,W,0.02,0.00,091024,,,D,V*17
$GNVTG,0.00,T,,M,0.02,N,0.03,K,D*27
$GNGGA,184522.000,4910.425588,N,12304.400616,W,2,36,0.43,3.452,M,-16.816,M,,*47
$GNGLL,4910.425588,N,12304.400616,W,184522.000,A,D*53
$GNGSA,A,3,28,02,31,21,03,32,04,25,17,10,19,12,0.77,0.43,0.64,1*00
$GNGSA,A,3,65,81,75,88,74,82,,,,,,,0.77,0.43,0.64,2*06
$GNGSA,A,3,06,04,09,36,11,10,21,34,19,12,,,0.77,0.43,0.64,3*06
$GNGSA,A,3,32,41,23,25,29,30,20,40,,,,,0.77,0.43,0.64,4*0D
$GPGSV,4,1,13,28,58,096,42,02,51,240,41,31,47,160,42,21,44,214,41,1*69
$GPGSV,4,2,13,03,42,300,39,32,34,065,41,44,33,171,39,04,15,247,35,1*66
$GPGSV,4,3,13,25,14,060,33,17,12,310,33,10,11,115,39,19,07,334,33,1*67
$GPGSV,4,4,13,12,06,025,35,1*52
$GLGSV,2,1,07,65,67,024,33,81,46,288,30,66,43,285,,75,34,101,36,1*7A
$GLGSV,2,2,07,88,30,217,25,74,26,038,31,82,19,336,29,1*4E
$GAGSV,3,1,10,06,80,253,42,04,71,059,41,09,54,248,40,36,53,287,38,7*70
$GAGSV,3,2,10,11,49,197,36,10,26,176,35,21,13,052,35,34,12,325,33,7*77
$GAGSV,3,3,10,19,12,064,24,12,06,164,20,7*79
$GBGSV,3,1,12,32,79,329,38,58,77,074,,41,37,085,35,23,32,128,34,1*73
$GBGSV,3,2,12,25,31,065,35,29,26,298,29,30,26,237,30,20,25,278,32,1*78
$GBGSV,3,3,12,40,13,305,31,48,06,275,20,07,03,314,22,27,03,195,12,1*75
$GNRMC,184522.000,A,4910.425588,N,12304.400616,W,0.01,0.00,091024,,,D,V*11
$GNVTG,0.00,T,,M,0.01,N,0.03,K,D*24
$GNGGA,184523.000,4910.425552,N,12304.400610,W,2,36,0.43,3.434,M,-16.816,M,,*47
$GNGLL,4910.425552,N,12304.400610,W,184523.000,A,D*53
$GNGSA,A,3,28,02,31,21,03,32,04,25,17,10,19,12,0.77,0.43,0.64,1*00
$GNGSA,A,3,65,81,75,88,74,82,,,,,,,0.77,0.43,0.64,2*06
$GNGSA,A,3,06,04,09,36,11,10,21,34,19,12,,,0.77,0.43,0.64,3*06
$GNGSA,A,3,32,41,23,25,29,30,20,40,,,,,0.77,0.43,0.64,4*0D
$GPGSV,4,1,13,28,58,096,42,02,51,240,41,31,47,160,42,21,44,214,41,1*69
$GPGSV,4,2,13,03,42,300,39,32,34,065,41,44,33,171,39,04,15,247,35,1*66
$GPGSV,4,3,13,25,14,060,33,17,12,310,34,10,11,115,39,19,07,334,34,1*67
$GPGSV,4,4,13,12,06,025,35,1*52
$GLGSV,2,1,07,65,67,024,32,81,46,288,31,66,43,285,,75,34,101,36,1*7A
$GLGSV,2,2,07,88,30,217,25,74,26,038,31,82,19,336,29,1*4E
$GAGSV,3,1,10,06,80,253,42,04,71,059,41,09,54,248,40,36,53,287,38,7*70
$GAGSV,3,2,10,11,49,197,36,10,26,176,35,21,13,052,35,34,12,325,33,7*77
$GAGSV,3,3,10,19,12,064,24,12,06,164,20,7*79
$GBGSV,3,1,12,32,79,329,38,58,77,074,,41,37,085,35,23,32,128,34,1*73
$GBGSV,3,2,12,25,31,065,35,29,26,298,29,30,26,237,30,20,25,278,32,1*78
$GBGSV,3,3,12,40,13,305,31,48,06,275,19,07,03,314,22,27,03,195,14,1*79
$GNRMC,184523.000,A,4910.425552,N,12304.400610,W,0.01,0.00,091024,,,D,V*11
$GNVTG,0.00,T,,M,0.01,N,0.02,K,D*25
$GNGGA,184524.000,4910.425498,N,12304.400568,W,2,36,0.43,3.448,M,-16.816,M,,*40
$GNGLL,4910.425498,N,12304.400568,W,184524.000,A,D*5F
$GNGSA,A,3,28,02,31,21,03,32,04,25,17,10,19,12,0.77,0.43,0.64,1*00
$GNGSA,A,3,65,81,75,88,74,82,,,,,,,0.77,0.43,0.64,2*06
$GNGSA,A,3,06,04,09,36,11,10,21,34,19,12,,,0.77,0.43,0.64,3*06
$GNGSA,A,3,32,41,23,25,29,30,20,40,,,,,0.77,0.43,0.64,4*0D
$GPGSV,4,1,13,28,58,096,42,02,51,240,41,31,47,160,42,21,44,214,41,1*69
$GPGSV,4,2,13,03,42,300,39,32,34,065,41,44,33,171,39,04,15,247,35,1*66
$GPGSV,4,3,13,25,14,060,33,17,12,310,34,10,11,115,39,19,07,334,34,1*67
$GPGSV,4,4,13,12,06,025,35,1*52
$GLGSV,2,1,07,65,67,024,32,81,46,288,31,66,43,285,,75,34,101,36,1*7A
$GLGSV,2,2,07,88,30,217,25,74,26,038,31,82,19,336,29,1*4E
$GAGSV,3,1,10,06,80,253,42,04,71,059,41,09,54,248,40,36,53,287,38,7*70
$GAGSV,3,2,10,11,49,197,36,10,26,176,35,21,13,052,35,34,12,325,33,7*77
$GAGSV,3,3,10,19,12,064,24,12,06,164,19,7*73
$GBGSV,3,1,12,32,79,329,38,58,77,074,,41,37,085,35,23,32,128,34,1*73
$GBGSV,3,2,12,25,31,065,35,29,26,298,29,30,26,237,30,20,25,278,32,1*78
$GBGSV,3,3,12,40,13,305,31,48,06,275,18,07,03,314,22,27,03,195,14,1*78
$GNRMC,184524.000,A,4910.425498,N,12304.400568,W,0.01,0.00,091024,,,D,V*1D
$GNVTG,0.00,T,,M,0.01,N,0.01,K,D*26
$GNGGA,184525.000,4910.425408,N,12304.400478,W,2,36,0.43,3.444,M,-16.816,M,,*44
$GNGLL,4910.425408,N,12304.400478,W,184525.000,A,D*57
$GNGSA,A,3,28,02,31,21,03,32,04,25,17,10,19,12,0.77,0.43,0.64,1*00
$GNGSA,A,3,65,81,75,88,74,82,,,,,,,0.77,0.43,0.64,2*06
$GNGSA,A,3,06,04,09,36,11,10,21,34,19,12,,,0.77,0.43,0.64,3*06
$GNGSA,A,3,32,41,23,25,29,30,20,40,,,,,0.77,0.43,0.64,4*0D
$GPGSV,4,1,13,28,58,096,42,02,51,240,41,31,47,160,42,21,44,214,41,1*69
$GPGSV,4,2,13,03,42,300,39,32,34,065,41,44,33,171,39,04,15,247,35,1*66
$GPGSV,4,3,13,25,14,060,33,17,12,310,34,10,11,115,39,19,07,334,34,1*67
$GPGSV,4,4,13,12,06,025,35,1*52
$GLGSV,2,1,07,65,67,024,32,81,46,285,31,66,43,285,,75,34,101,36,1*77
$GLGSV,2,2,07,88,30,217,25,74,26,038,31,82,19,336,29,1*4E
$GAGSV,3,1,10,06,80,253,42,04,71,059,41,09,54,248,40,36,53,287,38,7*70
$GAGSV,3,2,10,11,49,197,36,10,26,176,35,21,13,052,35,34,12,325,33,7*77
$GAGSV,3,3,10,19,12,064,24,12,06,164,19,7*73
$GBGSV,3,1,12,32,79,329,39,58,77,074,,41,37,085,35,23,32,128,34,1*72
$GBGSV,3,2,12,25,31,065,35,29,26,298,30,30,26,237,30,20,25,278,32,1*70
$GBGSV,3,3,12,40,13,305,31,48,06,275,18,07,03,314,22,27,03,195,15,1*79
$GNRMC,184525.000,A,4910.425408,N,12304.400478,W,0.01,0.00,091024,,,D,V*15
$GNVTG,0.00,T,,M,0.01,N,0.02,K,D*25
$GNGGA,184526.000,4910.425300,N,12304.400370,W,2,36,0.43,3.348,M,-16.816,M,,*4C
$GNGLL,4910.425300,N,12304.400370,W,184526.000,A,D*54
$GNGSA,A,3,28,02,31,21,03,32,04,25,17,10,19,12,0.77,0.43,0.64,1*00
$GNGSA,A,3,65,81,75,88,74,82,,,,,,,0.77,0.43,0.64,2*06
$GNGSA,A,3,06,04,09,36,11,10,21,34,19,12,,,0.77,0.43,0.64,3*06
$GNGSA,A,3,32,41,23,25,29,30,20,40,,,,,0.77,0.43,0.64,4*0D
$GPGSV,4,1,13,28,58,096,42,02,51,240,41,31,47,160,42,21,44,214,41,1*69
$GPGSV,4,2,13,03,42,300,39,32,34,065,41,44,33,171,39,04,15,247,35,1*66
$GPGSV,4,3,13,25,14,060,33,17,12,310,34,10,11,115,39,19,07,334,34,1*67
$GPGSV,4,4,13,12,06,025,35,1*52
$GLGSV,2,1,07,65,67,024,33,81,46,285,31,66,43,285,,75,34,101,36,1*76
$GLGSV,2,2,07,88,30,217,26,74,26,038,31,82,19,335,29,1*4E
$GAGSV,3,1,10,06,80,253,42,04,71,059,41,09,54,248,40,36,53,287,38,7*70
$GAGSV,3,2,10,11,49,197,36,10,26,176,35,21,13,052,35,34,12,325,33,7*77
$GAGSV,3,3,10,19,12,064,24,12,06,164,19,7*73
$GBGSV,3,1,12,32,79,329,39,58,77,074,,41,37,085,35,23,32,128,34,1*72
$GBGSV,3,2,12,25,31,065,35,29,26,298,30,30,26,237,31,20,25,278,32,1*71
$GBGSV,3,3,12,40,13,305,31,48,06,275,18,07,03,314,22,27,03,195,15,1*79
$GNRMC,184526.000,A,4910.425300,N,12304.400370,W,0.01,0.00,091024,,,D,V*16
$GNVTG,0.00,T,,M,0.01,N,0.02,K,D*25
$GNGGA,184527.000,4910.425270,N,12304.400310,W,2,36,0.43,3.334,M,-16.817,M,,*47
$GNGLL,4910.425270,N,12304.400310,W,184527.000,A,D*55
$GNGSA,A,3,28,02,31,21,03,32,04,25,17,10,19,12,0.77,0.43,0.64,1*00
$GNGSA,A,3,65,81,75,88,74,82,,,,,,,0.77,0.43,0.64,2*06
$GNGSA,A,3,06,04,09,36,11,10,21,34,19,12,,,0.77,0.43,0.64,3*06
$GNGSA,A,3,32,41,23,25,29,30,20,40,,,,,0.77,0.43,0.64,4*0D
$GPGSV,4,1,13,28,58,096,42,02,51,240,41,31,47,160,42,21,44,214,41,1*69
$GPGSV,4,2,13,03,42,300,39,32,34,065,41,44,33,171,39,04,15,247,35,1*66
$GPGSV,4,3,13,25,14,060,33,17,12,310,34,10,11,115,39,19,07,334,34,1*67
$GPGSV,4,4,13,12,06,025,35,1*52
$GLGSV,2,1,07,65,67,024,33,81,46,285,30,66,43,285,,75,34,101,36,1*77
$GLGSV,2,2,07,88,30,217,26,74,26,038,31,82,19,335,29,1*4E
