$GNGGA,185116.000,4910.427766,N,12304.403490,W,2,35,0.45,5.463,M,-16.816,M,,*4B
$GNGLL,4910.427766,N,12304.403490,W,185116.000,A,D*5E
$GNGSA,A,3,28,02,31,03,21,32,04,25,17,10,19,12,0.82,0.45,0.68,1*00
$GNGSA,A,3,65,81,75,88,74,82,,,,,,,0.82,0.45,0.68,2*06
$GNGSA,A,3,06,04,09,36,11,10,34,21,19,,,,0.82,0.45,0.68,3*05
$GNGSA,A,3,32,41,23,25,20,29,30,40,,,,,0.82,0.45,0.68,4*0D
$GPGSV,4,1,13,28,58,091,42,02,50,237,42,31,50,158,43,03,44,300,41,1*64
$GPGSV,4,2,13,21,42,212,42,44,33,171,40,32,32,066,41,04,17,249,37,1*6D
$GPGSV,4,3,13,25,14,058,34,17,12,308,36,10,09,117,39,19,07,332,37,1*6E
$GPGSV,4,4,13,12,05,023,36,1*54
$GLGSV,2,1,07,65,66,031,35,81,45,281,32,66,45,288,,75,36,098,36,1*79
$GLGSV,2,2,07,88,26,215,29,74,25,036,31,82,21,333,37,1*4B
$GAGSV,3,1,10,06,82,260,42,04,69,059,42,09,56,250,42,36,54,284,39,7*74
$GAGSV,3,2,10,11,46,197,36,10,24,176,36,34,14,325,34,21,13,051,33,7*7D
$GAGSV,3,3,10,19,11,065,22,12,04,165,19,7*74
$GBGSV,3,1,12,32,80,341,37,58,75,068,,41,35,087,30,23,34,126,33,1*71
$GBGSV,3,2,12,25,31,062,32,20,27,279,31,29,26,296,33,30,24,236,31,1*7F
$GBGSV,3,3,12,40,12,304,27,48,07,276,19,07,02,313,19,27,01,194,16,1*73
$GNRMC,185116.000,A,4910.427766,N,12304.403490,W,0.02,0.00,091024,,,D,V*1F
$GNVTG,0.00,T,,M,0.02,N,0.03,K,D*27
$GNGGA,185117.000,4910.427802,N,12304.403430,W,2,35,0.45,5.585,M,-16.816,M,,*44
$GNGLL,4910.427802,N,12304.403430,W,185117.000,A,D*58
$GNGSA,A,3,28,02,31,03,21,32,04,25,17,10,19,12,0.82,0.45,0.68,1*00
$GNGSA,A,3,65,81,75,88,74,82,,,,,,,0.82,0.45,0.68,2*06
$GNGSA,A,3,06,04,09,36,11,10,34,21,19,,,,0.82,0.45,0.68,3*05
$GNGSA,A,3,32,41,23,25,20,29,30,40,,,,,0.82,0.45,0.68,4*0D
$GPGSV,4,1,13,28,58,091,42,02,50,237,42,31,50,158,43,03,44,300,41,1*64
$GPGSV,4,2,13,21,42,212,42,44,33,171,40,32,32,066,41,04,17,249,37,1*6D
$GPGSV,4,3,13,25,14,058,34,17,12,308,36,10,09,117,39,19,07,332,37,1*6E
$GPGSV,4,4,13,12,05,023,36,1*54
$GLGSV,2,1,07,65,66,031,35,81,45,281,32,66,45,288,,75,36,098,36,1*79
$GLGSV,2,2,07,88,26,215,29,74,25,036,31,82,21,333,37,1*4B
$GAGSV,3,1,10,06,82,260,42,04,69,059,42,09,56,250,42,36,54,284,39,7*74
$GAGSV,3,2,10,11,46,197,36,10,24,176,36,34,14,325,34,21,13,051,33,7*7D
$GAGSV,3,3,10,19,11,065,22,12,04,165,19,7*74
$GBGSV,3,1,12,32,80,341,37,58,75,068,,41,35,087,30,23,34,126,33,1*71
$GBGSV,3,2,12,25,31,062,32,20,27,279,31,29,26,296,33,30,24,236,31,1*7F
$GBGSV,3,3,12,40,12,304,27,48,07,276,19,07,02,313,20,27,01,194,16,1*79
$GNRMC,185117.000,A,4910.427802,N,12304.403430,W,0.02,0.00,091024,,,D,V*19
$GNVTG,0.00,T,,M,0.02,N,0.03,K,D*27
$GNGGA,185118.000,4910.427784,N,12304.403364,W,2,35,0.45,5.672,M,-16.816,M,,*47
$GNGLL,4910.427784,N,12304.403364,W,185118.000,A,D*50
$GNGSA,A,3,28,02,31,03,21,32,04,25,17,10,19,12,0.82,0.45,0.68,1*00
$GNGSA,A,3,65,81,75,88,74,82,,,,,,,0.82,0.45,0.68,2*06
$GNGSA,A,3,06,04,09,36,11,10,34,21,19,,,,0.82,0.45,0.68,3*05
$GNGSA,A,3,32,41,23,25,20,29,30,40,,,,,0.82,0.45,0.68,4*0D
$GPGSV,4,1,13,28,58,091,42,02,50,237,42,31,50,158,43,03,44,300,41,1*64
$GPGSV,4,2,13,21,42,212,42,44,33,171,40,32,32,066,41,04,17,249,37,1*6D
$GPGSV,4,3,13,25,14,058,34,17,12,308,36,10,09,117,39,19,07,332,36,1*6F
$GPGSV,4,4,13,12,05,023,36,1*54
$GLGSV,2,1,07,65,66,031,35,81,45,281,32,66,45,288,,75,36,098,36,1*79
$GLGSV,2,2,07,88,26,215,29,74,25,036,31,82,21,333,37,1*4B
$GAGSV,3,1,10,06,82,260,42,04,69,059,42,09,56,250,42,36,54,284,39,7*74
$GAGSV,3,2,10,11,46,197,36,10,24,176,36,34,14,325,34,21,13,051,33,7*7D
$GAGSV,3,3,10,19,11,065,21,12,04,165,19,7*77
$GBGSV,3,1,12,32,80,341,38,58,75,068,,41,35,087,30,23,34,126,33,1*7E
$GBGSV,3,2,12,25,31,062,32,20,27,279,31,29,26,296,33,30,24,236,31,1*7F
$GBGSV,3,3,12,40,12,304,27,48,07,276,19,07,02,313,19,27,01,194,16,1*73
$GNRMC,185118.000,A,4910.427784,N,12304.403364,W,0.02,0.00,091024,,,D,V*11
$GNVTG,0.00,T,,M,0.02,N,0.03,K,D*27
$GNGGA,185119.000,4910.427808,N,12304.403286,W,2,35,0.45,5.750,M,-16.816,M,,*41
$GNGLL,4910.427808,N,12304.403286,W,185119.000,A,D*57
$GNGSA,A,3,28,02,31,03,21,32,04,25,17,10,19,12,0.82,0.45,0.68,1*00
$GNGSA,A,3,65,81,75,88,74,82,,,,,,,0.82,0.45,0.68,2*06
$GNGSA,A,3,06,04,09,36,11,10,34,21,19,,,,0.82,0.45,0.68,3*05
$GNGSA,A,3,32,41,23,25,20,29,30,40,,,,,0.82,0.45,0.68,4*0D
$GPGSV,4,1,13,28,58,091,42,02,50,237,42,31,50,158,43,03,44,300,41,1*64
$GPGSV,4,2,13,21,42,212,42,44,33,171,40,32,32,066,41,04,17,249,37,1*6D
$GPGSV,4,3,13,25,14,058,34,17,12,308,36,10,09,117,39,19,07,332,36,1*6F
$GPGSV,4,4,13,12,05,023,36,1*54
$GLGSV,2,1,07,65,66,031,35,81,45,281,32,66,45,288,,75,36,098,36,1*79
$GLGSV,2,2,07,88,26,215,29,74,25,036,31,82,21,333,37,1*4B
$GAGSV,3,1,10,06,82,260,42,04,69,059,42,09,56,250,42,36,54,284,39,7*74
$GAGSV,3,2,10,11,46,197,36,10,24,176,36,34,14,325,34,21,13,051,33,7*7D
$GAGSV,3,3,10,19,11,065,21,12,04,165,19,7*77
$GBGSV,3,1,12,32,80,341,38,58,75,068,,41,35,087,30,23,34,126,33,1*7E
$GBGSV,3,2,12,25,31,062,32,20,27,279,31,29,26,296,33,30,24,236,31,1*7F
$GBGSV,3,3,12,40,12,304,27,48,07,276,19,07,02,313,19,27,01,194,15,1*70
$GNRMC,185119.000,A,4910.427808,N,12304.403286,W,0.02,0.00,091024,,,D,V*16
$GNVTG,0.00,T,,M,0.02,N,0.03,K,D*27
$GNGGA,185120.000,4910.427802,N,12304.403190,W,2,35,0.45,5.738,M,-16.816,M,,*4B
$GNGLL,4910.427802,N,12304.403190,W,185120.000,A,D*53
$GNGSA,A,3,28,02,31,03,21,32,04,25,17,10,19,12,0.82,0.45,0.68,1*00
$GNGSA,A,3,65,81,75,88,74,82,,,,,,,0.82,0.45,0.68,2*06
$GNGSA,A,3,06,04,09,36,11,10,34,21,19,,,,0.82,0.45,0.68,3*05
$GNGSA,A,3,32,41,23,25,20,29,30,40,,,,,0.82,0.45,0.68,4*0D
$GPGSV,4,1,13,28,58,091,42,02,50,237,42,31,50,158,43,03,44,300,41,1*64
$GPGSV,4,2,13,21,42,212,42,44,33,171,40,32,32,066,41,04,17,249,37,1*6D
$GPGSV,4,3,13,25,14,058,34,17,12,308,36,10,09,117,39,19,07,332,36,1*6F
$GPGSV,4,4,13,12,05,023,36,1*54
$GLGSV,2,1,07,65,66,031,35,81,45,281,31,66,45,288,,75,36,098,36,1*7A
$GLGSV,2,2,07,88,26,215,29,74,25,036,31,82,21,333,37,1*4B
$GAGSV,3,1,10,06,82,260,42,04,69,059,42,09,56,250,42,36,54,284,39,7*74
$GAGSV,3,2,10,11,46,197,36,10,24,176,36,34,14,325,34,21,13,051,33,7*7D
$GAGSV,3,3,10,19,11,065,21,12,04,165,19,7*77
$GBGSV,3,1,12,32,80,341,38,58,75,068,,41,35,087,30,23,34,126,33,1*7E
$GBGSV,3,2,12,25,31,062,32,20,27,279,31,29,26,296,33,30,24,236,31,1*7F
$GBGSV,3,3,12,40,12,304,25,48,07,276,19,07,02,313,18,27,01,194,13,1*75
$GNRMC,185120.000,A,4910.427802,N,12304.403190,W,0.01,0.00,091024,,,D,V*11
$GNVTG,0.00,T,,M,0.01,N,0.03,K,D*24
$GNGGA,185121.000,4910.427766,N,12304.403136,W,2,35,0.45,5.828,M,-16.816,M,,*45
$GNGLL,4910.427766,N,12304.403136,W,185121.000,A,D*53
$GNGSA,A,3,28,02,31,03,21,32,04,25,17,10,19,12,0.82,0.45,0.68,1*00
$GNGSA,A,3,65,81,75,88,74,82,,,,,,,0.82,0.45,0.68,2*06
$GNGSA,A,3,06,04,09,36,11,10,34,21,19,,,,0.82,0.45,0.68,3*05
$GNGSA,A,3,32,41,23,25,20,29,30,40,,,,,0.82,0.45,0.68,4*0D
$GPGSV,4,1,13,28,58,091,42,02,50,237,42,31,50,158,43,03,44,300,41,1*64
$GPGSV,4,2,13,21,42,212,42,44,33,171,40,32,32,066,41,04,17,249,37,1*6D
$GPGSV,4,3,13,25,14,058,34,17,12,308,36,10,09,117,39,19,07,332,36,1*6F
$GPGSV,4,4,13,12,05,023,36,1*54
$GLGSV,2,1,07,65,66,031,35,81,45,281,31,66,45,288,,75,36,098,36,1*7A
$GLGSV,2,2,07,88,26,215,29,74,25,036,31,82,21,333,37,1*4B
$GAGSV,3,1,10,06,82,260,42,04,69,059,42,09,56,250,42,36,54,284,39,7*74
$GAGSV,3,2,10,11,46,197,36,10,24,176,36,34,14,325,34,21,13,051,33,7*7D
$GAGSV,3,3,10,19,11,065,21,12,04,165,19,7*77
$GBGSV,3,1,12,32,80,341,38,58,75,068,,41,35,087,30,23,34,126,33,1*7E
$GBGSV,3,2,12,25,31,062,32,20,27,279,31,29,26,296,33,30,24,236,31,1*7F
$GBGSV,3,3,12,40,12,304,26,48,07,276,19,07,02,313,18,27,01,194,14,1*71
$GNRMC,185121.000,A,4910.427766,N,12304.403136,W,0.02,0.00,091024,,,D,V*12
$GNVTG,0.00,T,,M,0.02,N,0.03,K,D*27
$GNGGA,185122.000,4910.427790,N,12304.403088,W,2,35,0.45,5.878,M,-16.816,M,,*4E
$GNGLL,4910.427790,N,12304.403088,W,185122.000,A,D*5D
$GNGSA,A,3,28,02,31,03,21,32,04,25,17,10,19,12,0.82,0.45,0.68,1*00
$GNGSA,A,3,65,81,75,88,74,82,,,,,,,0.82,0.45,0.68,2*06
$GNGSA,A,3,06,04,09,36,11,10,34,21,19,,,,0.82,0.45,0.68,3*05
$GNGSA,A,3,32,41,23,25,20,29,30,40,,,,,0.82,0.45,0.68,4*0D
$GPGSV,4,1,13,28,58,091,42,02,50,237,42,31,50,158,43,03,44,300,41,1*64
$GPGSV,4,2,13,21,42,212,42,44,33,171,40,32,32,066,41,04,17,249,37,1*6D
$GPGSV,4,3,13,25,14,058,34,17,12,308,36,10,09,117,39,19,07,332,36,1*6F
$GPGSV,4,4,13,12,05,023,36,1*54
$GLGSV,2,1,07,65,66,031,35,81,45,281,31,66,45,288,,75,36,098,36,1*7A
$GLGSV,2,2,07,88,26,215,29,74,25,036,31,82,21,333,37,1*4B
$GAGSV,3,1,10,06,82,260,42,04,69,059,42,09,56,250,42,36,54,284,39,7*74
$GAGSV,3,2,10,11,46,197,36,10,24,176,36,34,14,325,34,21,13,051,32,7*7C
$GAGSV,3,3,10,19,11,065,21,12,04,165,19,7*77
$GBGSV,3,1,12,32,80,341,38,58,75,068,,41,35,087,30,23,34,126,33,1*7E
$GBGSV,3,2,12,25,31,062,32,20,27,279,31,29,26,296,33,30,24,236,31,1*7F
$GBGSV,3,3,12,40,12,304,27,48,07,276,19,07,02,313,20,27,01,194,15,1*7A
$GNRMC,185122.000,A,4910.427790,N,12304.403088,W,0.02,0.00,091024,,,D,V*1C
$GNVTG,0.00,T,,M,0.02,N,0.03,K,D*27
$GNGGA,185123.000,4910.427850,N,12304.403046,W,2,35,0.45,5.966,M,-16.816,M,,*40
$GNGLL,4910.427850,N,12304.403046,W,185123.000,A,D*5D
$GNGSA,A,3,28,02,31,03,21,32,04,25,17,10,19,12,0.82,0.45,0.68,1*00
$GNGSA,A,3,65,81,75,88,74,82,,,,,,,0.82,0.45,0.68,2*06
$GNGSA,A,3,06,04,09,36,11,10,34,21,19,,,,0.82,0.45,0.68,3*05
$GNGSA,A,3,32,41,23,25,20,29,30,40,,,,,0.82,0.45,0.68,4*0D
$GPGSV,4,1,13,28,58,091,42,02,50,237,42,31,50,158,43,03,44,300,41,1*64
$GPGSV,4,2,13,21,42,212,42,44,33,171,40,32,32,066,41,04,17,249,37,1*6D
$GPGSV,4,3,13,25,14,058,34,17,12,308,36,10,09,117,39,19,07,332,36,1*6F
$GPGSV,4,4,13,12,05,023,36,1*54
$GLGSV,2,1,07,65,66,031,35,81,45,281,31,66,45,288,,75,36,098,36,1*7A
$GLGSV,2,2,07,88,26,215,29,74,25,036,32,82,21,333,37,1*48
$GAGSV,3,1,10,06,82,260,42,04,69,059,42,09,56,250,42,36,54,284,39,7*74
$GAGSV,3,2,10,11,46,197,36,10,24,176,36,34,14,325,34,21,13,051,32,7*7C
$GAGSV,3,3,10,19,11,065,21,12,04,165,19,7*77
$GBGSV,3,1,12,32,80,341,38,58,75,068,,41,35,087,30,23,34,126,33,1*7E
$GBGSV,3,2,12,25,31,062,32,20,27,279,31,29,26,296,33,30,24,236,31,1*7F
$GBGSV,3,3,12,40,12,304,25,48,07,276,19,07,02,313,19,27,01,194,17,1*70
$GNRMC,185123.000,A,4910.427850,N,12304.403046,W,0.02,0.00,091024,,,D,V*1C
$GNVTG,0.00,T,,M,0.02,N,0.03,K,D*27
$GNGGA,185124.000,4910.427964,N,12304.403016,W,2,35,0.45,6.024,M,-16.816,M,,*48
$GNGLL,4910.427964,N,12304.403016,W,185124.000,A,D*59
$GNGSA,A,3,28,02,31,03,21,32,04,25,17,10,19,12,0.82,0.45,0.68,1*00
$GNGSA,A,3,65,81,75,88,74,82,,,,,,,0.82,0.45,0.68,2*06
$GNGSA,A,3,06,04,09,36,11,10,34,21,19,,,,0.82,0.45,0.68,3*05
$GNGSA,A,3,32,41,23,25,20,29,30,40,,,,,0.82,0.45,0.68,4*0D
$GPGSV,4,1,13,28,58,091,42,02,50,237,42,31,50,158,43,03,44,300,41,1*64
$GPGSV,4,2,13,21,42,212,42,44,33,171,40,32,32,066,41,04,17,249,37,1*6D
$GPGSV,4,3,13,25,14,058,34,17,12,308,36,10,09,117,39,19,07,332,36,1*6F
$GPGSV,4,4,13,12,05,023,36,1*54
$GLGSV,2,1,07,65,66,031,35,81,45,281,31,66,45,288,,75,36,098,36,1*7A
$GLGSV,2,2,07,88,26,215,29,74,25,036,32,82,21,333,37,1*48
$GAGSV,3,1,10,06,82,260,42,04,69,059,42,09,56,250,42,36,54,284,39,7*74
$GAGSV,3,2,10,11,46,197,36,10,24,176,36,34,14,325,34,21,13,051,32,7*7C
$GAGSV,3,3,10,19,11,065,22,12,04,165,19,7*74
$GBGSV,3,1,12,32,80,341,38,58,75,068,,41,35,087,30,23,34,126,33,1*7E
$GBGSV,3,2,12,25,31,062,32,20,27,279,31,29,26,296,33,30,24,236,31,1*7F
$GBGSV,3,3,12,40,12,304,25,48,07,276,19,07,02,313,19,27,01,194,17,1*70
$GNRMC,185124.000,A,4910.427964,N,12304.403016,W,0.02,0.00,091024,,,D,V*18
$GNVTG,0.00,T,,M,0.02,N,0.04,K,D*20
$GNGGA,185125.000,4910.428036,N,12304.403022,W,2,35,0.45,6.140,M,-16.817,M,,*4D
$GNGLL,4910.428036,N,12304.403022,W,185125.000,A,D*5E
$GNGSA,A,3,28,02,31,03,21,32,04,25,17,10,19,12,0.82,0.45,0.68,1*00
$GNGSA,A,3,65,81,75,88,74,82,,,,,,,0.82,0.45,0.68,2*06
$GNGSA,A,3,06,04,09,36,11,10,34,21,19,,,,0.82,0.45,0.68,3*05
$GNGSA,A,3,32,41,23,25,20,29,30,40,,,,,0.82,0.45,0.68,4*0D
$GPGSV,4,1,13,28,58,091,42,02,50,237,42,31,50,158,43,03,44,300,41,1*64
$GPGSV,4,2,13,21,42,212,42,44,33,171,40,32,32,066,41,04,17,249,37,1*6D
$GPGSV,4,3,13,25,14,058,34,17,12,308,36,10,09,117,39,19,07,332,36,1*6F
$GPGSV,4,4,13,12,05,023,36,1*54
$GLGSV,2,1,07,65,66,031,35,81,45,281,31,66,45,288,,75,36,098,36,1*7A
$GLGSV,2,2,07,88,26,215,29,74,25,036,32,82,21,333,37,1*48
$GAGSV,3,1,10,06,82,260,42,04,69,059,42,09,56,250,42,36,54,284,39,7*74
$GAGSV,3,2,10,11,46,197,36,10,24,176,36,34,14,325,34,21,13,051,32,7*7C
$GAGSV,3,3,10,19,11,065,23,12,04,165,19,7*75
$GBGSV,3,1,12,32,80,341,38,58,75,068,,41,35,087,30,23,34,126,33,1*7E
$GBGSV,3,2,12,25,31,062,32,20,27,279,31,29,26,296,33,30,24,236,31,1*7F
$GBGSV,3,3,12,40,12,304,26,48,07,276,19,07,02,313,21,27,01,194,17,1*78
$GNRMC,185125.000,A,4910.428036,N,12304.403022,W,0.02,0.00,091024,,,D,V*1F
$GNVTG,0.00,T,,M,0.02,N,0.04,K,D*20
$GNGGA,185126.000,4910.428132,N,12304.402974,W,2,35,0.45,6.162,M,-16.816,M,,*41
$GNGLL,4910.428132,N,12304.402974,W,185126.000,A,D*53
$GNGSA,A,3,28,02,31,03,21,32,04,25,17,10,19,12,0.82,0.45,0.68,1*00
$GNGSA,A,3,65,81,75,88,74,82,,,,,,,0.82,0.45,0.68,2*06
$GNGSA,A,3,06,04,09,36,11,10,34,21,19,,,,0.82,0.45,0.68,3*05
$GNGSA,A,3,32,41,23,25,20,29,30,40,,,,,0.82,0.45,0.68,4*0D
$GPGSV,4,1,13,28,58,091,42,02,50,237,42,31,50,158,43,03,44,300,41,1*64
$GPGSV,4,2,13,21,42,212,42,44,33,171,40,32,32,066,41,04,17,249,37,1*6D
$GPGSV,4,3,13,25,14,058,34,17,12,308,36,10,09,117,39,19,07,332,36,1*6F
$GPGSV,4,4,13,12,05,023,36,1*54
$GLGSV,2,1,07,65,66,031,35,81,45,281,31,66,45,288,,75,36,098,35,1*79
$GLGSV,2,2,07,88,26,215,29,74,25,036,32,82,21,333,37,1*48
$GAGSV,3,1,10,06,82,260,42,04,69,059,42,09,56,250,42,36,54,284,39,7*74
$GAGSV,3,2,10,11,46,197,36,10,24,176,36,34,14,325,34,21,13,051,32,7*7C
$GAGSV,3,3,10,19,11,065,23,12,04,165,19,7*75
$GBGSV,3,1,12,32,80,341,38,58,75,068,,41,35,087,30,23,34,126,33,1*7E
$GBGSV,3,2,12,25,31,062,32,20,28,280,31,29,26,296,33,30,24,236,31,1*76
$GBGSV,3,3,12,40,12,304,25,48,07,276,19,07,02,313,20,27,01,194,17,1*7A
$GNRMC,185126.000,A,4910.428132,N,12304.402974,W,0.02,0.00,091024,,,D,V*12
$GNVTG,0.00,T,,M,0.02,N,0.04,K,D*20
$GNGGA,185127.000,4910.428162,N,12304.402854,W,2,35,0.45,6.253,M,-16.816,M,,*47
$GNGLL,4910.428162,N,12304.402854,W,185127.000,A,D*54
$GNGSA,A,3,28,02,31,03,21,32,04,25,17,10,19,12,0.82,0.45,0.68,1*00
$GNGSA,A,3,65,81,75,88,74,82,,,,,,,0.82,0.45,0.68,2*06
$GNGSA,A,3,06,04,09,36,11,10,34,21,19,,,,0.82,0.45,0.68,3*05
$GNGSA,A,3,32,41,23,25,20,29,30,40,,,,,0.82,0.45,0.68,4*0D
$GPGSV,4,1,13,28,58,091,42,02,50,237,42,31,50,158,43,03,44,300,41,1*64
$GPGSV,4,2,13,21,42,212,42,44,33,171,40,32,32,066,41,04,17,249,37,1*6D
$GPGSV,4,3,13,25,14,058,34,17,12,308,36,10,09,117,39,19,07,332,36,1*6F
$GPGSV,4,4,13,12,05,023,36,1*54
$GLGSV,2,1,07,65,66,031,35,81,45,281,31,66,45,288,,75,36,098,35,1*79
$GLGSV,2,2,07,88,26,215,29,74,25,036,32,82,21,333,37,1*48
$GAGSV,3,1,10,06,82,260,42,04,69,059,42,09,56,250,42,36,54,284,39,7*74
$GAGSV,3,2,10,11,46,197,36,10,24,176,36,34,14,325,34,21,13,051,32,7*7C
$GAGSV,3,3,10,19,11,065,23,12,04,165,19,7*75
$GBGSV,3,1,12,32,80,341,38,58,75,068,,41,35,087,30,23,34,126,33,1*7E
$GBGSV,3,2,12,25,31,062,32,20,28,280,31,29,26,296,33,30,24,236,31,1*76
$GBGSV,3,3,12,40,12,304,26,48,07,276,19,07,02,313,20,27,01,194,17,1*79
$GNRMC,185127.000,A,4910.428162,N,12304.402854,W,0.02,0.00,091024,,,D,V*15
$GNVTG,0.00,T,,M,0.02,N,0.04,K,D*20
$GNGGA,185128.000,4910.428222,N,12304.402764,W,2,35,0.45,6.359,M,-16.816,M,,*48
$GNGLL,4910.428222,N,12304.402764,W,185128.000,A,D*50
$GNGSA,A,3,28,02,31,03,21,32,04,25,17,10,19,12,0.82,0.45,0.68,1*00
$GNGSA,A,3,65,81,75,88,74,82,,,,,,,0.82,0.45,0.68,2*06
$GNGSA,A,3,06,04,09,36,11,10,34,21,19,,,,0.82,0.45,0.68,3*05
$GNGSA,A,3,32,41,23,25,20,29,30,40,,,,,0.82,0.45,0.68,4*0D
$GPGSV,4,1,13,28,58,091,42,02,50,237,42,31,50,158,43,03,44,300,41,1*64
$GPGSV,4,2,13,21,42,212,42,44,33,171,40,32,32,066,41,04,17,249,37,1*6D
$GPGSV,4,3,13,25,14,058,34,17,12,308,36,10,09,117,39,19,07,332,36,1*6F
$GPGSV,4,4,13,12,05,023,36,1*54
$GLGSV,2,1,07,65,66,031,35,81,45,281,31,66,45,288,,75,36,098,34,1*78
$GLGSV,2,2,07,88,26,215,29,74,25,036,32,82,21,333,37,1*48
$GAGSV,3,1,10,06,82,260,42,04,69,059,42,09,56,250,42,36,54,284,39,7*74
$GAGSV,3,2,10,11,46,197,36,10,24,176,36,34,14,325,34,21,13,051,32,7*7C
$GAGSV,3,3,10,19,11,065,23,12,04,165,19,7*75
$GBGSV,3,1,12,32,80,341,38,58,75,068,,41,35,087,30,23,34,126,33,1*7E
$GBGSV,3,2,12,25,31,062,32,20,28,280,31,29,26,296,33,30,24,236,30,1*77
$GBGSV,3,3,12,40,12,304,26,48,07,276,19,07,02,313,19,27,01,194,17,1*73
$GNRMC,185128.000,A,4910.428222,N,12304.402764,W,0.02,0.00,091024,,,D,V*11
$GNVTG,0.00,T,,M,0.02,N,0.03,K,D*27
$GNGGA,185129.000,4910.428276,N,12304.402644,W,2,35,0.45,6.464,M,-16.817,M,,*43
$GNGLL,4910.428276,N,12304.402644,W,185129.000,A,D*53
$GNGSA,A,3,28,02,31,03,21,32,04,25,17,10,19,12,0.82,0.45,0.68,1*00
$GNGSA,A,3,65,81,75,88,74,82,,,,,,,0.82,0.45,0.68,2*06
$GNGSA,A,3,06,04,09,36,11,10,34,21,19,,,,0.82,0.45,0.68,3*05
$GNGSA,A,3,32,23,41,25,20,29,30,40,,,,,0.82,0.45,0.68,4*0D
$GPGSV,4,1,13,28,58,091,42,02,50,237,42,31,50,158,43,03,44,300,41,1*64
$GPGSV,4,2,13,21,42,212,42,44,33,171,40,32,32,066,41,04,17,249,37,1*6D
$GPGSV,4,3,13,25,14,058,34,17,12,308,36,10,09,117,39,19,07,332,36,1*6F
$GPGSV,4,4,13,12,05,023,36,1*54
$GLGSV,2,1,07,65,66,031,34,81,45,281,31,66,45,288,,75,36,098,34,1*79
$GLGSV,2,2,07,88,26,215,30,74,25,036,31,82,21,333,37,1*43
$GAGSV,3,1,10,06,82,260,42,04,69,059,42,09,56,250,42,36,54,284,39,7*74
$GAGSV,3,2,10,11,46,197,36,10,24,176,36,34,14,325,34,21,13,051,32,7*7C
$GAGSV,3,3,10,19,11,065,23,12,04,165,19,7*75
$GBGSV,3,1,12,32,80,341,38,58,75,068,,23,35,125,33,41,35,087,31,1*7D
$GBGSV,3,2,12,25,31,062,32,20,28,280,31,29,26,296,33,30,24,236,30,1*77
$GBGSV,3,3,12,40,12,304,26,48,07,276,19,07,02,313,19,27,01,194,17,1*73
$GNRMC,185129.000,A,4910.428276,N,12304.402644,W,0.01,0.00,091024,,,D,V*11
$GNVTG,0.00,T,,M,0.01,N,0.03,K,D*24
$GNGGA,185130.000,4910.428300,N,12304.402548,W,2,35,0.45,6.537,M,-16.816,M,,*42
$GNGLL,4910.428300,N,12304.402548,W,185130.000,A,D*54
$GNGSA,A,3,28,02,31,03,21,32,04,25,17,10,19,12,0.82,0.45,0.68,1*00
$GNGSA,A,3,65,81,75,88,74,82,,,,,,,0.82,0.45,0.68,2*06
$GNGSA,A,3,06,04,09,36,11,10,34,21,19,,,,0.82,0.45,0.68,3*05
$GNGSA,A,3,32,23,41,25,20,29,30,40,,,,,0.82,0.45,0.68,4*0D
$GPGSV,4,1,13,28,58,091,42,02,50,237,42,31,50,158,43,03,44,300,41,1*64
$GPGSV,4,2,13,21,42,212,42,44,33,171,40,32,32,066,41,04,17,249,37,1*6D
$GPGSV,4,3,13,25,14,058,34,17,12,308,36,10,09,117,39,19,07,332,36,1*6F
$GPGSV,4,4,13,12,05,023,36,1*54
$GLGSV,2,1,07,65,66,031,34,81,45,281,31,66,45,288,,75,36,098,33,1*7E
$GLGSV,2,2,07,88,26,215,30,74,25,036,32,82,21,333,37,1*40
$GAGSV,3,1,10,06,82,260,42,04,69,059,42,09,56,250,42,36,54,284,39,7*74
$GAGSV,3,2,10,11,46,197,36,10,24,176,36,34,14,325,34,21,13,051,32,7*7C
$GAGSV,3,3,10,19,11,065,23,12,04,165,19,7*75
$GBGSV,3,1,12,32,80,341,38,58,75,068,,23,35,125,33,41,35,087,31,1*7D
$GBGSV,3,2,12,25,31,062,32,20,28,280,31,29,26,296,33,30,24,236,31,1*76
$GBGSV,3,3,12,40,12,304,26,48,07,276,19,07,02,313,19,27,01,194,17,1*73
$GNRMC,185130.000,A,4910.428300,N,12304.402548,W,0.01,0.00,091024,,,D,V*16
$GNVTG,0.00,T,,M,0.01,N,0.02,K,D*25
$GNGGA,185131.000,4910.428354,N,12304.402506,W,2,35,0.45,6.618,M,-16.816,M,,*46
$GNGLL,4910.428354,N,12304.402506,W,185131.000,A,D*5E
$GNGSA,A,3,28,02,31,03,21,32,04,25,17,10,19,12,0.82,0.45,0.68,1*00
$GNGSA,A,3,65,81,75,88,74,82,,,,,,,0.82,0.45,0.68,2*06
$GNGSA,A,3,06,04,09,36,11,10,34,21,19,,,,0.82,0.45,0.68,3*05
$GNGSA,A,3,32,23,41,25,20,29,30,40,,,,,0.82,0.45,0.68,4*0D
$GPGSV,4,1,13,28,58,091,42,02,50,237,42,31,50,158,43,03,44,300,41,1*64
$GPGSV,4,2,13,21,42,212,42,44,33,171,40,32,32,066,41,04,17,249,37,1*6D
$GPGSV,4,3,13,25,14,058,34,17,12,308,36,10,09,117,39,19,07,332,36,1*6F
$GPGSV,4,4,13,12,05,023,35,1*57
$GLGSV,2,1,07,65,66,031,34,81,45,281,31,66,45,288,,75,36,098,33,1*7E
$GLGSV,2,2,07,88,26,215,30,74,25,036,32,82,21,333,37,1*40
$GAGSV,3,1,10,06,82,260,42,04,69,059,42,09,56,250,42,36,54,284,39,7*74
$GAGSV,3,2,10,11,46,197,36,10,24,176,36,34,14,325,34,21,13,051,32,7*7C
$GAGSV,3,3,10,19,11,065,23,12,04,165,19,7*75
$GBGSV,3,1,12,32,80,341,38,58,75,068,,23,35,125,33,41,35,087,31,1*7D
$GBGSV,3,2,12,25,31,061,32,20,28,280,31,29,26,296,33,30,24,236,32,1*76
$GBGSV,3,3,12,40,12,304,26,48,07,276,19,07,02,313,19,27,01,194,17,1*73
$GNRMC,185131.000,A,4910.428354,N,12304.402506,W,0.01,0.00,091024,,,D,V*1C
$GNVTG,0.00,T,,M,0.01,N,0.02,K,D*25
$GNGGA,185132.000,4910.428420,N,12304.402458,W,2,35,0.45,6.650,M,-16.817,M,,*46
$GNGLL,4910.428420,N,12304.402458,W,185132.000,A,D*53
$GNGSA,A,3,28,02,31,03,21,32,04,25,17,10,19,12,0.82,0.45,0.68,1*00
$GNGSA,A,3,65,81,75,88,74,82,,,,,,,0.82,0.45,0.68,2*06
$GNGSA,A,3,06,04,09,36,11,10,34,21,19,,,,0.82,0.45,0.68,3*05
$GNGSA,A,3,32,23,41,25,20,29,30,40,,,,,0.82,0.45,0.68,4*0D
$GPGSV,4,1,13,28,58,091,42,02,50,237,42,31,50,158,43,03,44,300,41,1*64
$GPGSV,4,2,13,21,42,212,42,44,33,171,40,32,32,066,41,04,17,249,37,1*6D
$GPGSV,4,3,13,25,14,058,34,17,12,308,36,10,09,117,39,19,07,332,36,1*6F
$GPGSV,4,4,13,12,05,023,35,1*57
$GLGSV,2,1,07,65,66,031,34,81,45,281,31,66,45,288,,75,36,098,32,1*7F
$GLGSV,2,2,07,88,26,215,30,74,25,036,32,82,21,333,37,1*40
$GAGSV,3,1,10,06,82,260,42,04,69,059,42,09,56,250,42,36,54,284,39,7*74
$GAGSV,3,2,10,11,46,197,36,10,24,176,36,34,14,325,34,21,13,051,32,7*7C
$GAGSV,3,3,10,19,11,065,23,12,04,165,19,7*75
$GBGSV,3,1,12,32,80,341,38,58,75,068,,23,35,125,33,41,35,087,31,1*7D
$GBGSV,3,2,12,25,31,061,32,20,28,280,31,29,26,296,33,30,24,236,30,1*74
$GBGSV,3,3,12,40,12,304,26,48,07,276,19,07,02,313,19,27,01,194,16,1*72
$GNRMC,185132.000,A,4910.428420,N,12304.402458,W,0.01,0.00,091024,,,D,V*11
$GNVTG,0.00,T,,M,0.01,N,0.03,K,D*24
$GNGGA,185133.000,4910.428468,N,12304.402386,W,2,35,0.45,6.684,M,-16.817,M,,*46
$GNGLL,4910.428468,N,12304.402386,W,185133.000,A,D*5A
$GNGSA,A,3,28,31,02,03,21,32,04,25,17,10,19,12,0.82,0.45,0.68,1*00
$GNGSA,A,3,65,81,75,88,74,82,,,,,,,0.82,0.45,0.68,2*06
$GNGSA,A,3,06,04,09,36,11,10,34,21,19,,,,0.82,0.45,0.68,3*05
$GNGSA,A,3,32,23,41,25,20,29,30,40,,,,,0.82,0.45,0.68,4*0D
$GPGSV,4,1,13,28,58,091,42,31,50,158,43,02,50,237,42,03,44,300,41,1*64
$GPGSV,4,2,13,21,42,212,42,44,33,171,40,32,32,066,41,04,17,249,37,1*6D
$GPGSV,4,3,13,25,14,058,35,17,12,308,36,10,09,117,39,19,07,332,36,1*6E
$GPGSV,4,4,13,12,05,023,35,1*57
$GLGSV,2,1,07,65,66,031,34,66,45,288,,81,45,281,31,75,36,098,32,1*7F
$GLGSV,2,2,07,88,26,215,30,74,25,036,32,82,21,333,37,1*40
$GAGSV,3,1,10,06,82,260,42,04,69,059,42,09,56,250,42,36,54,284,39,7*74
$GAGSV,3,2,10,11,46,197,36,10,24,176,36,34,14,325,34,21,13,051,32,7*7C
$GAGSV,3,3,10,19,11,065,23,12,04,165,19,7*75
$GBGSV,3,1,12,32,80,341,39,23,35,125,34,41,35,087,31,25,31,061,32,1*79
$GBGSV,3,2,12,20,28,280,31,29,26,296,32,30,24,236,31,40,12,304,26,1*73
$GBGSV,3,3,12,31,07,342,,48,07,276,19,07,02,313,19,27,,,16,1*4B
$GNRMC,185133.000,A,4910.428468,N,12304.402386,W,0.01,0.00,091024,,,D,V*18
$GNVTG,0.00,T,,M,0.01,N,0.02,K,D*25
$GNGGA,185134.000,4910.428510,N,12304.402356,W,2,35,0.45,6.645,M,-16.816,M,,*4E
$GNGLL,4910.428510,N,12304.402356,W,185134.000,A,D*5E
$GNGSA,A,3,28,02,31,03,21,32,04,25,17,10,19,12,0.82,0.45,0.68,1*00
$GNGSA,A,3,65,81,75,88,74,82,,,,,,,0.82,0.45,0.68,2*06
$GNGSA,A,3,06,04,09,36,11,10,34,21,19,,,,0.82,0.45,0.68,3*05
$GNGSA,A,3,32,23,41,25,20,29,30,40,,,,,0.82,0.45,0.68,4*0D
$GPGSV,4,1,13,28,58,091,42,02,50,237,42,31,50,158,43,03,44,300,41,1*64
$GPGSV,4,2,13,21,42,212,42,44,33,171,40,32,32,066,41,04,17,249,37,1*6D
$GPGSV,4,3,13,25,14,058,35,17,12,308,36,10,09,117,39,19,07,332,36,1*6E
$GPGSV,4,4,13,12,05,023,35,1*57
$GLGSV,2,1,07,65,66,031,35,81,45,281,31,66,45,288,,75,36,098,32,1*7E
$GLGSV,2,2,07,88,26,215,31,74,25,036,32,82,21,333,37,1*41
$GAGSV,3,1,10,06,82,260,42,04,69,059,42,09,56,250,42,36,54,284,39,7*74
$GAGSV,3,2,10,11,46,197,36,10,24,176,36,34,14,325,34,21,13,051,32,7*7C
$GAGSV,3,3,10,19,11,065,23,12,04,165,,7*7D
$GBGSV,3,1,12,32,80,341,39,58,75,068,,23,35,125,34,41,35,087,31,1*7B
$GBGSV,3,2,12,25,31,061,32,20,28,280,32,29,26,296,32,30,24,236,31,1*77
$GBGSV,3,3,12,40,12,304,26,31,07,342,,48,07,276,19,07,02,313,19,1*7D
$GNRMC,185134.000,A,4910.428510,N,12304.402356,W,0.01,0.00,091024,,,D,V*1C
$GNVTG,0.00,T,,M,0.01,N,0.02,K,D*25
$GNGGA,185135.000,4910.428564,N,12304.402404,W,2,35,0.45,6.633,M,-16.817,M,,*4C
$GNGLL,4910.428564,N,12304.402404,W,185135.000,A,D*5C
$GNGSA,A,3,28,02,31,03,21,32,04,25,17,10,19,12,0.82,0.45,0.68,1*00
$GNGSA,A,3,65,81,75,88,74,82,,,,,,,0.82,0.45,0.68,2*06
$GNGSA,A,3,06,04,09,36,11,10,34,21,19,,,,0.82,0.45,0.68,3*05
$GNGSA,A,3,32,23,41,25,20,29,30,40,,,,,0.82,0.45,0.68,4*0D
$GPGSV,4,1,13,28,58,091,42,02,50,237,42,31,50,158,43,03,44,300,41,1*64
$GPGSV,4,2,13,21,42,212,42,44,33,171,40,32,32,066,41,04,17,249,37,1*6D
$GPGSV,4,3,13,25,14,058,35,17,12,308,36,10,09,117,39,19,07,332,35,1*6D
$GPGSV,4,4,13,12,05,023,35,1*57
$GLGSV,2,1,07,65,66,031,35,81,45,281,31,66,45,288,,75,36,098,33,1*7F
$GLGSV,2,2,07,88,26,215,31,74,25,036,32,82,21,333,37,1*41
$GAGSV,3,1,10,06,82,260,42,04,69,059,42,09,56,250,42,36,54,284,39,7*74
$GAGSV,3,2,10,11,46,197,36,10,24,176,36,34,14,325,34,21,13,051,31,7*7F
$GAGSV,3,3,10,19,11,065,23,12,04,165,19,7*75
$GBGSV,3,1,12,32,80,341,39,58,75,068,,23,35,125,34,41,35,087,31,1*7B
$GBGSV,3,2,12,25,31,061,32,20,28,280,32,29,26,295,32,30,24,236,30,1*75
$GBGSV,3,3,12,40,12,304,26,31,07,342,,48,07,276,19,07,02,313,19,1*7D
$GNRMC,185135.000,A,4910.428564,N,12304.402404,W,0.01,0.00,091024,,,D,V*1E
$GNVTG,0.00,T,,M,0.01,N,0.02,K,D*25
$GNGGA,185136.000,4910.428636,N,12304.402392,W,2,35,0.45,6.604,M,-16.817,M,,*47
$GNGLL,4910.428636,N,12304.402392,W,185136.000,A,D*53
$GNGSA,A,3,28,02,31,03,21,32,04,25,17,10,19,12,0.82,0.45,0.68,1*00
$GNGSA,A,3,65,81,75,88,74,82,,,,,,,0.82,0.45,0.68,2*06
$GNGSA,A,3,06,04,09,36,11,10,34,21,19,,,,0.82,0.45,0.68,3*05
$GNGSA,A,3,32,23,41,25,20,29,30,40,,,,,0.82,0.45,0.68,4*0D
$GPGSV,4,1,13,28,58,091,42,02,50,237,42,31,50,158,43,03,44,300,41,1*64
$GPGSV,4,2,13,21,42,212,42,44,33,171,40,32,32,066,41,04,17,249,37,1*6D
$GPGSV,4,3,13,25,14,058,35,17,12,308,36,10,09,117,39,19,07,332,35,1*6D
$GPGSV,4,4,13,12,05,023,35,1*57
$GLGSV,2,1,07,65,66,031,35,81,45,281,31,66,45,288,,75,36,098,33,1*7F
$GLGSV,2,2,07,88,26,215,31,74,25,036,32,82,21,333,37,1*41
$GAGSV,3,1,10,06,82,260,42,04,69,059,42,09,56,250,42,36,54,284,39,7*74
$GAGSV,3,2,10,11,46,197,36,10,24,176,36,34,14,325,34,21,13,051,31,7*7F
$GAGSV,3,3,10,19,11,065,22,12,04,165,18,7*75
$GBGSV,3,1,12,32,80,341,39,58,75,068,,23,35,125,34,41,35,087,31,1*7B
$GBGSV,3,2,12,25,31,061,32,20,28,280,32,29,26,295,31,30,23,235,32,1*70
$GBGSV,3,3,12,40,12,304,27,31,07,342,,48,07,276,19,07,02,313,19,1*7C
$GNRMC,185136.000,A,4910.428636,N,12304.402392,W,0.01,0.00,091024,,,D,V*11
$GNVTG,0.00,T,,M,0.01,N,0.02,K,D*25
$GNGGA,185137.000,4910.428636,N,12304.402386,W,2,35,0.45,6.577,M,-16.816,M,,*45
$GNGLL,4910.428636,N,12304.402386,W,185137.000,A,D*57
$GNGSA,A,3,28,02,31,03,21,32,04,25,17,10,19,12,0.82,0.45,0.68,1*00
$GNGSA,A,3,65,81,75,88,74,82,,,,,,,0.82,0.45,0.68,2*06
$GNGSA,A,3,06,04,09,36,11,10,34,21,19,,,,0.82,0.45,0.68,3*05
$GNGSA,A,3,32,23,41,25,20,29,30,40,,,,,0.82,0.45,0.68,4*0D
$GPGSV,4,1,13,28,58,091,42,02,50,237,42,31,50,158,43,03,44,300,41,1*64
$GPGSV,4,2,13,21,42,212,42,44,33,171,40,32,32,066,41,04,17,249,37,1*6D
$GPGSV,4,3,13,25,14,058,35,17,12,308,36,10,09,117,39,19,07,332,35,1*6D
$GPGSV,4,4,13,12,05,023,35,1*57
$GLGSV,2,1,06,65,66,031,35,81,45,281,31,75,36,098,33,88,26,215,31,1*7D
$GLGSV,2,2,06,74,25,036,32,82,21,333,37,1*70
$GAGSV,3,1,10,06,82,260,42,04,69,059,42,09,56,250,42,36,54,284,39,7*74
$GAGSV,3,2,10,11,46,197,36,10,24,176,36,34,14,325,34,21,13,051,31,7*7F
$GAGSV,3,3,10,19,11,065,21,12,04,165,18,7*76
$GBGSV,3,1,12,32,80,341,39,58,75,068,,23,35,125,34,41,35,087,31,1*7B
$GBGSV,3,2,12,25,31,061,32,20,28,280,32,29,26,295,31,30,23,235,32,1*70
$GBGSV,3,3,12,40,12,304,27,31,07,342,,48,07,276,19,07,02,313,18,1*7D
$GNRMC,185137.000,A,4910.428636,N,12304.402386,W,0.01,0.00,091024,,,D,V*15
$GNVTG,0.00,T,,M,0.01,N,0.02,K,D*25
$GNGGA,185138.000,4910.428678,N,12304.402392,W,2,34,0.46,6.548,M,-16.817,M,,*4A
$GNGLL,4910.428678,N,12304.402392,W,185138.000,A,D*57
$GNGSA,A,3,28,02,31,03,21,32,04,25,17,10,19,12,0.83,0.46,0.69,1*03
$GNGSA,A,3,65,81,75,88,74,82,,,,,,,0.83,0.46,0.69,2*05
$GNGSA,A,3,06,04,09,36,11,10,34,21,19,,,,0.83,0.46,0.69,3*06
$GNGSA,A,3,32,23,41,25,20,29,30,,,,,,0.83,0.46,0.69,4*0A
$GPGSV,4,1,13,28,58,091,42,02,50,237,42,31,50,158,43,03,44,300,41,1*64
$GPGSV,4,2,13,21,42,212,42,44,33,171,40,32,32,066,41,04,17,249,37,1*6D
$GPGSV,4,3,13,25,14,058,35,17,12,308,36,10,09,117,39,19,07,332,35,1*6D
$GPGSV,4,4,13,12,05,023,35,1*57
$GLGSV,2,1,07,65,66,031,35,81,45,281,31,66,45,288,,75,36,098,33,1*7F
$GLGSV,2,2,07,88,26,215,31,74,25,036,32,82,21,333,37,1*41
$GAGSV,3,1,10,06,82,260,42,04,69,059,42,09,56,250,42,36,54,284,39,7*74
$GAGSV,3,2,10,11,46,197,36,10,24,176,36,34,14,325,35,21,13,051,31,7*7E
$GAGSV,3,3,10,19,11,065,21,12,04,165,18,7*76
$GBGSV,3,1,12,32,81,348,39,58,75,068,,23,35,125,34,41,35,087,32,1*70
$GBGSV,3,2,12,25,31,061,32,20,28,280,32,29,26,295,31,30,23,235,31,1*73
$GBGSV,3,3,12,40,12,304,,31,07,342,,48,07,276,19,07,02,313,18,1*78
$GNRMC,185138.000,A,4910.428678,N,12304.402392,W,0.01,0.00,091024,,,D,V*15
$GNVTG,0.00,T,,M,0.01,N,0.02,K,D*25
$GNGGA,185139.000,4910.428690,N,12304.402392,W,2,34,0.46,6.539,M,-16.816,M,,*4A
$GNGLL,4910.428690,N,12304.402392,W,185139.000,A,D*50
$GNGSA,A,3,28,02,31,03,21,32,04,25,17,10,19,12,0.83,0.46,0.69,1*03
$GNGSA,A,3,65,81,75,88,74,82,,,,,,,0.83,0.46,0.69,2*05
$GNGSA,A,3,06,04,09,36,11,10,34,21,19,,,,0.83,0.46,0.69,3*06
$GNGSA,A,3,32,23,41,25,20,29,30,,,,,,0.83,0.46,0.69,4*0A
$GPGSV,4,1,13,28,58,091,42,02,50,237,42,31,50,158,43,03,44,300,41,1*64
$GPGSV,4,2,13,21,42,212,42,44,33,171,40,32,32,066,41,04,17,249,37,1*6D
$GPGSV,4,3,13,25,14,058,35,17,12,308,36,10,09,117,39,19,07,332,35,1*6D
$GPGSV,4,4,13,12,05,023,35,1*57
$GLGSV,2,1,07,65,66,031,35,81,45,281,31,66,45,288,,75,36,098,33,1*7F
$GLGSV,2,2,07,88,26,215,31,74,25,036,32,82,21,333,37,1*41
$GAGSV,3,1,10,06,82,260,42,04,69,059,42,09,56,250,42,36,54,284,39,7*74
$GAGSV,3,2,10,11,46,197,36,10,24,176,36,34,14,325,35,21,13,051,31,7*7E
$GAGSV,3,3,10,19,11,065,21,12,04,165,18,7*76
$GBGSV,3,1,12,32,81,348,39,58,75,068,,23,35,125,34,41,35,087,32,1*70
$GBGSV,3,2,12,25,31,061,32,20,28,280,32,29,26,295,31,30,23,235,31,1*73
$GBGSV,3,3,12,40,12,304,,31,07,342,,48,07,276,19,07,02,313,18,1*78
$GNRMC,185139.000,A,4910.428690,N,12304.402392,W,0.01,0.00,091024,,,D,V*12
$GNVTG,0.00,T,,M,0.01,N,0.02,K,D*25
$GNGGA,185140.000,4910.428714,N,12304.402440,W,2,34,0.46,6.532,M,-16.817,M,,*4B
$GNGLL,4910.428714,N,12304.402440,W,185140.000,A,D*5B
$GNGSA,A,3,28,02,31,03,21,32,04,25,17,10,19,12,0.83,0.46,0.69,1*03
$GNGSA,A,3,65,81,75,88,74,82,,,,,,,0.83,0.46,0.69,2*05
$GNGSA,A,3,06,04,09,36,11,10,34,21,19,,,,0.83,0.46,0.69,3*06
$GNGSA,A,3,32,23,41,25,20,29,30,,,,,,0.83,0.46,0.69,4*0A
$GPGSV,4,1,13,28,58,091,42,02,50,237,42,31,50,158,43,03,44,300,41,1*64
$GPGSV,4,2,13,21,42,212,42,44,33,171,40,32,32,066,41,04,17,249,37,1*6D
$GPGSV,4,3,13,25,14,058,36,17,12,308,36,10,09,117,39,19,07,332,35,1*6E
$GPGSV,4,4,13,12,05,023,35,1*57
$GLGSV,2,1,07,65,66,031,35,81,45,281,31,66,45,288,,75,36,098,33,1*7F
$GLGSV,2,2,07,88,26,215,31,74,25,036,32,82,21,333,37,1*41
$GAGSV,3,1,10,06,82,260,42,04,69,059,42,09,56,250,42,36,54,284,39,7*74
$GAGSV,3,2,10,11,46,197,36,10,24,176,36,34,14,325,35,21,13,051,31,7*7E
$GAGSV,3,3,10,19,11,065,21,12,04,165,18,7*76
$GBGSV,3,1,12,32,81,348,39,58,75,068,,23,35,125,33,41,35,087,32,1*77
$GBGSV,3,2,12,25,31,061,32,20,28,280,32,29,26,295,31,30,23,235,31,1*73
$GBGSV,3,3,12,40,12,304,,31,07,342,,48,07,276,19,07,02,313,18,1*78
$GNRMC,185140.000,A,4910.428714,N,12304.402440,W,0.01,0.00,091024,,,D,V*19
$GNVTG,0.00,T,,M,0.01,N,0.02,K,D*25
$GNGGA,185141.000,4910.428750,N,12304.402464,W,2,34,0.46,6.541,M,-16.816,M,,*49
$GNGLL,4910.428750,N,12304.402464,W,185141.000,A,D*5C
$GNGSA,A,3,28,02,31,03,21,32,04,25,17,10,19,12,0.83,0.46,0.69,1*03
$GNGSA,A,3,65,81,75,88,74,82,,,,,,,0.83,0.46,0.69,2*05
$GNGSA,A,3,06,04,09,36,11,10,34,21,19,,,,0.83,0.46,0.69,3*06
$GNGSA,A,3,32,23,41,25,20,29,30,,,,,,0.83,0.46,0.69,4*0A
$GPGSV,4,1,13,28,58,091,42,02,50,237,42,31,50,158,43,03,44,300,41,1*64
$GPGSV,4,2,13,21,42,212,42,44,33,171,40,32,32,066,41,04,17,249,37,1*6D
$GPGSV,4,3,13,25,14,058,36,17,12,308,36,10,09,117,39,19,07,332,35,1*6E
$GPGSV,4,4,13,12,05,023,35,1*57
$GLGSV,2,1,07,65,66,031,35,81,45,281,31,66,45,288,,75,36,098,33,1*7F
$GLGSV,2,2,07,88,26,215,31,74,25,036,32,82,21,333,37,1*41
$GAGSV,3,1,10,06,82,260,42,04,69,059,42,09,56,250,42,36,54,284,39,7*74
$GAGSV,3,2,10,11,46,197,36,10,24,176,36,34,14,325,35,21,13,051,32,7*7D
$GAGSV,3,3,10,19,11,065,22,12,04,165,18,7*75
$GBGSV,3,1,12,32,81,348,39,58,75,068,,23,35,125,33,41,35,087,32,1*77
$GBGSV,3,2,12,25,31,061,32,20,28,280,32,29,26,295,32,30,23,235,31,1*70
$GBGSV,3,3,12,40,12,304,,31,07,342,,48,07,276,18,07,02,313,18,1*79
$GNRMC,185141.000,A,4910.428750,N,12304.402464,W,0.02,0.00,091024,,,D,V*1D
$GNVTG,0.00,T,,M,0.02,N,0.03,K,D*27
$GNGGA,185142.000,4910.428774,N,12304.402542,W,2,34,0.46,6.566,M,-16.817,M,,*4D
$GNGLL,4910.428774,N,12304.402542,W,185142.000,A,D*5C
$GNGSA,A,3,28,02,31,03,21,32,04,25,17,10,19,12,0.83,0.46,0.69,1*03
$GNGSA,A,3,65,81,75,88,74,82,,,,,,,0.83,0.46,0.69,2*05
$GNGSA,A,3,06,04,09,36,11,10,34,21,19,,,,0.83,0.46,0.69,3*06
$GNGSA,A,3,32,23,41,25,20,29,30,,,,,,0.83,0.46,0.69,4*0A
$GPGSV,4,1,13,28,58,091,42,02,50,237,42,31,50,158,43,03,44,300,41,1*64
$GPGSV,4,2,13,21,42,212,42,44,33,171,40,32,32,066,41,04,17,249,37,1*6D
$GPGSV,4,3,13,25,14,058,36,17,12,308,36,10,09,117,39,19,07,332,35,1*6E
$GPGSV,4,4,13,12,05,023,35,1*57
$GLGSV,2,1,07,65,66,031,36,81,45,281,31,66,45,288,,75,36,098,33,1*7C
$GLGSV,2,2,07,88,26,215,31,74,25,036,32,82,21,333,37,1*41
$GAGSV,3,1,10,06,82,260,42,04,69,059,42,09,56,250,42,36,54,284,39,7*74
$GAGSV,3,2,10,11,46,197,36,10,24,176,36,34,14,325,35,21,13,051,32,7*7D
$GAGSV,3,3,10,19,11,065,22,12,04,165,18,7*75
$GBGSV,3,1,12,32,81,348,39,58,75,068,,23,35,125,33,41,35,087,32,1*77
$GBGSV,3,2,12,25,31,061,33,20,28,280,32,29,26,295,31,30,23,235,31,1*72
$GBGSV,3,3,12,40,12,304,,31,07,342,,48,07,276,18,07,02,313,18,1*79
$GNRMC,185142.000,A,4910.428774,N,12304.402542,W,0.02,0.00,091024,,,D,V*1D
$GNVTG,0.00,T,,M,0.02,N,0.03,K,D*27
$GNGGA,185143.000,4910.428804,N,12304.402614,W,2,34,0.46,6.530,M,-16.817,M,,*47
$GNGLL,4910.428804,N,12304.402614,W,185143.000,A,D*55
$GNGSA,A,3,28,02,31,03,21,32,04,25,17,10,19,12,0.83,0.46,0.69,1*03
$GNGSA,A,3,65,81,75,88,74,82,,,,,,,0.83,0.46,0.69,2*05
$GNGSA,A,3,06,04,09,36,11,10,34,21,19,,,,0.83,0.46,0.69,3*06
$GNGSA,A,3,32,23,41,25,20,29,30,,,,,,0.83,0.46,0.69,4*0A
$GPGSV,4,1,13,28,58,091,42,02,50,237,42,31,50,158,43,03,44,300,41,1*64
$GPGSV,4,2,13,21,42,212,42,44,33,171,40,32,32,066,41,04,17,249,37,1*6D
$GPGSV,4,3,13,25,14,058,36,17,12,308,36,10,09,117,39,19,07,332,35,1*6E
$GPGSV,4,4,13,12,05,023,35,1*57
$GLGSV,2,1,07,65,66,031,35,81,45,281,31,66,45,288,,75,36,098,33,1*7F
$GLGSV,2,2,07,88,26,215,31,74,25,036,32,82,21,333,37,1*41
$GAGSV,3,1,10,06,82,260,42,04,69,059,42,09,56,250,42,36,54,284,39,7*74
$GAGSV,3,2,10,11,46,197,36,10,24,176,36,34,14,325,35,21,13,051,32,7*7D
$GAGSV,3,3,10,19,11,065,22,12,04,165,17,7*7A
$GBGSV,3,1,12,32,81,348,39,58,75,068,,23,35,125,33,41,35,087,32,1*77
$GBGSV,3,2,12,25,31,061,33,20,28,280,32,29,26,295,31,30,23,235,31,1*72
$GBGSV,3,3,12,40,12,304,,31,07,342,,48,07,276,18,07,02,313,18,1*79
$GNRMC,185143.000,A,4910.428804,N,12304.402614,W,0.02,0.00,091024,,,D,V*14
$GNVTG,0.00,T,,M,0.02,N,0.03,K,D*27
$PAIR010,0,1,2335,327121*39
$GNGGA,185144.000,4910.428834,N,12304.402644,W,2,34,0.46,6.526,M,-16.816,M,,*40
$GNGLL,4910.428834,N,12304.402644,W,185144.000,A,D*54
$GNGSA,A,3,28,02,31,03,21,32,04,25,17,10,19,12,0.83,0.46,0.69,1*03
$GNGSA,A,3,65,81,75,88,74,82,,,,,,,0.83,0.46,0.69,2*05
$GNGSA,A,3,06,04,09,36,11,10,34,21,19,,,,0.83,0.46,0.69,3*06
$GNGSA,A,3,32,23,41,25,20,29,30,,,,,,0.83,0.46,0.69,4*0A
$GPGSV,4,1,13,28,58,091,42,02,50,237,42,31,50,158,43,03,44,300,41,1*64
$GPGSV,4,2,13,21,42,212,42,44,33,171,40,32,32,066,41,04,17,249,37,1*6D
$GPGSV,4,3,13,25,14,058,36,17,12,308,36,10,09,117,39,19,07,332,35,1*6E
$GPGSV,4,4,13,12,05,023,35,1*57
$GLGSV,2,1,07,65,66,031,35,81,45,281,31,66,45,288,,75,36,098,33,1*7F
$GLGSV,2,2,07,88,26,215,31,74,25,036,32,82,21,333,37,1*41
$GAGSV,3,1,10,06,82,260,42,04,69,059,42,09,56,250,42,36,54,284,39,7*74
$GAGSV,3,2,10,11,46,197,36,10,24,176,36,34,14,325,35,21,13,051,32,7*7D
$GAGSV,3,3,10,19,11,065,22,12,04,165,17,7*7A
$GBGSV,3,1,12,32,81,348,39,58,75,068,,23,35,125,33,41,35,087,32,1*77
$GBGSV,3,2,12,25,31,061,33,20,28,280,32,29,26,295,32,30,23,235,31,1*71
$GBGSV,3,3,12,40,12,304,,31,07,342,,48,07,276,18,07,02,313,18,1*79
$GNRMC,185144.000,A,4910.428834,N,12304.402644,W,0.01,0.00,091024,,,D,V*16
$GNVTG,0.00,T,,M,0.01,N,0.02,K,D*25
$GNGGA,185145.000,4910.428852,N,12304.402614,W,2,34,0.46,6.585,M,-16.816,M,,*4D
$GNGLL,4910.428852,N,12304.402614,W,185145.000,A,D*50
$GNGSA,A,3,28,02,31,03,21,32,04,25,17,10,19,12,0.83,0.46,0.69,1*03
$GNGSA,A,3,65,81,75,88,74,82,,,,,,,0.83,0.46,0.69,2*05
$GNGSA,A,3,06,04,09,36,11,10,34,21,19,,,,0.83,0.46,0.69,3*06
$GNGSA,A,3,32,23,41,25,20,29,30,,,,,,0.83,0.46,0.69,4*0A
$GPGSV,4,1,13,28,58,091,42,02,50,237,42,31,50,158,43,03,44,300,41,1*64
$GPGSV,4,2,13,21,42,212,42,44,33,171,40,32,32,066,41,04,17,249,37,1*6D
$GPGSV,4,3,13,25,14,058,36,17,12,308,36,10,09,117,39,19,07,332,35,1*6E
$GPGSV,4,4,13,12,05,023,35,1*57
$GLGSV,2,1,07,65,66,031,35,81,45,281,31,66,45,288,,75,36,098,33,1*7F
$GLGSV,2,2,07,88,26,215,31,74,25,036,32,82,21,333,37,1*41
$GAGSV,3,1,10,06,82,260,42,04,69,059,42,09,56,250,42,36,54,284,39,7*74
$GAGSV,3,2,10,11,46,197,36,10,24,176,36,34,14,325,35,21,13,051,32,7*7D
$GAGSV,3,3,10,19,11,065,22,12,04,165,17,7*7A
$GBGSV,3,1,12,32,81,348,39,23,35,125,33,41,35,087,32,25,31,061,33,1*74
$GBGSV,3,2,12,20,28,280,32,29,26,295,32,30,23,235,31,40,12,304,,1*73
$GBGSV,3,3,12,37,08,170,,31,07,342,,48,07,276,19,07,02,313,18,1*72
$GNRMC,185145.000,A,4910.428852,N,12304.402614,W,0.01,0.00,091024,,,D,V*12
$GNVTG,0.00,T,,M,0.01,N,0.02,K,D*25
$GNGGA,185146.000,4910.428822,N,12304.402632,W,2,34,0.46,6.613,M,-16.816,M,,*41
$GNGLL,4910.428822,N,12304.402632,W,185146.000,A,D*50
$GNGSA,A,3,28,02,31,03,21,32,04,25,17,10,19,12,0.83,0.46,0.69,1*03
$GNGSA,A,3,65,81,75,88,74,82,,,,,,,0.83,0.46,0.69,2*05
$GNGSA,A,3,06,04,09,36,11,10,34,21,19,,,,0.83,0.46,0.69,3*06
$GNGSA,A,3,32,23,41,25,20,29,30,,,,,,0.83,0.46,0.69,4*0A
$GPGSV,4,1,13,28,58,091,42,02,50,237,42,31,50,158,43,03,44,300,41,1*64
$GPGSV,4,2,13,21,42,212,42,44,33,171,40,32,32,066,41,04,17,249,37,1*6D
$GPGSV,4,3,13,25,14,058,36,17,12,308,36,10,09,117,39,19,07,332,35,1*6E
$GPGSV,4,4,13,12,05,023,35,1*57
$GLGSV,2,1,07,65,66,031,35,81,45,281,31,66,45,288,,75,36,098,33,1*7F
$GLGSV,2,2,07,88,26,215,31,74,25,036,32,82,21,333,37,1*41
$GAGSV,3,1,10,06,82,260,42,04,69,059,42,09,56,250,42,36,54,284,39,7*74
$GAGSV,3,2,10,11,46,197,36,10,24,176,36,34,14,325,35,21,13,051,32,7*7D
$GAGSV,3,3,10,19,11,065,22,12,04,165,17,7*7A
$GBGSV,3,1,12,32,81,348,39,23,35,125,33,41,35,087,32,25,31,061,33,1*74
$GBGSV,3,2,12,20,28,280,33,29,26,295,32,30,23,235,31,40,12,304,,1*72
$GBGSV,3,3,12,37,08,170,,31,07,342,,48,07,276,19,07,02,313,18,1*72
$GNRMC,185146.000,A,4910.428822,N,12304.402632,W,0.01,0.00,091024,,,D,V*12
$GNVTG,0.00,T,,M,0.01,N,0.02,K,D*25
$GNGGA,185147.000,4910.428780,N,12304.402602,W,2,34,0.46,6.628,M,-16.816,M,,*4C
$GNGLL,4910.428780,N,12304.402602,W,185147.000,A,D*55
$GNGSA,A,3,28,02,31,03,21,32,04,25,17,10,19,12,0.83,0.46,0.69,1*03
$GNGSA,A,3,65,81,75,88,74,82,,,,,,,0.83,0.46,0.69,2*05
$GNGSA,A,3,06,04,09,36,11,10,34,21,19,,,,0.83,0.46,0.69,3*06
$GNGSA,A,3,32,23,41,25,20,29,30,,,,,,0.83,0.46,0.69,4*0A
$GPGSV,4,1,13,28,58,091,42,02,50,237,42,31,50,158,43,03,44,300,41,1*64
$GPGSV,4,2,13,21,42,212,42,44,33,171,40,32,32,066,41,04,17,249,37,1*6D
$GPGSV,4,3,13,25,14,058,36,17,12,308,36,10,09,117,39,19,07,332,35,1*6E
$GPGSV,4,4,13,12,05,023,35,1*57
$GLGSV,2,1,07,65,66,031,35,81,45,281,31,66,45,288,,75,36,098,33,1*7F
$GLGSV,2,2,07,88,26,215,31,74,25,036,32,82,21,333,37,1*41
$GAGSV,3,1,10,06,82,260,42,04,69,059,42,09,56,250,42,36,54,284,39,7*74
$GAGSV,3,2,10,11,46,197,36,10,24,176,36,34,14,325,35,21,13,051,32,7*7D
$GAGSV,3,3,10,19,11,065,22,12,04,165,17,7*7A
$GBGSV,3,1,12,32,81,348,39,58,75,068,,23,35,125,33,41,34,088,32,1*79
$GBGSV,3,2,12,25,31,061,34,20,28,280,33,29,26,295,32,30,23,235,31,1*77
$GBGSV,3,3,12,40,12,304,,31,07,342,,48,07,276,19,07,02,313,18,1*78
$GNRMC,185147.000,A,4910.428780,N,12304.402602,W,0.01,0.00,091024,,,D,V*17
$GNVTG,0.00,T,,M,0.01,N,0.02,K,D*25
$GNGGA,185148.000,4910.428756,N,12304.402602,W,2,34,0.46,6.609,M,-16.816,M,,*4B
$GNGLL,4910.428756,N,12304.402602,W,185148.000,A,D*51
$GNGSA,A,3,28,02,31,03,21,32,04,25,17,10,19,12,0.83,0.46,0.69,1*03
$GNGSA,A,3,65,81,75,88,74,82,,,,,,,0.83,0.46,0.69,2*05
$GNGSA,A,3,06,04,09,36,11,10,34,21,19,,,,0.83,0.46,0.69,3*06
$GNGSA,A,3,32,23,41,25,20,29,30,,,,,,0.83,0.46,0.69,4*0A
$GPGSV,4,1,13,28,58,091,42,02,50,237,42,31,50,158,43,03,44,300,41,1*64
$GPGSV,4,2,13,21,42,212,42,44,33,171,40,32,32,066,41,04,17,249,37,1*6D
$GPGSV,4,3,13,25,14,058,36,17,12,308,36,10,09,117,39,19,07,332,35,1*6E
$GPGSV,4,4,13,12,05,023,35,1*57
$GLGSV,2,1,07,65,66,031,35,66,45,288,,81,45,281,31,75,36,098,33,1*7F
$GLGSV,2,2,07,88,26,215,31,74,25,036,32,82,21,333,37,1*41
$GAGSV,3,1,10,06,82,260,42,04,69,059,42,09,56,250,42,36,54,284,39,7*74
$GAGSV,3,2,10,11,46,197,36,10,24,176,36,34,14,325,35,21,13,051,32,7*7D
$GAGSV,3,3,10,19,11,065,23,12,04,165,17,7*7B
$GBGSV,3,1,12,32,81,348,39,58,75,068,,23,35,125,33,41,34,088,32,1*79
$GBGSV,3,2,12,25,31,061,34,20,28,280,33,29,26,295,32,30,23,235,31,1*77
$GBGSV,3,3,12,40,12,304,,37,08,170,,48,07,276,19,07,02,313,18,1*72
$GNRMC,185148.000,A,4910.428756,N,12304.402602,W,0.01,0.00,091024,,,D,V*13
$GNVTG,0.00,T,,M,0.01,N,0.02,K,D*25
$GNGGA,185149.000,4910.428744,N,12304.402596,W,2,35,0.45,6.554,M,-16.816,M,,*4E
$GNGLL,4910.428744,N,12304.402596,W,185149.000,A,D*5D
$GNGSA,A,3,28,02,31,03,21,32,04,25,17,10,19,12,0.82,0.45,0.68,1*00
$GNGSA,A,3,65,81,75,88,74,82,,,,,,,0.82,0.45,0.68,2*06
$GNGSA,A,3,06,04,09,36,11,10,34,21,19,,,,0.82,0.45,0.68,3*05
$GNGSA,A,3,32,23,41,25,20,29,30,40,,,,,0.82,0.45,0.68,4*0D
$GPGSV,4,1,13,28,58,091,42,02,50,237,42,31,50,158,43,03,44,300,41,1*64
$GPGSV,4,2,13,21,42,212,42,44,33,171,40,32,32,066,41,04,17,249,37,1*6D
$GPGSV,4,3,13,25,14,058,36,17,12,308,36,10,09,117,39,19,07,332,35,1*6E
$GPGSV,4,4,13,12,05,023,35,1*57
$GLGSV,2,1,07,65,66,031,35,81,45,281,31,66,45,288,,75,36,098,33,1*7F
$GLGSV,2,2,07,88,26,215,31,74,25,036,32,82,21,333,37,1*41
$GAGSV,3,1,10,06,82,260,42,04,69,059,42,09,56,250,42,36,54,284,39,7*74
$GAGSV,3,2,10,11,46,197,36,10,24,176,36,34,14,325,35,21,13,051,32,7*7D
$GAGSV,3,3,10,19,11,065,23,12,04,165,18,7*74
$GBGSV,3,1,11,32,81,348,39,23,35,125,33,41,34,088,32,25,31,061,34,1*7E
$GBGSV,3,2,11,20,28,280,33,29,26,295,32,30,23,235,31,40,12,304,26,1*75
$GBGSV,3,3,11,48,07,276,19,31,07,342,,07,02,313,18,1*4B
$GNRMC,185149.000,A,4910.428744,N,12304.402596,W,0.01,0.00,091024,,,D,V*1F
$GNVTG,0.00,T,,M,0.01,N,0.02,K,D*25
$GNGGA,185150.000,4910.428726,N,12304.402614,W,2,34,0.46,6.470,M,-16.816,M,,*4E
$GNGLL,4910.428726,N,12304.402614,W,185150.000,A,D*58
$GNGSA,A,3,28,02,31,03,21,32,04,25,17,10,19,12,0.83,0.46,0.69,1*03
$GNGSA,A,3,65,81,75,88,74,82,,,,,,,0.83,0.46,0.69,2*05
$GNGSA,A,3,06,04,09,36,11,10,34,21,19,,,,0.83,0.46,0.69,3*06
$GNGSA,A,3,32,23,41,25,20,29,30,,,,,,0.83,0.46,0.69,4*0A
$GPGSV,4,1,13,28,58,091,42,02,50,237,42,31,50,158,43,03,44,300,41,1*64
$GPGSV,4,2,13,21,42,212,42,44,33,171,40,32,32,066,41,04,17,249,37,1*6D
$GPGSV,4,3,13,25,14,058,36,17,12,308,36,10,09,117,39,19,07,332,35,1*6E
$GPGSV,4,4,13,12,05,023,35,1*57
$GLGSV,2,1,07,65,66,031,35,81,45,281,31,66,45,288,,75,36,098,33,1*7F
$GLGSV,2,2,07,88,26,215,31,74,25,036,32,82,21,333,36,1*40
$GAGSV,3,1,10,06,82,260,42,04,69,059,42,09,56,250,42,36,54,284,39,7*74
$GAGSV,3,2,10,11,46,197,36,10,24,176,36,34,14,325,35,21,13,051,32,7*7D
$GAGSV,3,3,10,19,11,065,23,12,04,165,18,7*74
$GBGSV,3,1,12,32,81,348,39,58,75,068,,23,35,125,33,41,34,088,32,1*79
$GBGSV,3,2,12,25,31,061,34,20,28,280,33,29,26,295,32,30,23,235,31,1*77
$GBGSV,3,3,12,40,12,304,,31,07,342,,48,07,276,20,07,02,313,18,1*72
$GNRMC,185150.000,A,4910.428726,N,12304.402614,W,0.01,0.00,091024,,,D,V*1A
$GNVTG,0.00,T,,M,0.01,N,0.02,K,D*25
$GNGGA,185151.000,4910.428726,N,12304.402656,W,2,34,0.46,6.362,M,-16.816,M,,*4D
$GNGLL,4910.428726,N,12304.402656,W,185151.000,A,D*5F
$GNGSA,A,3,28,02,31,03,21,32,04,25,17,10,19,12,0.83,0.46,0.69,1*03
$GNGSA,A,3,65,81,75,88,74,82,,,,,,,0.83,0.46,0.69,2*05
$GNGSA,A,3,06,04,09,36,11,10,34,21,19,,,,0.83,0.46,0.69,3*06
$GNGSA,A,3,32,23,41,25,20,29,30,,,,,,0.83,0.46,0.69,4*0A
$GPGSV,4,1,13,28,58,091,42,02,50,237,42,31,50,158,43,03,44,300,41,1*64
$GPGSV,4,2,13,21,42,212,42,44,33,171,40,32,32,066,41,04,17,249,37,1*6D
$GPGSV,4,3,13,25,14,058,36,17,12,308,36,10,09,117,39,19,07,332,35,1*6E
$GPGSV,4,4,13,12,05,023,35,1*57
$GLGSV,2,1,07,65,66,031,35,66,45,288,,81,45,281,31,75,36,098,33,1*7F
$GLGSV,2,2,07,88,26,215,31,74,25,036,33,82,21,333,36,1*41
$GAGSV,3,1,10,06,82,260,42,04,69,059,42,09,56,250,42,36,54,284,39,7*74
$GAGSV,3,2,10,11,46,197,36,10,24,176,36,34,14,325,35,21,13,051,31,7*7E
$GAGSV,3,3,10,19,11,065,22,12,04,165,18,7*75
$GBGSV,3,1,12,32,81,348,39,58,75,068,,23,35,125,33,41,34,088,32,1*79
$GBGSV,3,2,12,25,31,061,34,20,28,280,33,29,26,295,32,30,23,235,31,1*77
$GBGSV,3,3,12,40,12,304,,37,08,170,,48,07,276,20,07,02,313,18,1*78
$GNRMC,185151.000,A,4910.428726,N,12304.402656,W,0.01,0.00,091024,,,D,V*1D
$GNVTG,0.00,T,,M,0.01,N,0.02,K,D*25
$GNGGA,185152.000,4910.428696,N,12304.402698,W,2,34,0.46,6.223,M,-16.816,M,,*42
$GNGLL,4910.428696,N,12304.402698,W,185152.000,A,D*54
$GNGSA,A,3,28,02,31,03,21,32,04,25,17,10,19,12,0.83,0.46,0.69,1*03
$GNGSA,A,3,65,81,75,88,74,82,,,,,,,0.83,0.46,0.69,2*05
$GNGSA,A,3,06,04,09,36,11,10,34,21,19,,,,0.83,0.46,0.69,3*06
$GNGSA,A,3,32,23,41,25,20,29,30,,,,,,0.83,0.46,0.69,4*0A
$GPGSV,4,1,13,28,58,091,42,02,50,237,42,31,50,158,43,03,44,300,41,1*64
$GPGSV,4,2,13,21,42,212,42,44,33,171,40,32,32,066,41,04,17,249,37,1*6D
$GPGSV,4,3,13,25,14,058,36,17,12,308,36,10,09,117,39,19,07,332,35,1*6E
$GPGSV,4,4,13,12,05,023,35,1*57
$GLGSV,2,1,07,65,66,031,36,66,45,288,,81,45,281,31,75,36,098,33,1*7C
$GLGSV,2,2,07,88,26,215,31,74,25,036,33,82,21,333,36,1*41
$GAGSV,3,1,10,06,82,260,42,04,69,059,42,09,56,250,42,36,54,284,39,7*74
$GAGSV,3,2,10,11,46,197,36,10,24,176,36,34,14,325,35,21,13,051,31,7*7E
$GAGSV,3,3,10,19,11,065,22,12,04,165,18,7*75
$GBGSV,3,1,12,32,81,348,39,58,75,068,,23,35,125,33,41,34,088,32,1*79
$GBGSV,3,2,12,25,31,061,34,20,28,280,33,29,26,295,32,30,23,235,31,1*77
$GBGSV,3,3,12,40,12,304,,37,08,170,,48,07,276,20,07,02,313,18,1*78
$GNRMC,185152.000,A,4910.428696,N,12304.402698,W,0.01,0.00,091024,,,D,V*16
$GNVTG,0.00,T,,M,0.01,N,0.03,K,D*24
$GNGGA,185153.000,4910.428678,N,12304.402740,W,2,34,0.46,6.066,M,-16.816,M,,*44
$GNGLL,4910.428678,N,12304.402740,W,185153.000,A,D*51
$GNGSA,A,3,28,02,31,03,21,32,04,25,17,10,19,12,0.83,0.46,0.69,1*03
$GNGSA,A,3,65,81,75,88,74,82,,,,,,,0.83,0.46,0.69,2*05
$GNGSA,A,3,06,04,09,36,11,10,34,21,19,,,,0.83,0.46,0.69,3*06
$GNGSA,A,3,32,23,41,25,20,29,30,,,,,,0.83,0.46,0.69,4*0A
$GPGSV,4,1,13,28,58,091,42,02,50,237,42,31,50,158,43,03,44,300,41,1*64
$GPGSV,4,2,13,21,42,212,42,44,33,171,40,32,32,066,41,04,17,249,37,1*6D
$GPGSV,4,3,13,25,14,058,36,17,12,308,36,10,09,117,39,19,07,332,35,1*6E
$GPGSV,4,4,13,12,05,023,35,1*57
$GLGSV,2,1,07,65,66,031,36,66,45,288,,81,45,281,31,75,36,098,33,1*7C
$GLGSV,2,2,07,88,26,215,31,74,25,036,33,82,21,333,36,1*41
$GAGSV,3,1,10,06,82,260,42,04,69,059,42,09,56,250,42,36,54,284,39,7*74
$GAGSV,3,2,10,11,46,197,36,10,24,176,36,34,14,325,35,21,13,051,31,7*7E
$GAGSV,3,3,10,19,11,065,22,12,04,165,19,7*74
$GBGSV,3,1,12,32,81,348,39,58,75,068,,23,35,125,33,41,34,088,32,1*79
$GBGSV,3,2,12,25,31,061,34,20,28,280,33,29,26,295,32,30,23,235,31,1*77
$GBGSV,3,3,12,40,12,304,,37,08,170,,48,07,276,21,07,02,313,18,1*79
$GNRMC,185153.000,A,4910.428678,N,12304.402740,W,0.01,0.00,091024,,,D,V*13
$GNVTG,0.00,T,,M,0.01,N,0.02,K,D*25
$GNGGA,185154.000,4910.428642,N,12304.402770,W,2,34,0.46,5.983,M,-16.816,M,,*48
$GNGLL,4910.428642,N,12304.402770,W,185154.000,A,D*5C
$GNGSA,A,3,28,02,31,03,21,32,04,25,17,10,19,12,0.83,0.46,0.69,1*03
$GNGSA,A,3,65,81,75,88,74,82,,,,,,,0.83,0.46,0.69,2*05
$GNGSA,A,3,06,04,09,36,11,10,34,21,19,,,,0.83,0.46,0.69,3*06
$GNGSA,A,3,32,23,41,25,20,29,30,,,,,,0.83,0.46,0.69,4*0A
$GPGSV,4,1,13,28,58,091,42,02,50,237,42,31,50,158,43,03,44,300,41,1*64
$GPGSV,4,2,13,21,42,212,42,44,33,171,40,32,32,066,41,04,17,249,37,1*6D
$GPGSV,4,3,13,25,14,058,36,17,12,308,36,10,09,117,39,19,07,332,35,1*6E
$GPGSV,4,4,13,12,05,023,35,1*57
$GLGSV,2,1,07,65,66,031,36,66,45,288,20,81,45,281,31,75,36,098,33,1*7E
$GLGSV,2,2,07,88,26,215,31,74,25,036,33,82,21,333,36,1*41
$GAGSV,3,1,10,06,82,260,42,04,69,059,42,09,56,250,42,36,54,284,39,7*74
$GAGSV,3,2,10,11,46,197,36,10,24,176,36,34,14,325,35,21,13,051,31,7*7E
$GAGSV,3,3,10,19,11,065,22,12,04,165,19,7*74
$GBGSV,3,1,12,32,81,348,39,58,75,068,,23,35,125,33,41,34,088,32,1*79
$GBGSV,3,2,12,25,31,061,34,20,28,280,33,29,26,295,32,30,23,235,31,1*77
$GBGSV,3,3,12,40,12,304,,48,08,277,21,37,08,170,,07,02,313,18,1*77
$GNRMC,185154.000,A,4910.428642,N,12304.402770,W,0.01,0.00,091024,,,D,V*1E
$GNVTG,0.00,T,,M,0.01,N,0.02,K,D*25
$GNGGA,185155.000,4910.428636,N,12304.402806,W,2,34,0.46,5.896,M,-16.817,M,,*40
$GNGLL,4910.428636,N,12304.402806,W,185155.000,A,D*50
$GNGSA,A,3,28,02,31,03,21,32,04,25,17,10,19,12,0.83,0.46,0.69,1*03
$GNGSA,A,3,65,81,75,88,74,82,,,,,,,0.83,0.46,0.69,2*05
$GNGSA,A,3,06,04,09,36,11,10,34,21,19,,,,0.83,0.46,0.69,3*06
$GNGSA,A,3,32,23,41,25,20,29,30,,,,,,0.83,0.46,0.69,4*0A
$GPGSV,4,1,13,28,58,091,42,02,50,237,42,31,50,158,43,03,44,300,41,1*64
$GPGSV,4,2,13,21,42,212,42,44,33,171,40,32,32,066,41,04,17,249,37,1*6D
$GPGSV,4,3,13,25,14,058,36,17,12,308,36,10,09,117,39,19,07,332,35,1*6E
$GPGSV,4,4,13,12,05,023,35,1*57
$GLGSV,2,1,07,65,66,031,36,66,45,288,,81,45,281,31,75,36,098,34,1*7B
$GLGSV,2,2,07,88,26,215,31,74,25,036,32,82,21,333,36,1*40
$GAGSV,3,1,10,06,82,260,42,04,69,059,42,09,56,250,42,36,54,284,39,7*74
$GAGSV,3,2,10,11,46,197,36,10,24,176,36,34,14,325,35,21,13,051,31,7*7E
$GAGSV,3,3,10,19,11,065,22,12,04,165,19,7*74
$GBGSV,3,1,12,32,81,348,39,58,75,068,,23,35,125,33,41,34,088,32,1*79
$GBGSV,3,2,12,25,31,061,34,20,28,280,33,29,26,295,32,30,23,235,31,1*77
$GBGSV,3,3,12,40,12,304,,48,08,277,21,37,08,170,,07,02,313,18,1*77
$GNRMC,185155.000,A,4910.428636,N,12304.402806,W,0.01,0.00,091024,,,D,V*12
$GNVTG,0.00,T,,M,0.01,N,0.02,K,D*25
$GNGGA,185156.000,4910.428588,N,12304.402776,W,2,34,0.46,5.870,M,-16.816,M,,*44
$GNGLL,4910.428588,N,12304.402776,W,185156.000,A,D*5D
$GNGSA,A,3,28,02,31,03,21,32,04,25,17,10,19,12,0.83,0.46,0.69,1*03
$GNGSA,A,3,65,81,75,88,74,82,,,,,,,0.83,0.46,0.69,2*05
$GNGSA,A,3,06,04,09,36,11,10,34,21,19,,,,0.83,0.46,0.69,3*06
$GNGSA,A,3,32,23,41,25,20,29,30,,,,,,0.83,0.46,0.69,4*0A
$GPGSV,4,1,13,28,58,091,42,02,50,237,42,31,50,158,43,03,44,300,41,1*64
$GPGSV,4,2,13,21,42,212,42,44,33,171,40,32,32,066,41,04,17,249,37,1*6D
$GPGSV,4,3,13,25,14,058,36,17,12,308,36,10,09,117,39,19,07,332,35,1*6E
$GPGSV,4,4,13,12,05,023,35,1*57
$GLGSV,2,1,07,65,66,031,36,66,45,288,,81,45,281,31,75,36,098,34,1*7B
$GLGSV,2,2,07,88,26,215,31,74,25,036,32,82,21,333,36,1*40
$GAGSV,3,1,10,06,82,260,42,04,69,059,42,09,56,250,41,36,54,284,39,7*77
$GAGSV,3,2,10,11,46,197,36,10,24,176,36,34,14,325,35,21,13,051,31,7*7E
$GAGSV,3,3,10,19,11,065,22,12,04,165,18,7*75
$GBGSV,3,1,12,32,81,348,39,58,75,068,,23,35,125,33,41,34,088,32,1*79
$GBGSV,3,2,12,25,31,061,34,20,28,280,34,29,26,295,32,30,23,235,31,1*70
$GBGSV,3,3,12,40,12,304,,48,08,277,21,37,08,170,,07,02,313,18,1*77
$GNRMC,185156.000,A,4910.428588,N,12304.402776,W,0.01,0.00,091024,,,D,V*1F
$GNVTG,0.00,T,,M,0.01,N,0.02,K,D*25
$GNGGA,185157.000,4910.428534,N,12304.402782,W,2,34,0.46,5.797,M,-16.817,M,,*4E
$GNGLL,4910.428534,N,12304.402782,W,185157.000,A,D*50
$GNGSA,A,3,28,02,31,03,21,32,04,25,17,10,19,12,0.83,0.46,0.69,1*03
$GNGSA,A,3,65,81,75,88,74,82,,,,,,,0.83,0.46,0.69,2*05
$GNGSA,A,3,06,04,09,36,11,10,34,21,19,,,,0.83,0.46,0.69,3*06
$GNGSA,A,3,32,23,41,25,20,29,30,,,,,,0.83,0.46,0.69,4*0A
$GPGSV,4,1,13,28,58,091,42,02,50,237,42,31,50,158,43,03,44,300,41,1*64
$GPGSV,4,2,13,21,42,212,42,44,33,171,40,32,32,066,41,04,17,249,37,1*6D
$GPGSV,4,3,13,25,14,058,36,17,12,308,36,10,09,117,39,19,07,332,35,1*6E
$GPGSV,4,4,13,12,05,023,35,1*57
$GLGSV,2,1,07,65,66,031,36,66,45,288,,81,45,281,31,75,36,098,34,1*7B
$GLGSV,2,2,07,88,26,215,31,74,25,036,32,82,21,333,36,1*40
$GAGSV,3,1,10,06,82,260,42,04,69,059,42,09,56,250,41,36,54,284,39,7*77
$GAGSV,3,2,10,11,46,197,36,10,24,176,36,34,14,325,35,21,13,051,32,7*7D
$GAGSV,3,3,10,19,11,065,22,12,04,165,18,7*75
$GBGSV,3,1,12,32,81,348,39,58,75,068,,23,35,125,33,41,34,088,32,1*79
$GBGSV,3,2,12,25,31,061,34,20,28,280,34,29,26,295,32,30,23,235,31,1*70
$GBGSV,3,3,12,40,12,304,,48,08,277,21,37,08,170,,07,02,313,17,1*78
$GNRMC,185157.000,A,4910.428534,N,12304.402782,W,0.01,0.00,091024,,,D,V*12
$GNVTG,0.00,T,,M,0.01,N,0.02,K,D*25
$GNGGA,185158.000,4910.428510,N,12304.402764,W,2,34,0.46,5.817,M,-16.816,M,,*49
$GNGLL,4910.428510,N,12304.402764,W,185158.000,A,D*51
$GNGSA,A,3,28,02,31,03,21,32,04,25,17,10,19,12,0.83,0.46,0.69,1*03
$GNGSA,A,3,65,81,75,88,74,82,,,,,,,0.83,0.46,0.69,2*05
$GNGSA,A,3,06,04,09,36,11,10,34,21,19,,,,0.83,0.46,0.69,3*06
$GNGSA,A,3,32,23,41,25,20,29,30,,,,,,0.83,0.46,0.69,4*0A
$GPGSV,4,1,13,28,58,091,42,02,50,237,42,31,50,158,43,03,44,300,41,1*64
$GPGSV,4,2,13,21,42,212,42,44,33,171,40,32,32,066,41,04,17,249,37,1*6D
$GPGSV,4,3,13,25,14,058,36,17,12,308,36,10,09,117,39,19,07,332,35,1*6E
$GPGSV,4,4,13,12,05,023,35,1*57
$GLGSV,2,1,07,65,66,031,36,66,45,288,,81,45,281,32,75,36,098,34,1*78
$GLGSV,2,2,07,88,26,215,31,74,25,036,32,82,21,333,36,1*40
$GAGSV,3,1,10,06,82,260,42,04,69,059,42,09,56,250,41,36,54,284,39,7*77
$GAGSV,3,2,10,11,46,197,36,10,24,176,36,34,14,325,35,21,13,051,32,7*7D
$GAGSV,3,3,10,19,11,065,22,12,04,165,18,7*75
$GBGSV,3,1,12,32,81,348,39,58,75,068,,23,35,125,33,41,34,088,32,1*79
$GBGSV,3,2,12,25,31,061,34,20,28,280,34,29,26,295,32,30,23,235,31,1*70
$GBGSV,3,3,12,40,12,304,,48,08,277,21,37,08,170,,07,02,313,17,1*78
$GNRMC,185158.000,A,4910.428510,N,12304.402764,W,0.01,0.00,091024,,,D,V*13
$GNVTG,0.00,T,,M,0.01,N,0.02,K,D*25
$GNGGA,185159.000,4910.428456,N,12304.402680,W,2,34,0.46,5.841,M,-16.817,M,,*42
$GNGLL,4910.428456,N,12304.402680,W,185159.000,A,D*58
$GNGSA,A,3,28,02,31,03,21,32,04,25,17,10,19,12,0.83,0.46,0.69,1*03
$GNGSA,A,3,65,81,75,88,74,82,,,,,,,0.83,0.46,0.69,2*05
$GNGSA,A,3,06,04,09,36,11,10,34,21,19,,,,0.83,0.46,0.69,3*06
$GNGSA,A,3,32,23,41,25,20,29,30,,,,,,0.83,0.46,0.69,4*0A
$GPGSV,4,1,13,28,58,091,42,02,50,237,42,31,50,158,43,03,44,300,41,1*64
$GPGSV,4,2,13,21,42,212,42,44,33,171,40,32,32,066,41,04,17,249,37,1*6D
$GPGSV,4,3,13,25,14,058,36,17,12,308,36,10,09,117,39,19,07,332,35,1*6E
$GPGSV,4,4,13,12,05,023,35,1*57
$GLGSV,2,1,07,65,66,031,35,66,45,288,,81,45,281,32,75,36,098,34,1*7B
$GLGSV,2,2,07,88,26,215,31,74,25,036,33,82,21,333,36,1*41
$GAGSV,3,1,10,06,82,260,42,04,69,059,42,09,56,250,41,36,54,284,39,7*77
$GAGSV,3,2,10,11,46,197,36,10,24,176,36,34,14,325,35,21,13,051,32,7*7D
$GAGSV,3,3,10,19,11,065,22,12,04,165,18,7*75
$GBGSV,3,1,12,32,81,348,39,58,75,068,,23,35,125,33,41,34,088,32,1*79
$GBGSV,3,2,12,25,31,061,34,20,28,280,34,29,26,295,32,30,23,235,31,1*70
$GBGSV,3,3,12,40,12,304,,48,08,277,21,37,08,170,,07,02,313,17,1*78
$GNRMC,185159.000,A,4910.428456,N,12304.402680,W,0.01,0.00,091024,,,D,V*1A
$GNVTG,0.00,T,,M,0.01,N,0.03,K,D*24
$GNGGA,185200.000,4910.428432,N,12304.402638,W,2,35,0.45,5.808,M,-16.816,M,,*42
$GNGLL,4910.428432,N,12304.402638,W,185200.000,A,D*56
$GNGSA,A,3,28,02,31,03,21,32,04,25,17,10,19,12,0.82,0.45,0.68,1*00
$GNGSA,A,3,65,81,75,88,74,82,,,,,,,0.82,0.45,0.68,2*06
$GNGSA,A,3,06,04,09,36,11,10,34,21,19,,,,0.82,0.45,0.68,3*05
$GNGSA,A,3,32,23,41,25,20,29,30,40,,,,,0.82,0.45,0.68,4*0D
$GPGSV,4,1,13,28,58,091,42,02,50,237,42,31,50,158,43,03,44,300,41,1*64
$GPGSV,4,2,13,21,42,212,42,44,33,171,40,32,32,066,41,04,17,249,37,1*6D
$GPGSV,4,3,13,25,14,058,36,17,12,308,35,10,09,117,39,19,07,332,35,1*6D
$GPGSV,4,4,13,12,05,023,35,1*57
$GLGSV,2,1,07,65,66,031,35,66,45,288,,81,45,281,32,75,36,098,34,1*7B
$GLGSV,2,2,07,88,26,215,31,74,25,036,33,82,21,333,36,1*41
$GAGSV,3,1,10,06,82,260,42,04,69,059,42,09,56,250,41,36,54,284,39,7*77
$GAGSV,3,2,10,11,46,197,36,10,24,176,36,34,14,325,35,21,13,051,32,7*7D
$GAGSV,3,3,10,19,11,065,22,12,04,165,18,7*75
$GBGSV,3,1,12,32,81,348,39,58,75,068,,23,35,125,33,41,34,088,32,1*79
$GBGSV,3,2,12,25,31,061,34,20,28,280,34,29,26,295,31,30,23,235,31,1*73
$GBGSV,3,3,12,40,12,304,25,48,08,277,21,37,08,170,,07,02,313,17,1*7F
$GNRMC,185200.000,A,4910.428432,N,12304.402638,W,0.01,0.00,091024,,,D,V*14
$GNVTG,0.00,T,,M,0.01,N,0.02,K,D*25
$GNGGA,185201.000,4910.428336,N,12304.402548,W,2,35,0.45,5.825,M,-16.816,M,,*4B
$GNGLL,4910.428336,N,12304.402548,W,185201.000,A,D*50
$GNGSA,A,3,28,02,31,03,21,32,04,25,17,10,19,12,0.82,0.45,0.68,1*00
$GNGSA,A,3,65,81,75,88,74,82,,,,,,,0.82,0.45,0.68,2*06
$GNGSA,A,3,06,04,09,36,11,10,34,21,19,,,,0.82,0.45,0.68,3*05
$GNGSA,A,3,32,23,41,25,20,29,30,40,,,,,0.82,0.45,0.68,4*0D
$GPGSV,4,1,13,28,58,091,42,02,50,237,42,31,50,158,43,03,44,300,41,1*64
$GPGSV,4,2,13,21,42,212,42,44,33,171,40,32,32,066,41,04,17,249,37,1*6D
$GPGSV,4,3,13,25,14,058,36,17,12,308,35,10,09,117,39,19,07,332,34,1*6C
$GPGSV,4,4,13,12,05,023,35,1*57
$GLGSV,2,1,07,65,66,031,35,66,45,288,,81,45,281,32,75,36,098,34,1*7B
$GLGSV,2,2,07,88,26,215,31,74,25,036,33,82,21,333,36,1*41
$GAGSV,3,1,10,06,82,260,42,04,69,059,42,09,56,250,41,36,54,284,39,7*77
$GAGSV,3,2,10,11,46,197,36,10,24,176,36,34,14,325,35,21,13,051,33,7*7C
$GAGSV,3,3,10,19,11,065,22,12,04,165,18,7*75
$GBGSV,3,1,12,32,81,348,39,58,75,068,,23,35,125,33,41,34,088,32,1*79
$GBGSV,3,2,12,25,31,061,34,20,28,280,34,29,26,295,31,30,23,235,31,1*73
$GBGSV,3,3,12,40,12,304,26,48,08,277,21,37,08,170,,07,02,313,17,1*7C
$GNRMC,185201.000,A,4910.428336,N,12304.402548,W,0.01,0.00,091024,,,D,V*12
$GNVTG,0.00,T,,M,0.01,N,0.03,K,D*24
$GNGGA,185202.000,4910.428264,N,12304.402476,W,2,35,0.45,5.814,M,-16.817,M,,*41
$GNGLL,4910.428264,N,12304.402476,W,185202.000,A,D*59
$GNGSA,A,3,28,02,31,03,21,32,04,25,17,10,19,12,0.82,0.45,0.68,1*00
$GNGSA,A,3,65,81,75,88,74,82,,,,,,,0.82,0.45,0.68,2*06
$GNGSA,A,3,06,04,09,36,11,10,34,21,19,,,,0.82,0.45,0.68,3*05
$GNGSA,A,3,32,23,41,25,20,29,30,40,,,,,0.82,0.45,0.68,4*0D
$GPGSV,4,1,13,28,58,091,42,02,50,237,42,31,50,158,43,03,44,300,41,1*64
$GPGSV,4,2,13,21,42,212,42,44,33,171,40,32,32,066,41,04,17,249,37,1*6D
$GPGSV,4,3,13,25,14,058,36,17,12,308,35,10,09,117,39,19,07,332,34,1*6C
$GPGSV,4,4,13,12,05,023,35,1*57
$GLGSV,2,1,07,65,66,031,35,66,45,288,,81,45,281,32,75,36,098,34,1*7B
$GLGSV,2,2,07,88,26,215,31,74,25,036,33,82,21,333,36,1*41
$GAGSV,3,1,10,06,82,260,42,04,69,059,42,09,56,250,41,36,54,284,39,7*77
$GAGSV,3,2,10,11,46,197,36,10,24,176,36,34,14,325,35,21,13,051,33,7*7C
$GAGSV,3,3,10,19,11,065,22,12,04,165,18,7*75
$GBGSV,3,1,12,32,81,348,39,58,75,068,,23,35,125,33,41,34,088,32,1*79
$GBGSV,3,2,12,25,31,061,35,20,28,280,33,29,26,295,31,30,23,235,31,1*75
$GBGSV,3,3,12,40,12,304,25,48,08,277,21,37,08,170,29,07,02,313,17,1*74
$GNRMC,185202.000,A,4910.428264,N,12304.402476,W,0.01,0.00,091024,,,D,V*1B
$GNVTG,0.00,T,,M,0.01,N,0.02,K,D*25
$GNGGA,185203.000,4910.428168,N,12304.402368,W,2,35,0.45,5.875,M,-16.817,M,,*40
$GNGLL,4910.428168,N,12304.402368,W,185203.000,A,D*5F
$GNGSA,A,3,28,02,31,03,21,32,04,25,17,10,19,12,0.82,0.45,0.68,1*00
$GNGSA,A,3,65,81,75,88,74,82,,,,,,,0.82,0.45,0.68,2*06
$GNGSA,A,3,06,04,09,36,11,10,34,21,19,,,,0.82,0.45,0.68,3*05
$GNGSA,A,3,32,23,41,25,20,29,30,40,,,,,0.82,0.45,0.68,4*0D
$GPGSV,4,1,13,28,58,091,42,02,50,237,42,31,50,158,43,03,44,300,41,1*64
$GPGSV,4,2,13,21,42,212,42,44,33,171,40,32,32,066,41,04,17,249,37,1*6D
$GPGSV,4,3,13,25,14,058,36,17,12,308,35,10,09,117,38,19,07,332,34,1*6D
$GPGSV,4,4,13,12,05,023,35,1*57
$GLGSV,2,1,07,65,66,031,36,66,45,288,,81,45,281,32,75,36,098,34,1*78
$GLGSV,2,2,07,88,26,215,30,74,25,036,33,82,21,333,36,1*40
$GAGSV,3,1,10,06,82,260,42,04,69,059,42,09,56,250,41,36,54,284,39,7*77
$GAGSV,3,2,10,11,46,197,36,10,24,176,36,34,14,325,35,21,13,051,33,7*7C
$GAGSV,3,3,10,19,11,065,22,12,04,165,18,7*75
$GBGSV,3,1,12,32,81,348,39,58,75,068,,23,35,125,33,41,34,088,33,1*78
