$GNGGA,202246.000,4910.429014,N,12304.399704,W,2,34,0.44,5.616,M,-16.817,M,,*46
$GNGLL,4910.429014,N,12304.399704,W,202246.000,A,D*52
$GNGSA,A,3,03,31,04,26,28,09,06,02,16,21,,,0.75,0.44,0.61,1*06
$GNGSA,A,3,66,76,75,65,82,81,,,,,,,0.75,0.44,0.61,2*04
$GNGSA,A,3,09,06,04,36,34,05,31,11,21,,,,0.75,0.44,0.61,3*0B
$GNGSA,A,3,20,32,23,37,19,35,29,25,41,,,,0.75,0.44,0.61,4*00
$GPGSV,3,1,12,03,81,238,44,31,62,073,41,04,53,277,39,26,33,111,36,1*6B
$GPGSV,3,2,12,44,33,171,37,28,29,052,38,09,20,272,32,06,19,321,37,1*6F
$GPGSV,3,3,12,02,14,208,36,16,13,142,32,21,05,196,22,25,03,023,30,1*62
$GLGSV,2,1,07,66,71,022,38,76,52,125,37,67,33,301,,75,33,039,34,1*79
$GLGSV,2,2,07,65,32,094,25,82,29,285,36,81,14,237,24,1*40
$GAGSV,3,1,10,09,82,335,40,06,66,069,40,04,39,078,37,36,38,235,35,7*76
$GAGSV,3,2,10,34,34,302,35,05,31,270,35,31,24,127,33,11,10,191,27,7*7D
$GAGSV,3,3,10,21,07,023,31,15,02,341,,7*75
$GBGSV,4,1,13,20,61,301,37,32,58,106,35,23,48,077,36,37,44,160,33,1*74
$GBGSV,4,2,13,58,39,066,,19,12,294,29,35,11,317,24,29,10,262,23,1*72
$GBGSV,4,3,13,25,10,037,28,31,08,332,,41,05,112,17,46,03,195,,1*7B
$GBGSV,4,4,13,04,01,261,,1*44
$GNRMC,202246.000,A,4910.429014,N,12304.399704,W,0.01,0.00,091024,,,D,V*10
$GNVTG,0.00,T,,M,0.01,N,0.02,K,D*25
$GNGGA,202247.000,4910.428984,N,12304.399692,W,2,34,0.44,5.637,M,-16.816,M,,*4A
$GNGLL,4910.428984,N,12304.399692,W,202247.000,A,D*5C
$GNGSA,A,3,03,31,04,26,28,09,06,02,16,21,,,0.75,0.44,0.61,1*06
$GNGSA,A,3,66,76,75,65,82,81,,,,,,,0.75,0.44,0.61,2*04
$GNGSA,A,3,09,06,04,36,34,05,31,11,21,,,,0.75,0.44,0.61,3*0B
$GNGSA,A,3,20,32,23,37,19,35,29,25,41,,,,0.75,0.44,0.61,4*00
$GPGSV,3,1,12,03,81,238,44,31,62,073,41,04,53,277,39,26,33,111,36,1*6B
$GPGSV,3,2,12,44,33,171,37,28,29,052,38,09,20,272,32,06,19,321,37,1*6F
$GPGSV,3,3,12,02,14,208,36,16,13,142,33,21,05,196,21,25,03,023,30,1*60
$GLGSV,2,1,07,66,71,022,38,76,52,125,37,67,33,301,,75,33,039,35,1*78
$GLGSV,2,2,07,65,32,094,26,82,29,285,36,81,14,237,25,1*42
$GAGSV,3,1,10,09,82,335,40,06,66,069,40,04,39,078,37,36,38,235,35,7*76
$GAGSV,3,2,10,34,34,302,35,05,31,270,35,31,24,127,33,11,10,191,27,7*7D
$GAGSV,3,3,10,21,07,023,30,15,02,341,,7*74
$GBGSV,4,1,13,20,61,301,38,32,58,106,36,23,48,077,36,37,44,160,34,1*7F
$GBGSV,4,2,13,58,39,066,,19,12,294,29,35,11,317,24,29,10,262,25,1*74
$GBGSV,4,3,13,25,10,037,29,31,08,332,,41,05,112,18,46,03,195,,1*75
$GBGSV,4,4,13,04,01,261,,1*44
$GNRMC,202247.000,A,4910.428984,N,12304.399692,W,0.01,0.00,091024,,,D,V*1E
$GNVTG,0.00,T,,M,0.01,N,0.02,K,D*25
$GNGGA,202248.000,4910.428972,N,12304.399692,W,2,34,0.44,5.590,M,-16.816,M,,*42
$GNGLL,4910.428972,N,12304.399692,W,202248.000,A,D*5A
$GNGSA,A,3,03,31,04,26,28,09,06,02,16,21,,,0.75,0.44,0.61,1*06
$GNGSA,A,3,66,76,75,65,82,81,,,,,,,0.75,0.44,0.61,2*04
$GNGSA,A,3,09,06,04,36,34,05,31,11,21,,,,0.75,0.44,0.61,3*0B
$GNGSA,A,3,20,32,23,37,19,35,29,25,41,,,,0.75,0.44,0.61,4*00
$GPGSV,3,1,12,03,81,238,44,31,62,073,41,04,53,277,39,26,33,111,36,1*6B
$GPGSV,3,2,12,44,33,171,37,28,29,052,38,09,20,272,32,06,19,321,37,1*6F
$GPGSV,3,3,12,02,14,208,36,16,13,142,33,21,05,196,21,25,03,023,30,1*60
$GLGSV,2,1,07,66,71,022,38,76,52,125,37,67,33,301,,75,33,039,35,1*78
$GLGSV,2,2,07,65,32,094,26,82,29,285,36,81,14,237,25,1*42
$GAGSV,3,1,10,09,82,335,40,06,66,069,40,04,39,078,37,36,38,235,35,7*76
$GAGSV,3,2,10,34,34,302,35,05,31,270,35,31,24,127,33,11,10,191,27,7*7D
$GAGSV,3,3,10,21,07,023,30,15,02,341,,7*74
$GBGSV,4,1,13,20,61,301,37,32,58,106,36,23,48,077,36,37,44,160,34,1*70
$GBGSV,4,2,13,58,39,066,,19,12,294,29,35,11,317,22,29,10,262,21,1*76
$GBGSV,4,3,13,25,10,037,28,31,08,332,,41,05,112,18,46,03,195,,1*74
$GBGSV,4,4,13,04,01,261,,1*44
$GNRMC,202248.000,A,4910.428972,N,12304.399692,W,0.01,0.00,091024,,,D,V*18
$GNVTG,0.00,T,,M,0.01,N,0.02,K,D*25
$GNGGA,202249.000,4910.429002,N,12304.399662,W,2,34,0.44,5.569,M,-16.816,M,,*45
$GNGLL,4910.429002,N,12304.399662,W,202249.000,A,D*5B
$GNGSA,A,3,03,31,04,26,28,09,06,02,16,21,,,0.75,0.44,0.61,1*06
$GNGSA,A,3,66,76,75,65,82,81,,,,,,,0.75,0.44,0.61,2*04
$GNGSA,A,3,09,06,04,36,34,05,31,11,21,,,,0.75,0.44,0.61,3*0B
$GNGSA,A,3,20,32,23,37,19,35,25,29,41,,,,0.75,0.44,0.61,4*00
$GPGSV,3,1,12,03,81,238,44,31,62,073,41,04,53,277,39,26,33,111,36,1*6B
$GPGSV,3,2,12,44,33,171,37,28,29,052,38,09,20,272,32,06,19,321,37,1*6F
$GPGSV,3,3,12,02,14,208,36,16,13,142,33,21,05,196,21,25,03,023,29,1*68
$GLGSV,2,1,06,66,71,022,38,76,52,125,37,75,33,039,35,65,32,094,26,1*71
$GLGSV,2,2,06,82,29,285,36,81,14,237,25,1*78
$GAGSV,3,1,10,09,82,335,40,06,66,069,40,04,39,078,37,36,38,235,35,7*76
$GAGSV,3,2,10,34,34,302,35,05,31,270,35,31,24,127,33,11,10,191,27,7*7D
$GAGSV,3,3,10,21,07,023,30,15,02,341,,7*74
$GBGSV,4,1,13,20,61,301,37,32,58,106,36,23,48,077,36,37,44,160,34,1*70
$GBGSV,4,2,13,58,39,066,,19,12,294,29,35,11,317,23,25,10,037,28,1*70
$GBGSV,4,3,13,29,10,262,24,31,08,332,,41,05,112,18,46,03,195,,1*76
$GBGSV,4,4,13,04,01,261,,1*44
$GNRMC,202249.000,A,4910.429002,N,12304.399662,W,0.01,0.00,091024,,,D,V*19
$GNVTG,0.00,T,,M,0.01,N,0.02,K,D*25
$GNGGA,202250.000,4910.429050,N,12304.399668,W,2,34,0.44,5.530,M,-16.816,M,,*4C
$GNGLL,4910.429050,N,12304.399668,W,202250.000,A,D*5E
$GNGSA,A,3,03,31,04,26,28,09,06,02,16,21,,,0.75,0.44,0.61,1*06
$GNGSA,A,3,66,76,75,65,82,81,,,,,,,0.75,0.44,0.61,2*04
$GNGSA,A,3,09,06,04,36,34,05,31,11,21,,,,0.75,0.44,0.61,3*0B
$GNGSA,A,3,20,32,23,37,19,35,29,25,41,,,,0.75,0.44,0.61,4*00
$GPGSV,3,1,12,03,81,238,44,31,62,073,42,04,53,277,39,26,33,111,36,1*68
$GPGSV,3,2,12,44,33,171,37,28,29,052,38,09,20,272,32,06,19,321,37,1*6F
$GPGSV,3,3,12,02,14,208,36,16,13,142,33,21,05,196,20,25,03,023,29,1*69
$GLGSV,2,1,07,66,71,022,38,76,52,125,37,67,33,301,,75,33,039,35,1*78
$GLGSV,2,2,07,65,32,094,26,82,29,285,36,81,12,236,26,1*46
$GAGSV,3,1,10,09,82,335,40,06,66,069,40,04,39,078,37,36,38,235,35,7*76
$GAGSV,3,2,10,34,34,302,35,05,31,270,35,31,24,127,33,11,10,191,26,7*7C
$GAGSV,3,3,10,21,07,023,30,15,02,341,,7*74
$GBGSV,4,1,13,20,61,301,38,32,58,106,36,23,48,077,36,37,44,160,34,1*7F
$GBGSV,4,2,13,58,39,066,,19,12,294,29,35,11,317,22,29,10,262,25,1*72
$GBGSV,4,3,13,25,10,037,28,31,08,332,,41,05,112,18,46,03,195,,1*74
$GBGSV,4,4,13,04,01,261,,1*44
$GNRMC,202250.000,A,4910.429050,N,12304.399668,W,0.01,0.00,091024,,,D,V*1C
$GNVTG,0.00,T,,M,0.01,N,0.02,K,D*25
$GNGGA,202251.000,4910.429098,N,12304.399644,W,2,34,0.44,5.460,M,-16.817,M,,*42
$GNGLL,4910.429098,N,12304.399644,W,202251.000,A,D*55
$GNGSA,A,3,03,31,04,26,28,09,06,02,16,21,,,0.75,0.44,0.61,1*06
$GNGSA,A,3,66,76,75,65,82,81,,,,,,,0.75,0.44,0.61,2*04
$GNGSA,A,3,09,06,04,36,34,05,31,11,21,,,,0.75,0.44,0.61,3*0B
$GNGSA,A,3,20,32,23,37,19,35,29,25,41,,,,0.75,0.44,0.61,4*00
$GPGSV,3,1,12,03,81,238,44,31,62,073,42,04,53,277,39,26,33,111,36,1*68
$GPGSV,3,2,12,44,33,171,37,28,29,052,38,09,20,272,33,06,19,321,37,1*6E
$GPGSV,3,3,12,02,14,208,36,16,13,142,33,21,05,196,20,25,03,023,29,1*69
$GLGSV,2,1,07,66,71,022,38,76,52,125,37,67,33,301,,75,33,039,35,1*78
$GLGSV,2,2,07,65,32,094,25,82,29,283,36,81,12,236,26,1*43
$GAGSV,3,1,10,09,82,335,40,06,66,069,40,04,39,078,37,36,38,235,35,7*76
$GAGSV,3,2,10,34,34,302,35,05,31,270,35,31,24,127,33,11,10,191,27,7*7D
$GAGSV,3,3,10,21,07,023,30,15,02,341,,7*74
$GBGSV,4,1,13,20,61,301,38,32,58,106,36,23,48,077,36,37,44,160,34,1*7F
$GBGSV,4,2,13,58,39,066,,19,12,294,29,35,11,317,21,29,10,262,24,1*70
$GBGSV,4,3,13,25,10,037,28,31,08,332,,41,05,112,18,46,03,195,,1*74
$GBGSV,4,4,13,04,01,261,,1*44
$GNRMC,202251.000,A,4910.429098,N,12304.399644,W,0.01,0.00,091024,,,D,V*17
$GNVTG,0.00,T,,M,0.01,N,0.03,K,D*24
$GNGGA,202252.000,4910.429152,N,12304.399638,W,2,34,0.44,5.448,M,-16.816,M,,*46
$GNGLL,4910.429152,N,12304.399638,W,202252.000,A,D*5A
$GNGSA,A,3,03,31,04,26,28,09,06,02,16,21,,,0.75,0.44,0.61,1*06
$GNGSA,A,3,66,76,75,65,82,81,,,,,,,0.75,0.44,0.61,2*04
$GNGSA,A,3,09,06,04,36,34,05,31,11,21,,,,0.75,0.44,0.61,3*0B
$GNGSA,A,3,20,32,23,37,19,35,29,25,41,,,,0.75,0.44,0.61,4*00
$GPGSV,3,1,12,03,81,238,44,31,62,073,42,04,53,277,39,26,33,111,36,1*68
$GPGSV,3,2,12,44,33,171,37,28,29,052,38,09,20,272,33,06,19,321,37,1*6E
$GPGSV,3,3,12,02,14,208,36,16,13,142,33,21,05,196,20,25,03,023,29,1*69
$GLGSV,2,1,07,66,71,022,38,76,52,125,37,67,33,301,,75,33,039,35,1*78
