$GNRMC,230136.000,A,4910.428990,N,12304.401936,W,0.01,114.98,091024,,,D,V*1D
$GNGGA,230136.000,4910.428990,N,12304.401936,W,2,58,0.43,3.532,M,-16.817,M,,*40
$GNVTG,114.98,T,,M,0.01,N,0.01,K,D*23
$GNGSA,A,3,09,04,07,16,30,20,27,26,11,03,08,,0.72,0.43,0.58,1*08
$GNGSA,A,3,67,77,68,78,76,85,69,,,,,,0.72,0.43,0.58,2*0E
$GNGSA,A,3,05,24,31,09,03,06,25,15,13,34,,,0.72,0.43,0.58,3*07
$GNGSA,A,3,19,20,37,36,38,08,22,,,,,,0.72,0.43,0.58,4*03
$GPGSV,4,1,13,09,88,278,46,04,56,116,41,07,55,257,43,16,42,062,42,1*62
$GPGSV,4,2,13,30,23,253,38,20,20,317,35,27,15,102,36,26,13,044,35,1*69
$GPGSV,4,3,13,11,10,295,34,03,09,174,33,08,06,132,31,195,03,290,26,1*5C
$GPGSV,4,4,13,06,03,256,25,1*55
$GPGSV,2,1,08,09,88,278,35,04,56,116,34,30,23,253,30,27,15,102,26,8*61
$GPGSV,2,2,08,26,13,044,25,11,10,295,24,03,09,174,24,08,06,132,18,8*64
$GLGSV,2,1,07,67,65,139,29,77,62,044,20,68,59,321,33,78,52,212,31,1*71
$GLGSV,2,2,07,76,15,038,31,85,10,004,25,69,09,319,27,1*44
$GAGSV,3,1,10,05,83,306,41,24,56,146,40,31,43,061,37,09,40,115,40,7*76
$GAGSV,3,2,10,03,29,297,36,06,17,116,35,25,17,192,37,15,14,295,30,7*71
$GAGSV,3,3,10,13,07,344,29,34,05,248,31,7*71
$GAGSV,3,1,10,05,83,306,32,24,56,146,34,31,43,061,30,09,40,115,29,1*7F
$GAGSV,3,2,10,03,29,297,26,25,17,192,20,06,17,116,24,15,14,295,24,1*75
$GAGSV,3,3,10,13,07,344,21,34,05,248,17,1*7B
$GBGSV,3,1,10,46,70,204,,19,69,274,40,20,48,161,36,37,48,060,37,1*73
$GBGSV,3,2,10,22,20,314,,36,19,226,30,38,16,331,27,57,08,046,,1*7A
$GBGSV,3,3,10,08,07,341,22,11,03,015,21,1*7A
$GBGSV,2,1,06,19,69,274,32,20,48,161,34,37,48,060,32,22,20,314,24,5*72
$GBGSV,2,2,06,36,19,226,24,38,16,331,21,5*77
$GNGLL,4910.428990,N,12304.401936,W,230136.000,A,D*5A
$GNRMC,230137.000,A,4910.428972,N,12304.401870,W,0.01,114.98,091024,,,D,V*13
$GNGGA,230137.000,4910.428972,N,12304.401870,W,2,59,0.43,3.569,M,-16.816,M,,*40
$GNVTG,114.98,T,,M,0.01,N,0.01,K,D*23
$GNGSA,A,3,09,04,07,16,30,20,27,26,11,03,08,,0.72,0.43,0.58,1*08
$GNGSA,A,3,67,77,68,78,76,85,69,,,,,,0.72,0.43,0.58,2*0E
$GNGSA,A,3,05,24,31,09,03,06,25,15,13,34,,,0.72,0.43,0.58,3*07
$GNGSA,A,3,19,37,20,22,36,38,08,,,,,,0.72,0.43,0.58,4*03
$GPGSV,4,1,13,09,88,278,46,04,56,116,41,07,55,257,43,16,42,062,42,1*62
$GPGSV,4,2,13,30,23,253,38,20,20,317,35,27,15,102,36,26,13,044,35,1*69
$GPGSV,4,3,13,11,10,295,34,03,09,174,33,08,06,132,31,195,03,290,26,1*5C
$GPGSV,4,4,13,06,03,256,26,1*56
$GPGSV,2,1,08,09,88,278,35,04,56,116,34,30,23,253,30,27,15,102,26,8*61
$GPGSV,2,2,08,26,13,044,25,11,10,295,24,03,09,174,24,08,06,132,18,8*64
$GLGSV,2,1,08,67,65,139,29,77,62,044,20,68,59,321,33,78,52,212,30,1*7F
$GLGSV,2,2,08,76,15,038,31,66,12,139,,85,10,004,25,69,09,319,27,1*73
$GAGSV,3,1,10,05,83,306,41,24,56,146,40,31,43,061,37,09,40,115,40,7*76
$GAGSV,3,2,10,03,29,297,36,06,17,116,35,25,17,192,37,15,14,295,30,7*71
$GAGSV,3,3,10,13,07,344,28,34,05,248,31,7*70
$GAGSV,3,1,10,05,83,306,32,24,56,146,34,31,43,061,30,09,40,115,29,1*7F
$GAGSV,3,2,10,03,29,297,26,25,17,192,20,06,17,116,24,15,14,295,24,1*75
$GAGSV,3,3,10,13,07,344,21,34,05,248,17,1*7B
$GBGSV,3,1,10,46,70,204,,19,69,274,40,37,48,060,37,20,48,161,36,1*73
$GBGSV,3,2,10,22,20,314,25,36,19,226,30,38,16,331,27,57,08,046,,1*7D
$GBGSV,3,3,10,08,07,341,22,11,03,015,21,1*7A
$GBGSV,2,1,06,19,69,274,32,20,48,161,34,37,48,060,32,22,20,314,24,5*72
$GBGSV,2,2,06,36,19,226,24,38,16,331,21,5*77
$GNGLL,4910.428972,N,12304.401870,W,230137.000,A,D*54
$GNRMC,230138.000,A,4910.428960,N,12304.401834,W,0.01,114.98,091024,,,D,V*1F
$GNGGA,230138.000,4910.428960,N,12304.401834,W,2,59,0.43,3.645,M,-16.816,M,,*41
$GNVTG,114.98,T,,M,0.01,N,0.01,K,D*23
$GNGSA,A,3,09,04,07,16,30,20,27,26,11,03,08,,0.72,0.43,0.58,1*08
$GNGSA,A,3,67,77,68,78,76,85,69,,,,,,0.72,0.43,0.58,2*0E
$GNGSA,A,3,05,24,31,09,03,06,25,15,13,34,,,0.72,0.43,0.58,3*07
$GNGSA,A,3,19,37,20,22,36,38,08,,,,,,0.72,0.43,0.58,4*03
$GPGSV,4,1,13,09,88,278,46,04,56,116,41,07,55,257,43,16,42,062,42,1*62
$GPGSV,4,2,13,30,23,253,38,20,20,317,35,27,15,102,36,26,13,044,35,1*69
$GPGSV,4,3,13,11,10,295,34,03,09,174,33,08,06,132,31,195,03,290,24,1*5E
$GPGSV,4,4,13,06,03,256,26,1*56
$GPGSV,2,1,08,09,88,278,35,04,56,116,34,30,23,253,30,27,15,102,26,8*61
$GPGSV,2,2,08,26,13,044,25,11,10,295,24,03,09,174,24,08,06,132,18,8*64
$GLGSV,2,1,08,67,65,139,29,77,62,044,20,68,59,321,33,78,52,212,30,1*7F
$GLGSV,2,2,08,76,15,038,31,85,10,004,25,69,09,319,27,84,07,314,,1*76
$GAGSV,3,1,10,05,83,306,41,24,56,146,40,31,43,061,37,09,40,115,40,7*76
$GAGSV,3,2,10,03,29,297,36,06,17,116,35,25,17,192,37,15,14,295,30,7*71
$GAGSV,3,3,10,13,07,344,28,34,05,248,31,7*70
$GAGSV,3,1,10,05,83,306,32,24,56,146,34,31,43,061,30,09,40,115,29,1*7F
$GAGSV,3,2,10,03,29,297,26,25,17,192,20,06,17,116,24,15,14,295,24,1*75
$GAGSV,3,3,10,13,07,344,21,34,05,248,17,1*7B
$GBGSV,3,1,10,46,70,204,,19,69,274,40,37,48,060,37,20,48,161,36,1*73
$GBGSV,3,2,10,22,20,314,25,36,19,226,30,38,16,331,27,57,08,046,,1*7D
$GBGSV,3,3,10,08,07,341,22,11,03,015,21,1*7A
$GBGSV,2,1,06,19,69,274,32,20,48,161,34,37,48,060,32,22,20,314,24,5*72
$GBGSV,2,2,06,36,19,226,24,38,16,331,21,5*77
$GNGLL,4910.428960,N,12304.401834,W,230138.000,A,D*58
$GNRMC,230139.000,A,4910.428978,N,12304.401768,W,0.01,114.98,091024,,,D,V*11
$GNGGA,230139.000,4910.428978,N,12304.401768,W,2,59,0.43,3.690,M,-16.817,M,,*46
$GNVTG,114.98,T,,M,0.01,N,0.01,K,D*23
$GNGSA,A,3,09,04,07,16,30,20,27,26,11,03,08,,0.72,0.43,0.58,1*08
$GNGSA,A,3,67,77,68,78,76,85,69,,,,,,0.72,0.43,0.58,2*0E
$GNGSA,A,3,05,24,31,09,03,06,25,15,13,34,,,0.72,0.43,0.58,3*07
$GNGSA,A,3,19,37,20,22,36,38,08,,,,,,0.72,0.43,0.58,4*03
$GPGSV,4,1,13,09,88,278,46,04,56,116,41,07,55,257,43,16,42,062,42,1*62
$GPGSV,4,2,13,30,23,253,38,20,20,317,35,27,15,102,36,26,13,044,35,1*69
$GPGSV,4,3,13,11,10,295,34,03,09,174,33,08,06,132,31,06,03,256,25,1*6E
$GPGSV,4,4,13,195,03,290,26,1*67
$GPGSV,2,1,08,09,88,278,35,04,56,116,34,30,23,253,30,27,15,102,26,8*61
$GPGSV,2,2,08,26,13,044,25,11,10,295,24,03,09,174,24,08,06,132,18,8*64
$GLGSV,3,1,09,67,65,139,29,77,62,044,20,68,59,321,33,78,52,212,30,1*7F
$GLGSV,3,2,09,76,15,038,31,85,10,004,25,69,09,319,27,84,07,314,,1*76
$GLGSV,3,3,09,79,02,216,,1*48
$GAGSV,3,1,10,05,83,306,41,24,56,146,40,31,43,061,37,09,40,115,40,7*76
$GAGSV,3,2,10,03,29,297,36,06,17,116,35,25,17,192,37,15,14,295,30,7*71
$GAGSV,3,3,10,13,07,344,28,34,05,248,31,7*70
$GAGSV,3,1,10,05,83,306,32,24,56,146,34,31,43,061,30,09,40,115,29,1*7F
$GAGSV,3,2,10,03,29,297,26,25,17,192,20,06,17,116,24,15,14,295,24,1*75
$GAGSV,3,3,10,13,07,344,21,34,05,248,16,1*7A
$GBGSV,3,1,12,46,70,204,,19,69,274,40,37,48,060,37,20,48,161,36,1*71
$GBGSV,3,2,12,22,20,314,26,36,19,226,30,38,16,331,27,57,08,046,,1*7C
$GBGSV,3,3,12,08,07,341,22,11,03,015,20,43,02,035,,04,01,261,,1*7A
$GBGSV,2,1,06,19,69,274,32,20,48,161,33,37,48,060,32,22,20,314,24,5*75
$GBGSV,2,2,06,36,19,226,24,38,16,331,21,5*77
$GNGLL,4910.428978,N,12304.401768,W,230139.000,A,D*56
$GNRMC,230140.000,A,4910.428960,N,12304.401702,W,0.01,114.98,091024,,,D,V*1A
$GNGGA,230140.000,4910.428960,N,12304.401702,W,2,59,0.43,3.716,M,-16.817,M,,*42
$GNVTG,114.98,T,,M,0.01,N,0.02,K,D*20
$GNGSA,A,3,09,04,07,16,30,20,27,26,11,03,08,,0.72,0.43,0.58,1*08
$GNGSA,A,3,67,77,68,78,76,85,69,,,,,,0.72,0.43,0.58,2*0E
$GNGSA,A,3,05,24,31,09,03,06,25,15,13,34,,,0.72,0.43,0.58,3*07
$GNGSA,A,3,19,20,37,22,36,38,08,,,,,,0.72,0.43,0.58,4*03
$GPGSV,4,1,13,09,88,278,46,04,56,116,41,07,55,257,43,16,42,062,42,1*62
$GPGSV,4,2,13,30,23,253,38,20,20,317,35,27,15,102,36,26,13,044,35,1*69
$GPGSV,4,3,13,11,10,295,34,03,09,174,33,08,06,132,31,06,03,256,25,1*6E
$GPGSV,4,4,13,195,03,290,25,1*64
$GPGSV,2,1,08,09,88,278,35,04,56,116,34,30,23,253,30,27,15,102,26,8*61
$GPGSV,2,2,08,26,13,044,25,11,10,295,24,03,09,174,24,08,06,132,18,8*64
$GLGSV,2,1,08,67,65,139,29,77,62,044,20,68,59,321,33,78,52,212,30,1*7F
$GLGSV,2,2,08,76,15,038,31,85,10,004,26,69,09,319,27,79,02,216,,1*71
$GAGSV,3,1,10,05,83,306,41,24,56,146,40,31,42,060,37,09,40,115,40,7*76
$GAGSV,3,2,10,03,29,297,36,06,17,116,35,25,17,192,37,15,14,295,30,7*71
$GAGSV,3,3,10,13,07,344,28,34,05,248,31,7*70
$GAGSV,3,1,10,05,83,306,32,24,56,146,34,31,42,060,30,09,40,115,29,1*7F
$GAGSV,3,2,10,03,29,297,26,25,17,192,20,06,17,116,24,15,14,295,24,1*75
$GAGSV,3,3,10,13,07,344,21,34,05,248,16,1*7A
$GBGSV,3,1,12,46,70,204,,19,69,274,40,20,48,161,36,37,48,060,37,1*71
$GBGSV,3,2,12,22,20,314,25,36,19,226,30,38,16,331,27,57,08,046,,1*7F
$GBGSV,3,3,12,08,07,341,22,11,03,015,20,43,02,035,,04,01,261,,1*7A
$GBGSV,2,1,06,19,69,274,32,20,48,161,33,37,48,060,32,22,20,314,24,5*75
$GBGSV,2,2,06,36,19,226,24,38,16,331,21,5*77
$GNGLL,4910.428960,N,12304.401702,W,230140.000,A,D*5D
$GNRMC,230141.000,A,4910.428984,N,12304.401666,W,0.01,114.98,091024,,,D,V*12
$GNGGA,230141.000,4910.428984,N,12304.401666,W,2,59,0.43,3.763,M,-16.816,M,,*49
$GNVTG,114.98,T,,M,0.01,N,0.02,K,D*20
$GNGSA,A,3,09,04,07,16,30,20,27,26,11,03,08,,0.72,0.43,0.58,1*08
$GNGSA,A,3,67,77,68,78,76,85,69,,,,,,0.72,0.43,0.58,2*0E
$GNGSA,A,3,05,24,31,09,03,06,25,15,13,34,,,0.72,0.43,0.58,3*07
$GNGSA,A,3,19,37,20,22,36,38,08,,,,,,0.72,0.43,0.58,4*03
$GPGSV,4,1,13,09,88,278,46,04,56,116,41,07,55,257,43,16,42,062,42,1*62
$GPGSV,4,2,13,30,23,253,38,20,20,317,34,27,15,102,36,26,13,044,35,1*68
$GPGSV,4,3,13,11,10,295,34,03,09,174,33,08,06,132,31,195,03,290,25,1*5F
$GPGSV,4,4,13,06,03,256,25,1*55
$GPGSV,2,1,08,09,88,278,35,04,56,116,34,30,23,253,30,27,15,102,26,8*61
$GPGSV,2,2,08,26,13,044,25,11,10,295,24,03,09,174,24,08,06,132,19,8*65
$GLGSV,2,1,07,67,65,139,29,77,62,044,20,68,59,321,33,78,52,212,30,1*70
$GLGSV,2,2,07,76,15,038,31,85,10,004,26,69,09,319,27,1*47
$GAGSV,3,1,10,05,83,306,41,24,56,146,40,31,42,060,37,09,40,115,40,7*76
$GAGSV,3,2,10,03,29,297,36,06,17,116,35,25,17,192,37,15,14,295,30,7*71
$GAGSV,3,3,10,13,07,344,28,34,05,248,31,7*70
$GAGSV,3,1,10,05,83,306,32,24,56,146,34,31,42,060,30,09,40,115,29,1*7F
$GAGSV,3,2,10,03,29,297,26,25,17,192,20,06,17,116,24,15,14,295,24,1*75
$GAGSV,3,3,10,13,07,344,21,34,05,248,16,1*7A
$GBGSV,3,1,11,19,69,274,40,37,48,060,37,20,48,161,36,22,20,314,27,1*70
$GBGSV,3,2,11,36,19,226,30,38,16,331,27,57,08,046,,08,07,341,22,1*76
$GBGSV,3,3,11,11,03,015,20,43,02,035,,04,01,261,,1*40
$GBGSV,2,1,06,19,69,274,32,20,48,161,33,37,48,060,32,22,20,314,24,5*75
$GBGSV,2,2,06,36,19,226,24,38,16,331,21,5*77
$GNGLL,4910.428984,N,12304.401666,W,230141.000,A,D*55
$GNRMC,230142.000,A,4910.428972,N,12304.401630,W,0.01,114.98,091024,,,D,V*1B
$GNGGA,230142.000,4910.428972,N,12304.401630,W,2,59,0.43,3.787,M,-16.817,M,,*4B
$GNVTG,114.98,T,,M,0.01,N,0.03,K,D*21
$GNGSA,A,3,09,04,07,16,30,20,27,26,11,03,08,,0.72,0.43,0.58,1*08
$GNGSA,A,3,67,77,68,78,76,85,69,,,,,,0.72,0.43,0.58,2*0E
$GNGSA,A,3,05,24,31,09,03,06,25,15,13,34,,,0.72,0.43,0.58,3*07
$GNGSA,A,3,19,37,20,22,36,38,08,,,,,,0.72,0.43,0.58,4*03
$GPGSV,4,1,13,09,88,278,46,04,56,116,41,07,55,257,43,16,42,062,42,1*62
$GPGSV,4,2,13,30,23,253,38,20,20,317,34,27,15,102,36,26,13,044,35,1*68
$GPGSV,4,3,13,11,10,295,34,03,09,174,33,08,06,132,31,06,03,256,25,1*6E
$GPGSV,4,4,13,195,03,290,25,1*64
$GPGSV,2,1,08,09,88,278,35,04,56,116,34,30,23,253,30,27,15,102,26,8*61
$GPGSV,2,2,08,26,13,044,25,11,10,295,24,03,09,174,24,08,06,132,19,8*65
$GLGSV,2,1,08,67,65,139,29,77,62,044,20,68,59,321,33,78,52,212,30,1*7F
$GLGSV,2,2,08,76,15,038,31,85,10,004,26,69,09,319,27,84,07,314,,1*75
$GAGSV,3,1,10,05,83,306,41,24,56,146,40,31,42,060,37,09,40,115,40,7*76
$GAGSV,3,2,10,03,29,297,36,06,17,116,35,25,17,192,37,15,14,295,30,7*71
$GAGSV,3,3,10,13,07,344,28,34,05,248,31,7*70
$GAGSV,3,1,10,05,83,306,32,24,56,146,34,31,42,060,30,09,40,115,30,1*77
$GAGSV,3,2,10,03,29,297,26,25,17,192,20,06,17,116,24,15,14,295,24,1*75
$GAGSV,3,3,10,13,07,344,21,34,05,248,16,1*7A
$GBGSV,3,1,12,46,70,204,,19,69,274,40,37,48,060,37,20,48,161,36,1*71
$GBGSV,3,2,12,22,20,314,28,36,19,226,31,38,16,331,26,57,08,046,,1*72
$GBGSV,3,3,12,08,07,341,22,11,03,015,20,43,02,035,,04,01,261,,1*7A
$GBGSV,2,1,06,19,69,274,32,20,48,161,33,37,48,060,32,22,20,314,24,5*75
$GBGSV,2,2,06,36,19,226,24,38,16,331,21,5*77
$GNGLL,4910.428972,N,12304.401630,W,230142.000,A,D*5C
$GNRMC,230143.000,A,4910.428954,N,12304.401624,W,0.01,114.98,091024,,,D,V*1B
$GNGGA,230143.000,4910.428954,N,12304.401624,W,2,59,0.43,3.846,M,-16.816,M,,*48
$GNVTG,114.98,T,,M,0.01,N,0.02,K,D*20
$GNGSA,A,3,09,04,07,16,30,20,27,26,11,03,08,,0.72,0.43,0.58,1*08
$GNGSA,A,3,67,77,68,78,76,85,69,,,,,,0.72,0.43,0.58,2*0E
$GNGSA,A,3,05,24,31,09,03,06,25,15,13,34,,,0.72,0.43,0.58,3*07
$GNGSA,A,3,19,37,20,22,36,38,08,,,,,,0.72,0.43,0.58,4*03
$GPGSV,4,1,13,09,88,278,46,04,56,116,41,07,55,257,43,16,42,062,42,1*62
$GPGSV,4,2,13,30,23,253,38,20,20,317,34,27,15,102,36,26,13,044,35,1*68
$GPGSV,4,3,13,11,10,295,34,03,09,174,33,08,06,132,31,06,03,256,25,1*6E
$GPGSV,4,4,13,195,03,290,25,1*64
$GPGSV,2,1,08,09,88,278,35,04,56,116,34,30,23,253,30,27,15,102,26,8*61
$GPGSV,2,2,08,26,13,044,25,11,10,295,24,03,09,174,24,08,06,132,19,8*65
$GLGSV,3,1,09,67,65,139,28,77,62,044,21,68,59,321,33,78,52,212,30,1*7F
$GLGSV,3,2,09,76,15,038,31,85,10,004,26,69,09,319,27,84,07,314,,1*75
$GLGSV,3,3,09,79,02,216,,1*48
$GAGSV,3,1,10,05,83,306,41,24,56,146,40,31,42,060,37,09,40,115,40,7*76
$GAGSV,3,2,10,03,29,297,36,06,17,116,35,25,17,192,37,15,14,295,30,7*71
$GAGSV,3,3,10,13,07,344,28,34,04,248,30,7*70
$GAGSV,3,1,10,05,83,306,32,24,56,146,34,31,42,060,30,09,40,115,30,1*77
$GAGSV,3,2,10,03,29,297,27,25,17,192,20,06,17,116,24,15,14,295,24,1*74
$GAGSV,3,3,10,13,07,344,21,34,04,248,16,1*7B
$GBGSV,3,1,12,46,70,204,,19,69,274,40,37,48,060,37,20,48,161,36,1*71
$GBGSV,3,2,12,22,20,314,27,36,19,226,31,38,16,331,25,57,08,046,,1*7E
$GBGSV,3,3,12,08,07,341,22,11,03,015,20,43,02,035,,04,01,261,,1*7A
$GBGSV,2,1,06,19,69,274,32,20,48,161,33,37,48,060,32,22,20,314,24,5*75
$GBGSV,2,2,06,36,19,226,24,38,16,331,21,5*77
$GNGLL,4910.428954,N,12304.401624,W,230143.000,A,D*5C
$GNRMC,230144.000,A,4910.428966,N,12304.401630,W,0.01,114.98,091024,,,D,V*18
$GNGGA,230144.000,4910.428966,N,12304.401630,W,2,57,0.45,3.882,M,-16.816,M,,*4B
$GNVTG,114.98,T,,M,0.01,N,0.02,K,D*20
$GNGSA,A,3,09,04,07,16,30,20,27,26,11,03,08,,0.74,0.45,0.59,1*09
$GNGSA,A,3,67,77,68,78,76,85,69,,,,,,0.74,0.45,0.59,2*0F
$GNGSA,A,3,05,24,31,09,03,25,06,15,13,,,,0.74,0.45,0.59,3*01
$GNGSA,A,3,19,37,20,22,36,38,08,,,,,,0.74,0.45,0.59,4*02
$GPGSV,4,1,13,09,88,278,46,04,56,116,41,07,55,257,43,16,42,062,42,1*62
$GPGSV,4,2,13,30,23,253,38,20,20,317,34,27,15,102,36,26,13,044,35,1*68
$GPGSV,4,3,13,11,10,295,34,03,09,174,34,08,06,132,32,06,03,256,25,1*6A
$GPGSV,4,4,13,195,03,290,25,1*64
$GPGSV,2,1,08,09,88,278,35,04,56,116,35,30,23,253,30,27,15,102,26,8*60
$GPGSV,2,2,08,26,13,044,25,11,10,295,24,03,09,174,24,08,06,132,19,8*65
$GLGSV,2,1,08,67,65,139,28,77,62,044,21,68,59,321,33,78,52,212,30,1*7F
$GLGSV,2,2,08,76,15,038,31,85,10,004,26,69,09,319,27,79,02,216,,1*71
$GAGSV,3,1,10,05,83,306,41,24,56,146,41,31,42,060,37,09,40,115,40,7*77
$GAGSV,3,2,10,03,29,297,36,25,17,192,37,06,17,116,35,15,14,295,30,7*71
$GAGSV,3,3,10,13,07,344,28,34,04,248,31,7*71
$GAGSV,3,1,10,05,83,306,32,24,56,146,34,31,42,060,30,09,40,115,30,1*77
$GAGSV,3,2,10,03,29,297,27,25,17,192,20,06,17,116,24,15,14,295,24,1*74
$GAGSV,3,3,10,13,07,344,21,34,04,248,16,1*7B
$GBGSV,3,1,11,46,70,204,,19,69,274,40,37,48,060,37,20,48,161,36,1*72
$GBGSV,3,2,11,22,20,314,26,36,19,226,31,38,16,331,27,57,08,046,,1*7E
$GBGSV,3,3,11,08,07,341,22,11,03,015,21,43,02,035,,1*48
$GBGSV,2,1,06,19,69,274,32,20,48,161,33,37,48,060,32,22,20,314,24,5*75
$GBGSV,2,2,06,36,19,226,24,38,16,331,21,5*77
$GNGLL,4910.428966,N,12304.401630,W,230144.000,A,D*5F
$GNRMC,230145.000,A,4910.428954,N,12304.401606,W,0.01,114.98,091024,,,D,V*1D
$GNGGA,230145.000,4910.428954,N,12304.401606,W,2,57,0.45,3.978,M,-16.816,M,,*4A
$GNVTG,114.98,T,,M,0.01,N,0.01,K,D*23
$GNGSA,A,3,09,04,07,16,30,20,27,26,11,03,08,,0.74,0.45,0.59,1*09
$GNGSA,A,3,67,77,68,78,76,85,69,,,,,,0.74,0.45,0.59,2*0F
$GNGSA,A,3,05,24,31,09,03,25,06,15,13,,,,0.74,0.45,0.59,3*01
$GNGSA,A,3,19,37,20,22,36,38,08,,,,,,0.74,0.45,0.59,4*02
$GPGSV,4,1,13,09,88,278,46,04,56,116,41,07,55,257,43,16,42,062,42,1*62
$GPGSV,4,2,13,30,23,253,38,20,20,317,34,27,15,102,36,26,13,044,35,1*68
$GPGSV,4,3,13,11,10,295,34,03,09,174,34,08,06,132,32,06,03,256,24,1*6B
$GPGSV,4,4,13,195,03,290,25,1*64
$GPGSV,2,1,08,09,88,278,35,04,56,116,35,30,23,253,30,27,15,102,26,8*60
$GPGSV,2,2,08,26,13,044,25,11,10,295,24,03,09,174,24,08,06,132,19,8*65
$GLGSV,2,1,08,67,65,139,28,77,62,044,21,68,59,321,33,78,52,212,30,1*7F
$GLGSV,2,2,08,76,15,038,31,85,10,004,26,69,09,319,27,79,02,216,,1*71
$GAGSV,3,1,10,05,83,306,41,24,56,146,41,31,42,060,37,09,40,115,40,7*77
$GAGSV,3,2,10,03,29,297,36,25,17,192,37,06,17,116,35,15,14,295,30,7*71
$GAGSV,3,3,10,13,07,344,28,34,04,248,31,7*71
$GAGSV,3,1,10,05,83,306,32,24,56,146,34,31,42,060,30,09,40,115,30,1*77
$GAGSV,3,2,10,03,29,297,27,25,17,192,20,06,17,116,24,15,14,295,24,1*74
$GAGSV,3,3,10,13,07,344,21,34,04,248,16,1*7B
$GBGSV,3,1,11,46,70,204,,19,69,274,40,37,48,060,37,20,48,161,36,1*72
$GBGSV,3,2,11,22,20,314,27,36,19,226,31,38,16,331,26,57,08,046,,1*7E
$GBGSV,3,3,11,08,07,341,23,11,03,015,21,43,02,035,,1*49
$GBGSV,2,1,06,19,69,274,32,20,48,161,33,37,48,060,32,22,20,314,24,5*75
$GBGSV,2,2,06,36,19,226,24,38,16,331,21,5*77
$GNGLL,4910.428954,N,12304.401606,W,230145.000,A,D*5A
$GNRMC,230146.000,A,4910.428954,N,12304.401594,W,0.01,114.98,091024,,,D,V*16
$GNGGA,230146.000,4910.428954,N,12304.401594,W,2,57,0.45,3.988,M,-16.816,M,,*4E
$GNVTG,114.98,T,,M,0.01,N,0.01,K,D*23
$GNGSA,A,3,09,04,07,16,30,20,27,26,11,03,08,,0.74,0.45,0.59,1*09
$GNGSA,A,3,67,77,68,78,76,85,69,,,,,,0.74,0.45,0.59,2*0F
$GNGSA,A,3,05,24,31,09,03,25,06,15,13,,,,0.74,0.45,0.59,3*01
$GNGSA,A,3,19,37,20,22,36,38,08,,,,,,0.74,0.45,0.59,4*02
$GPGSV,4,1,13,09,88,278,46,04,56,116,41,07,55,257,43,16,42,062,42,1*62
$GPGSV,4,2,13,30,23,253,38,20,20,317,34,27,15,102,36,26,13,044,35,1*68
$GPGSV,4,3,13,11,10,295,34,03,09,174,34,08,06,132,32,06,03,256,24,1*6B
$GPGSV,4,4,13,195,03,290,25,1*64
$GPGSV,2,1,08,09,88,278,35,04,56,116,35,30,23,253,30,27,15,102,26,8*60
$GPGSV,2,2,08,26,13,044,25,11,10,295,24,03,09,174,24,08,06,132,19,8*65
$GLGSV,2,1,08,67,65,139,28,77,62,044,20,68,59,321,33,78,52,212,29,1*76
$GLGSV,2,2,08,76,15,038,31,85,10,004,26,69,09,319,27,79,02,216,,1*71
$GAGSV,3,1,10,05,83,306,41,24,56,146,41,31,42,060,37,09,40,115,40,7*77
$GAGSV,3,2,10,03,29,297,36,25,17,192,37,06,17,116,35,15,14,295,30,7*71
$GAGSV,3,3,10,13,07,344,28,34,04,248,31,7*71
$GAGSV,3,1,10,05,83,306,32,24,56,146,34,31,42,060,30,09,40,115,30,1*77
$GAGSV,3,2,10,03,29,297,26,25,17,192,19,06,17,116,24,15,14,295,24,1*7F
$GAGSV,3,3,10,13,07,344,21,34,04,248,16,1*7B
$GBGSV,3,1,11,46,70,204,,19,69,274,40,37,48,060,37,20,48,161,36,1*72
$GBGSV,3,2,11,22,20,314,26,36,19,226,31,38,16,331,25,57,08,046,,1*7C
$GBGSV,3,3,11,08,07,341,23,11,03,015,21,43,02,035,,1*49
$GBGSV,2,1,06,19,69,274,32,20,48,161,33,37,48,060,32,22,20,314,24,5*75
$GBGSV,2,2,06,36,19,226,24,38,16,331,20,5*76
$GNGLL,4910.428954,N,12304.401594,W,230146.000,A,D*51
$GNRMC,230147.000,A,4910.428990,N,12304.401600,W,0.01,114.98,091024,,,D,V*11
$GNGGA,230147.000,4910.428990,N,12304.401600,W,2,57,0.45,3.944,M,-16.817,M,,*48
$GNVTG,114.98,T,,M,0.01,N,0.01,K,D*23
$GNGSA,A,3,09,04,07,16,30,20,27,26,11,03,08,,0.74,0.45,0.59,1*09
$GNGSA,A,3,67,77,68,78,76,85,69,,,,,,0.74,0.45,0.59,2*0F
$GNGSA,A,3,05,24,31,09,03,06,25,15,13,,,,0.74,0.45,0.59,3*01
$GNGSA,A,3,19,20,37,22,36,38,08,,,,,,0.74,0.45,0.59,4*02
$GPGSV,4,1,13,09,88,278,46,04,56,116,41,07,55,257,43,16,42,062,42,1*62
$GPGSV,4,2,13,30,23,253,38,20,20,317,34,27,15,102,36,26,13,044,35,1*68
$GPGSV,4,3,13,11,10,295,34,03,09,174,34,08,06,132,32,195,03,290,25,1*5B
$GPGSV,4,4,13,06,03,256,23,1*53
$GPGSV,2,1,08,09,88,278,35,04,56,116,35,30,23,253,30,27,15,102,26,8*60
$GPGSV,2,2,08,26,13,044,25,11,10,295,24,03,09,174,24,08,06,132,19,8*65
$GLGSV,2,1,07,67,65,139,28,77,62,044,19,68,59,321,34,78,52,212,29,1*74
$GLGSV,2,2,07,76,15,038,31,85,10,004,26,69,09,319,27,1*47
$GAGSV,3,1,10,05,83,306,41,24,56,146,41,31,42,060,37,09,40,115,40,7*77
$GAGSV,3,2,10,03,29,297,36,06,17,116,35,25,17,192,37,15,14,295,29,7*79
$GAGSV,3,3,10,13,07,344,28,34,04,248,31,7*71
$GAGSV,3,1,10,05,83,306,32,24,56,146,34,31,42,060,30,09,40,115,30,1*77
$GAGSV,3,2,10,03,29,297,26,25,17,192,19,06,17,116,24,15,14,295,25,1*7E
$GAGSV,3,3,10,13,07,344,21,34,04,248,16,1*7B
$GBGSV,3,1,11,46,70,204,,19,69,274,40,20,48,161,36,37,48,060,37,1*72
$GBGSV,3,2,11,22,20,314,25,36,19,226,31,38,16,331,25,57,08,046,,1*7F
$GBGSV,3,3,11,08,07,341,23,11,03,015,21,43,02,035,,1*49
$GBGSV,2,1,06,19,69,274,32,20,48,161,33,37,48,060,32,22,20,314,24,5*75
$GBGSV,2,2,06,36,19,226,24,38,16,331,21,5*77
$GNGLL,4910.428990,N,12304.401600,W,230147.000,A,D*56
$GNRMC,230148.000,A,4910.429014,N,12304.401534,W,0.01,114.98,091024,,,D,V*1E
$GNGGA,230148.000,4910.429014,N,12304.401534,W,2,57,0.45,3.929,M,-16.816,M,,*4D
$GNVTG,114.98,T,,M,0.01,N,0.02,K,D*20
$GNGSA,A,3,09,04,07,16,30,20,27,26,11,03,08,,0.74,0.45,0.59,1*09
$GNGSA,A,3,67,77,68,78,76,85,69,,,,,,0.74,0.45,0.59,2*0F
$GNGSA,A,3,05,24,31,09,03,06,25,15,13,,,,0.74,0.45,0.59,3*01
$GNGSA,A,3,19,20,37,22,36,38,08,,,,,,0.74,0.45,0.59,4*02
$GPGSV,4,1,13,09,88,278,46,04,56,116,41,07,55,257,43,16,42,062,42,1*62
$GPGSV,4,2,13,30,23,253,38,20,20,317,34,27,15,102,36,26,13,044,35,1*68
$GPGSV,4,3,13,11,10,295,34,03,09,174,34,08,06,132,32,195,03,290,25,1*5B
$GPGSV,4,4,13,06,03,256,22,1*52
$GPGSV,2,1,08,09,88,278,35,04,56,116,35,30,23,253,30,27,15,102,26,8*60
$GPGSV,2,2,08,26,13,044,25,11,10,295,24,03,09,174,24,08,06,132,19,8*65
$GLGSV,2,1,07,67,64,141,28,77,62,044,19,68,59,321,34,78,52,212,29,1*7A
$GLGSV,2,2,07,76,15,038,31,85,10,004,27,69,09,319,26,1*47
$GAGSV,3,1,10,05,83,306,41,24,56,146,41,31,42,060,37,09,40,115,40,7*77
$GAGSV,3,2,10,03,29,297,36,06,17,116,35,25,17,192,37,15,14,295,29,7*79
$GAGSV,3,3,10,13,07,344,28,34,04,248,31,7*71
$GAGSV,3,1,10,05,83,306,32,24,56,146,34,31,42,060,30,09,40,115,30,1*77
$GAGSV,3,2,10,03,29,297,26,25,17,192,19,06,17,116,24,15,14,295,25,1*7E
$GAGSV,3,3,10,13,07,344,20,34,04,248,16,1*7A
$GBGSV,3,1,10,46,70,204,,19,69,274,40,20,48,161,36,37,48,060,37,1*73
$GBGSV,3,2,10,22,20,314,27,36,19,226,31,38,16,331,25,08,07,341,23,1*7C
$GBGSV,3,3,10,11,03,015,21,43,02,035,,1*70
$GBGSV,2,1,06,19,69,274,32,20,48,161,33,37,48,060,32,22,20,314,24,5*75
$GBGSV,2,2,06,36,19,226,24,38,16,331,21,5*77
$GNGLL,4910.429014,N,12304.401534,W,230148.000,A,D*59
$GNRMC,230149.000,A,4910.429032,N,12304.401576,W,0.01,114.98,091024,,,D,V*1D
$GNGGA,230149.000,4910.429032,N,12304.401576,W,2,57,0.45,3.923,M,-16.816,M,,*44
$GNVTG,114.98,T,,M,0.01,N,0.02,K,D*20
$GNGSA,A,3,09,04,07,16,30,20,27,26,11,03,08,,0.74,0.45,0.59,1*09
$GNGSA,A,3,67,77,68,78,76,85,69,,,,,,0.74,0.45,0.59,2*0F
$GNGSA,A,3,05,24,31,09,03,06,25,15,13,,,,0.74,0.45,0.59,3*01
$GNGSA,A,3,19,20,37,22,36,38,08,,,,,,0.74,0.45,0.59,4*02
$GPGSV,4,1,13,09,88,278,46,04,56,116,41,07,55,257,43,16,42,062,42,1*62
$GPGSV,4,2,13,30,23,253,38,20,20,317,34,27,15,102,36,26,13,044,35,1*68
$GPGSV,4,3,13,11,10,295,34,03,09,174,34,08,06,132,32,195,03,290,25,1*5B
$GPGSV,4,4,13,06,03,256,21,1*51
$GPGSV,2,1,08,09,88,278,35,04,56,116,35,30,23,253,30,27,15,102,26,8*60
$GPGSV,2,2,08,26,13,044,26,11,10,295,24,03,09,174,24,08,06,132,19,8*66
$GLGSV,2,1,07,67,64,141,28,77,62,044,19,68,60,320,34,78,52,212,29,1*71
$GLGSV,2,2,07,76,15,038,30,85,10,004,26,69,09,319,26,1*47
$GAGSV,3,1,10,05,83,306,41,24,56,146,41,31,42,060,37,09,40,115,40,7*77
$GAGSV,3,2,10,03,29,297,36,06,17,116,35,25,17,192,37,15,14,295,29,7*79
$GAGSV,3,3,10,13,07,344,28,34,04,248,31,7*71
$GAGSV,3,1,10,05,83,306,32,24,56,146,34,31,42,060,30,09,40,115,30,1*77
$GAGSV,3,2,10,03,29,297,27,25,17,192,19,06,17,116,24,15,14,295,25,1*7F
$GAGSV,3,3,10,13,07,344,20,34,04,248,16,1*7A
$GBGSV,3,1,10,46,70,204,,19,69,274,40,20,48,161,36,37,48,060,36,1*72
$GBGSV,3,2,10,22,20,314,27,36,19,226,31,38,16,331,25,57,08,046,,1*7C
$GBGSV,3,3,10,08,07,341,22,11,03,015,20,1*7B
$GBGSV,2,1,06,19,69,274,32,20,48,161,33,37,48,060,32,22,20,314,24,5*75
$GBGSV,2,2,06,36,19,226,25,38,16,331,21,5*76
$GNGLL,4910.429032,N,12304.401576,W,230149.000,A,D*5A
$GNRMC,230150.000,A,4910.429056,N,12304.401570,W,0.01,114.98,091024,,,D,V*11
$GNGGA,230150.000,4910.429056,N,12304.401570,W,2,57,0.45,3.907,M,-16.817,M,,*4F
$GNVTG,114.98,T,,M,0.01,N,0.02,K,D*20
$GNGSA,A,3,09,04,07,16,30,20,27,26,11,03,08,,0.74,0.45,0.59,1*09
$GNGSA,A,3,67,77,68,78,76,69,85,,,,,,0.74,0.45,0.59,2*0F
$GNGSA,A,3,05,24,31,09,03,06,25,15,13,,,,0.74,0.45,0.59,3*01
$GNGSA,A,3,19,20,37,22,36,38,08,,,,,,0.74,0.45,0.59,4*02
$GPGSV,4,1,13,09,88,278,46,04,56,116,41,07,55,257,43,16,42,062,42,1*62
$GPGSV,4,2,13,30,23,253,38,20,20,317,34,27,15,102,36,26,13,044,35,1*68
$GPGSV,4,3,13,11,10,295,33,03,09,174,34,08,06,132,32,195,03,290,24,1*5D
$GPGSV,4,4,13,06,03,256,20,1*50
$GPGSV,2,1,08,09,88,278,35,04,56,116,35,30,23,253,30,27,15,102,26,8*60
$GPGSV,2,2,08,26,13,044,26,11,10,295,24,03,09,174,24,08,06,132,19,8*66
$GLGSV,3,1,09,67,64,141,27,77,62,044,19,68,60,320,34,78,52,212,29,1*71
$GLGSV,3,2,09,76,15,038,30,69,11,320,26,85,10,004,26,84,07,314,,1*76
$GLGSV,3,3,09,79,02,216,,1*48
$GAGSV,3,1,10,05,83,306,41,24,56,146,41,31,42,060,37,09,40,115,40,7*77
$GAGSV,3,2,10,03,29,297,36,06,17,116,35,25,17,192,37,15,14,295,29,7*79
$GAGSV,3,3,10,13,07,344,28,34,04,248,31,7*71
$GAGSV,3,1,10,05,83,306,32,24,56,146,34,31,42,060,30,09,40,115,30,1*77
$GAGSV,3,2,10,03,29,297,26,25,17,192,19,06,17,116,24,15,14,295,25,1*7E
$GAGSV,3,3,10,13,07,344,20,34,04,248,16,1*7A
$GBGSV,3,1,10,46,70,204,,19,69,274,40,20,48,161,36,37,48,060,36,1*72
$GBGSV,3,2,10,22,20,314,24,36,19,226,31,38,16,331,26,08,07,341,22,1*7D
$GBGSV,3,3,10,11,03,015,20,43,02,035,,1*71
$GBGSV,2,1,06,19,69,274,32,20,48,161,33,37,48,060,32,22,20,314,24,5*75
$GBGSV,2,2,06,36,19,226,25,38,16,331,21,5*76
$GNGLL,4910.429056,N,12304.401570,W,230150.000,A,D*56
$GNRMC,230151.000,A,4910.429098,N,12304.401570,W,0.01,114.98,091024,,,D,V*12
$GNGGA,230151.000,4910.429098,N,12304.401570,W,2,57,0.45,3.872,M,-16.817,M,,*4F
$GNVTG,114.98,T,,M,0.01,N,0.02,K,D*20
$GNGSA,A,3,09,04,07,16,30,20,27,26,11,03,08,,0.74,0.45,0.59,1*09
$GNGSA,A,3,67,77,68,78,76,69,85,,,,,,0.74,0.45,0.59,2*0F
$GNGSA,A,3,05,24,31,09,03,06,25,15,13,,,,0.74,0.45,0.59,3*01
$GNGSA,A,3,19,37,20,22,36,38,08,,,,,,0.74,0.45,0.59,4*02
$GPGSV,4,1,13,09,88,278,46,04,56,116,41,07,55,257,43,16,42,062,42,1*62
$GPGSV,4,2,13,30,23,253,38,20,20,317,34,27,15,102,36,26,13,044,35,1*68
$GPGSV,4,3,13,11,10,295,33,03,09,174,34,08,06,132,32,195,03,290,25,1*5C
$GPGSV,4,4,13,06,03,256,20,1*50
$GPGSV,2,1,08,09,88,278,35,04,56,116,35,30,23,253,30,27,15,102,26,8*60
$GPGSV,2,2,08,26,13,044,26,11,10,295,24,03,09,174,24,08,06,132,19,8*66
$GLGSV,3,1,09,67,64,141,27,77,62,044,18,68,60,320,34,78,52,212,29,1*70
$GLGSV,3,2,09,76,15,038,30,69,11,320,25,85,10,004,26,84,07,314,,1*75
$GLGSV,3,3,09,79,02,216,,1*48
$GAGSV,3,1,10,05,83,306,41,24,56,146,41,31,42,060,37,09,40,115,40,7*77
$GAGSV,3,2,10,03,29,297,36,06,17,116,35,25,17,192,37,15,14,295,29,7*79
$GAGSV,3,3,10,13,07,344,28,34,04,248,31,7*71
$GAGSV,3,1,10,05,83,306,32,24,56,146,34,31,42,060,30,09,40,115,30,1*77
$GAGSV,3,2,10,03,29,297,26,25,17,192,19,06,17,116,24,15,14,295,26,1*7D
$GAGSV,3,3,10,13,07,344,20,34,04,248,16,1*7A
$GBGSV,3,1,09,19,69,274,39,37,48,060,35,20,48,161,36,22,20,314,24,1*76
$GBGSV,3,2,09,36,19,226,31,38,16,331,24,08,07,341,21,11,03,015,20,1*73
$GBGSV,3,3,09,04,01,261,,1*4F
$GBGSV,2,1,06,19,69,274,32,20,48,161,33,37,48,060,32,22,20,314,24,5*75
$GBGSV,2,2,06,36,19,226,25,38,16,331,21,5*76
$GNGLL,4910.429098,N,12304.401570,W,230151.000,A,D*55
$GNRMC,230152.000,A,4910.429128,N,12304.401564,W,0.01,114.98,091024,,,D,V*1E
$GNGGA,230152.000,4910.429128,N,12304.401564,W,2,57,0.45,3.843,M,-16.816,M,,*40
$GNVTG,114.98,T,,M,0.01,N,0.02,K,D*20
$GNGSA,A,3,09,04,07,16,30,20,27,26,11,03,08,,0.74,0.45,0.59,1*09
$GNGSA,A,3,67,77,68,78,76,69,85,,,,,,0.74,0.45,0.59,2*0F
$GNGSA,A,3,05,24,31,09,03,25,06,15,13,,,,0.74,0.45,0.59,3*01
$GNGSA,A,3,19,37,20,22,36,38,08,,,,,,0.74,0.45,0.59,4*02
$GPGSV,4,1,13,09,88,278,46,04,56,116,41,07,55,257,43,16,42,062,42,1*62
$GPGSV,4,2,13,30,23,253,38,20,20,317,34,27,15,102,36,26,13,044,35,1*68
$GPGSV,4,3,13,11,10,295,33,03,09,174,34,08,06,132,32,195,03,290,27,1*5E
$GPGSV,4,4,13,06,03,256,21,1*51
$GPGSV,2,1,08,09,88,278,35,04,56,116,35,30,23,253,30,27,15,102,26,8*60
$GPGSV,2,2,08,26,13,044,26,11,10,295,24,03,09,174,24,08,06,132,19,8*66
$GLGSV,2,1,08,67,64,141,27,77,62,044,18,68,60,320,34,78,52,212,29,1*70
$GLGSV,2,2,08,76,15,038,30,69,11,320,24,85,10,004,26,79,02,216,,1*70
$GAGSV,3,1,10,05,83,306,41,24,56,146,41,31,42,060,37,09,40,115,40,7*77
$GAGSV,3,2,10,03,29,297,36,25,17,192,37,06,17,116,35,15,14,295,29,7*79
$GAGSV,3,3,10,13,07,344,28,34,04,248,31,7*71
$GAGSV,3,1,10,05,83,306,32,24,56,146,34,31,42,060,30,09,40,115,30,1*77
$GAGSV,3,2,10,03,29,297,26,25,17,192,19,06,17,116,24,15,14,295,25,1*7E
$GAGSV,3,3,10,13,07,344,20,34,04,248,16,1*7A
$GBGSV,3,1,10,46,70,204,,19,69,274,39,37,48,060,35,20,48,161,36,1*7F
$GBGSV,3,2,10,22,20,314,25,36,19,226,31,38,16,331,25,08,07,341,20,1*7D
$GBGSV,3,3,10,11,03,015,20,04,01,261,,1*72
$GBGSV,2,1,06,19,69,274,32,20,48,161,33,37,48,060,32,22,20,314,24,5*75
$GBGSV,2,2,06,36,19,226,25,38,16,331,21,5*76
$GNGLL,4910.429128,N,12304.401564,W,230152.000,A,D*59
$GNRMC,230153.000,A,4910.429128,N,12304.401600,W,0.01,114.98,091024,,,D,V*1E
$GNGGA,230153.000,4910.429128,N,12304.401600,W,2,57,0.45,3.841,M,-16.816,M,,*42
$GNVTG,114.98,T,,M,0.01,N,0.02,K,D*20
$GNGSA,A,3,09,04,07,16,30,20,27,26,11,03,08,,0.74,0.45,0.59,1*09
$GNGSA,A,3,67,77,68,78,76,69,85,,,,,,0.74,0.45,0.59,2*0F
$GNGSA,A,3,05,24,31,09,03,06,25,15,13,,,,0.74,0.45,0.59,3*01
$GNGSA,A,3,19,20,37,22,36,38,08,,,,,,0.74,0.45,0.59,4*02
$GPGSV,4,1,13,09,88,278,46,04,56,116,41,07,55,257,43,16,42,062,42,1*62
$GPGSV,4,2,13,30,23,253,38,20,20,317,34,27,15,102,36,26,13,044,35,1*68
$GPGSV,4,3,13,11,10,295,33,03,09,174,34,08,06,132,33,195,03,290,24,1*5C
$GPGSV,4,4,13,06,03,256,21,1*51
$GPGSV,2,1,08,09,88,278,35,04,56,116,35,30,23,253,30,27,15,102,26,8*60
$GPGSV,2,2,08,26,13,044,26,11,10,295,24,03,09,174,24,08,06,132,19,8*66
$GLGSV,2,1,07,67,64,141,27,77,62,044,18,68,60,320,34,78,52,212,29,1*7F
$GLGSV,2,2,07,76,15,038,30,69,11,320,26,85,10,004,26,1*44
$GAGSV,3,1,10,05,83,306,41,24,56,146,41,31,42,060,37,09,40,115,40,7*77
$GAGSV,3,2,10,03,29,297,36,06,17,116,35,25,17,192,37,15,14,295,29,7*79
$GAGSV,3,3,10,13,07,344,28,34,04,248,31,7*71
$GAGSV,3,1,10,05,83,306,32,24,56,146,34,31,42,060,30,09,40,115,30,1*77
$GAGSV,3,2,10,03,29,297,26,25,17,192,19,06,17,116,24,15,14,295,25,1*7E
$GAGSV,3,3,10,13,07,344,20,34,04,248,16,1*7A
$GBGSV,3,1,11,46,70,204,,19,69,274,39,20,48,161,36,37,48,060,35,1*7E
$GBGSV,3,2,11,22,20,314,25,36,19,226,31,38,16,331,25,57,08,046,,1*7F
$GBGSV,3,3,11,08,07,341,20,11,03,015,20,04,01,261,,1*48
$GBGSV,2,1,06,19,69,274,32,20,48,161,33,37,48,060,32,22,20,314,24,5*75
$GBGSV,2,2,06,36,19,226,25,38,16,331,21,5*76
$GNGLL,4910.429128,N,12304.401600,W,230153.000,A,D*59
$GNRMC,230154.000,A,4910.429098,N,12304.401582,W,0.01,114.98,091024,,,D,V*1A
$GNGGA,230154.000,4910.429098,N,12304.401582,W,2,57,0.45,3.900,M,-16.817,M,,*43
$GNVTG,114.98,T,,M,0.01,N,0.02,K,D*20
$GNGSA,A,3,09,04,07,16,30,20,27,26,11,03,08,,0.74,0.45,0.59,1*09
$GNGSA,A,3,67,77,68,78,76,69,85,,,,,,0.74,0.45,0.59,2*0F
$GNGSA,A,3,05,24,31,09,03,25,06,15,13,,,,0.74,0.45,0.59,3*01
$GNGSA,A,3,19,37,20,22,36,38,08,,,,,,0.74,0.45,0.59,4*02
$GPGSV,4,1,13,09,88,278,46,04,56,116,41,07,55,257,43,16,42,062,42,1*62
$GPGSV,4,2,13,30,23,253,38,20,20,317,34,27,15,102,36,26,13,044,35,1*68
$GPGSV,4,3,13,11,10,295,33,03,09,174,34,08,06,132,33,06,03,256,22,1*6B
$GPGSV,4,4,13,195,03,290,25,1*64
$GPGSV,2,1,08,09,88,278,35,04,56,116,35,30,23,253,30,27,15,102,26,8*60
$GPGSV,2,2,08,26,13,044,26,11,10,295,24,03,09,174,24,08,06,132,19,8*66
$GLGSV,3,1,10,67,64,141,27,77,62,044,18,68,60,320,34,78,52,212,29,1*78
$GLGSV,3,2,10,76,15,038,30,69,11,320,25,66,11,139,,85,10,004,26,1*7B
$GLGSV,3,3,10,84,07,314,,79,02,216,,1*7D
$GAGSV,3,1,10,05,83,306,41,24,56,146,41,31,42,060,37,09,40,115,40,7*77
$GAGSV,3,2,10,03,29,297,36,25,17,192,37,06,17,116,35,15,14,295,29,7*79
$GAGSV,3,3,10,13,07,344,28,34,04,248,31,7*71
$GAGSV,3,1,10,05,83,306,32,24,56,146,34,31,42,060,30,09,40,115,30,1*77
$GAGSV,3,2,10,03,29,297,26,25,17,192,19,06,17,116,24,15,14,295,25,1*7E
$GAGSV,3,3,10,13,07,344,20,34,04,248,16,1*7A
$GBGSV,3,1,10,46,70,204,,19,69,274,39,37,48,060,35,20,48,161,36,1*7F
$GBGSV,3,2,10,22,20,314,27,36,19,226,31,38,16,331,25,57,08,046,,1*7C
$GBGSV,3,3,10,08,07,341,22,11,03,015,20,1*7B
$GBGSV,2,1,06,19,69,274,32,20,48,161,33,37,48,060,32,22,20,314,24,5*75
$GBGSV,2,2,06,36,19,226,25,38,16,331,21,5*76
$GNGLL,4910.429098,N,12304.401582,W,230154.000,A,D*5D
$GNRMC,230155.000,A,4910.429080,N,12304.401612,W,0.01,114.98,091024,,,D,V*18
$GNGGA,230155.000,4910.429080,N,12304.401612,W,2,57,0.45,3.898,M,-16.816,M,,*40
$GNVTG,114.98,T,,M,0.01,N,0.01,K,D*23
$GNGSA,A,3,09,04,07,16,30,20,27,26,11,03,08,,0.74,0.45,0.59,1*09
$GNGSA,A,3,67,77,68,78,76,69,85,,,,,,0.74,0.45,0.59,2*0F
$GNGSA,A,3,05,24,31,09,03,25,06,15,13,,,,0.74,0.45,0.59,3*01
$GNGSA,A,3,19,37,20,22,36,38,08,,,,,,0.74,0.45,0.59,4*02
$GPGSV,4,1,13,09,88,278,46,04,56,116,41,07,55,257,43,16,42,062,42,1*62
$GPGSV,4,2,13,30,23,253,38,20,20,317,34,27,15,102,36,26,13,044,35,1*68
$GPGSV,4,3,13,11,10,295,33,03,09,174,34,08,06,132,33,06,03,256,23,1*6A
$GPGSV,4,4,13,195,03,290,25,1*64
$GPGSV,2,1,08,09,88,278,35,04,56,116,35,30,23,253,30,27,15,102,26,8*60
$GPGSV,2,2,08,26,13,044,27,11,10,295,24,03,09,174,24,08,06,132,20,8*6D
$GLGSV,3,1,09,67,64,141,27,77,62,044,18,68,60,320,34,78,52,212,29,1*70
$GLGSV,3,2,09,76,15,038,30,66,11,139,,69,11,320,24,85,10,004,26,1*72
$GLGSV,3,3,09,84,07,314,,1*4C
$GAGSV,3,1,10,05,83,306,41,24,56,146,41,31,42,060,37,09,40,115,40,7*77
$GAGSV,3,2,10,03,29,297,36,25,17,192,37,06,17,116,35,15,14,295,29,7*79
$GAGSV,3,3,10,13,07,344,28,34,04,248,31,7*71
$GAGSV,3,1,10,05,83,306,32,24,56,146,34,31,42,060,30,09,40,115,30,1*77
$GAGSV,3,2,10,03,29,297,26,25,17,192,20,06,17,116,24,15,14,295,25,1*74
$GAGSV,3,3,10,13,07,344,20,34,04,248,16,1*7A
$GBGSV,3,1,11,46,70,204,,19,69,274,39,37,48,060,35,20,48,161,36,1*7E
$GBGSV,3,2,11,22,20,314,27,36,19,226,31,38,16,331,25,57,08,046,,1*7D
$GBGSV,3,3,11,08,07,341,20,11,03,015,20,43,02,035,,1*4B
$GBGSV,2,1,06,19,69,274,32,20,48,161,33,37,48,060,32,22,20,314,24,5*75
$GBGSV,2,2,06,36,19,226,26,38,16,331,21,5*75
$GNGLL,4910.429080,N,12304.401612,W,230155.000,A,D*5F
$GNRMC,230156.000,A,4910.429020,N,12304.401606,W,0.01,114.98,091024,,,D,V*14
$GNGGA,230156.000,4910.429020,N,12304.401606,W,2,57,0.45,3.963,M,-16.817,M,,*48
$GNVTG,114.98,T,,M,0.01,N,0.01,K,D*23
$GNGSA,A,3,09,04,07,16,30,20,27,26,11,03,08,,0.74,0.45,0.59,1*09
$GNGSA,A,3,67,77,68,78,76,69,85,,,,,,0.74,0.45,0.59,2*0F
$GNGSA,A,3,05,24,31,09,03,25,06,15,13,,,,0.74,0.45,0.59,3*01
$GNGSA,A,3,19,37,20,22,36,38,08,,,,,,0.74,0.45,0.59,4*02
$GPGSV,4,1,13,09,88,278,46,04,56,116,41,07,55,257,43,16,42,062,42,1*62
$GPGSV,4,2,13,30,23,253,38,20,20,317,34,27,15,102,36,26,13,044,35,1*68
$GPGSV,4,3,13,11,10,295,33,03,09,174,34,08,06,132,33,06,03,256,24,1*6D
$GPGSV,4,4,13,195,03,290,25,1*64
$GPGSV,2,1,08,09,88,278,35,04,56,116,35,30,23,253,30,27,15,102,26,8*60
$GPGSV,2,2,08,26,13,044,27,11,10,295,24,03,09,174,24,08,06,132,20,8*6D
$GLGSV,3,1,09,67,64,141,27,77,62,044,19,68,60,320,33,78,52,212,29,1*76
$GLGSV,3,2,09,76,15,038,30,66,11,139,,69,11,320,24,85,10,004,26,1*72
$GLGSV,3,3,09,84,07,314,,1*4C
$GAGSV,3,1,10,05,83,306,41,24,56,146,41,31,42,060,37,09,40,115,40,7*77
$GAGSV,3,2,10,03,29,297,36,25,17,192,37,06,17,116,35,15,14,295,29,7*79
$GAGSV,3,3,10,13,07,344,28,34,04,248,31,7*71
$GAGSV,3,1,10,05,83,306,32,24,56,146,34,31,42,060,30,09,40,115,30,1*77
$GAGSV,3,2,10,03,29,297,26,25,17,192,20,06,17,116,24,15,14,295,25,1*74
$GAGSV,3,3,10,13,07,344,19,34,04,248,16,1*70
$GBGSV,3,1,11,46,70,204,,19,69,274,39,37,48,060,35,20,48,161,36,1*7E
$GBGSV,3,2,11,22,20,314,27,36,19,226,31,38,16,331,25,57,08,046,,1*7D
$GBGSV,3,3,11,08,07,341,22,11,03,015,20,43,02,035,,1*49
$GBGSV,2,1,06,19,69,274,32,20,48,161,33,37,48,060,32,22,20,314,24,5*75
$GBGSV,2,2,06,36,19,226,26,38,16,331,21,5*75
$GNGLL,4910.429020,N,12304.401606,W,230156.000,A,D*53
$GNRMC,230157.000,A,4910.429008,N,12304.401606,W,0.01,114.98,091024,,,D,V*1F
$GNGGA,230157.000,4910.429008,N,12304.401606,W,2,56,0.45,3.964,M,-16.817,M,,*45
$GNVTG,114.98,T,,M,0.01,N,0.01,K,D*23
$GNGSA,A,3,09,04,07,16,30,20,27,26,11,03,08,,0.74,0.45,0.59,1*09
$GNGSA,A,3,67,77,68,78,76,69,85,,,,,,0.74,0.45,0.59,2*0F
$GNGSA,A,3,05,24,31,09,03,25,06,15,13,,,,0.74,0.45,0.59,3*01
$GNGSA,A,3,19,37,20,22,36,38,08,,,,,,0.74,0.45,0.59,4*02
$GPGSV,4,1,13,09,88,278,46,04,56,116,41,07,55,257,43,16,42,062,42,1*62
$GPGSV,4,2,13,30,23,253,38,20,20,317,34,27,15,102,36,26,13,044,35,1*68
$GPGSV,4,3,13,11,10,295,33,03,09,174,34,08,06,132,33,06,03,256,25,1*6C
$GPGSV,4,4,13,195,03,290,25,1*64
$GPGSV,2,1,08,09,88,278,35,04,56,116,35,30,23,253,29,27,15,102,26,8*68
$GPGSV,2,2,08,26,13,044,26,11,10,295,24,03,09,174,24,08,06,132,20,8*6C
$GLGSV,2,1,08,67,64,141,27,77,62,044,19,68,60,320,33,78,52,212,29,1*76
$GLGSV,2,2,08,76,14,039,30,66,11,139,,69,11,320,24,85,10,004,26,1*72
$GAGSV,3,1,10,05,83,306,41,24,56,146,41,31,42,060,37,09,40,115,40,7*77
$GAGSV,3,2,10,03,29,297,36,25,17,192,37,06,17,116,35,15,14,295,29,7*79
$GAGSV,3,3,10,13,07,344,28,34,04,248,31,7*71
$GAGSV,3,1,10,05,83,306,32,24,56,146,34,31,42,060,30,09,40,115,30,1*77
$GAGSV,3,2,10,03,29,297,26,25,17,192,20,06,17,116,24,15,14,295,25,1*74
$GAGSV,3,3,10,13,07,344,19,34,04,248,16,1*70
$GBGSV,3,1,12,46,70,204,,19,69,274,39,37,48,060,35,20,48,161,36,1*7D
$GBGSV,3,2,12,22,20,314,28,36,19,226,31,38,16,331,25,57,08,046,,1*71
$GBGSV,3,3,12,08,07,341,22,11,03,015,21,43,02,035,,04,01,261,,1*7B
$GBGSV,2,1,06,19,69,274,32,20,48,161,33,37,48,060,32,22,20,314,24,5*75
$GBGSV,2,2,06,36,19,226,25,38,16,331,20,5*77
$GNGLL,4910.429008,N,12304.401606,W,230157.000,A,D*58
$GNRMC,230158.000,A,4910.429008,N,12304.401618,W,0.01,114.98,091024,,,D,V*1F
$GNGGA,230158.000,4910.429008,N,12304.401618,W,2,56,0.45,3.994,M,-16.816,M,,*4B
$GNVTG,114.98,T,,M,0.01,N,0.01,K,D*23
$GNGSA,A,3,09,04,07,16,30,20,27,26,11,03,08,,0.74,0.45,0.59,1*09
$GNGSA,A,3,67,68,77,78,76,69,85,,,,,,0.74,0.45,0.59,2*0F
$GNGSA,A,3,05,24,31,09,03,25,06,15,13,,,,0.74,0.45,0.59,3*01
$GNGSA,A,3,19,37,20,22,36,38,08,,,,,,0.74,0.45,0.59,4*02
$GPGSV,4,1,13,09,88,278,46,04,56,116,41,07,55,257,43,16,42,062,42,1*62
$GPGSV,4,2,13,30,23,253,38,20,20,317,34,27,15,102,36,26,13,044,35,1*68
$GPGSV,4,3,13,11,10,295,33,03,09,174,34,08,06,132,33,195,03,290,25,1*5D
$GPGSV,4,4,13,06,03,256,26,1*56
$GPGSV,2,1,08,09,88,278,35,04,56,116,35,30,23,253,29,27,15,102,26,8*68
$GPGSV,2,2,08,26,13,044,26,11,10,295,24,03,09,174,24,08,06,132,20,8*6C
$GLGSV,2,1,07,67,64,141,26,68,60,320,33,77,60,044,19,78,52,212,29,1*7A
$GLGSV,2,2,07,76,14,039,30,69,11,320,24,85,10,004,26,1*46
$GAGSV,3,1,10,05,83,306,41,24,56,146,41,31,42,060,37,09,40,115,40,7*77
$GAGSV,3,2,10,03,29,297,36,25,17,192,37,06,17,116,35,15,14,295,29,7*79
$GAGSV,3,3,10,13,07,344,28,34,04,248,31,7*71
$GAGSV,3,1,10,05,83,306,32,24,56,146,34,31,42,060,30,09,40,115,30,1*77
$GAGSV,3,2,10,03,29,297,26,25,17,192,20,06,17,116,24,15,14,295,25,1*74
$GAGSV,3,3,10,13,07,344,19,34,04,248,16,1*70
$GBGSV,3,1,12,46,70,204,,19,69,274,39,37,48,060,35,20,48,161,36,1*7D
$GBGSV,3,2,12,22,20,314,28,36,19,226,31,38,16,331,24,57,08,046,,1*70
$GBGSV,3,3,12,08,07,341,21,11,03,015,21,43,02,035,,04,01,261,,1*78
$GBGSV,2,1,06,19,69,274,32,20,48,161,33,37,48,060,32,22,20,314,24,5*75
$GBGSV,2,2,06,36,19,226,25,38,16,331,20,5*77
$GNGLL,4910.429008,N,12304.401618,W,230158.000,A,D*58
$GNRMC,230159.000,A,4910.429002,N,12304.401642,W,0.01,114.98,091024,,,D,V*1B
$GNGGA,230159.000,4910.429002,N,12304.401642,W,2,56,0.45,4.011,M,-16.817,M,,*4D
$GNVTG,114.98,T,,M,0.01,N,0.01,K,D*23
$GNGSA,A,3,09,04,07,16,30,20,27,26,11,03,08,,0.74,0.45,0.59,1*09
$GNGSA,A,3,67,68,77,78,76,69,85,,,,,,0.74,0.45,0.59,2*0F
$GNGSA,A,3,05,24,31,09,03,06,25,15,13,,,,0.74,0.45,0.59,3*01
$GNGSA,A,3,19,20,37,22,36,38,08,,,,,,0.74,0.45,0.59,4*02
$GPGSV,4,1,13,09,88,278,46,04,56,116,41,07,55,257,43,16,42,062,42,1*62
$GPGSV,4,2,13,30,23,253,38,20,20,317,34,27,15,102,36,26,13,044,35,1*68
$GPGSV,4,3,13,11,10,295,34,03,09,174,34,08,06,132,33,195,03,290,25,1*5A
$GPGSV,4,4,13,06,03,256,27,1*57
$GPGSV,2,1,08,09,88,278,35,04,56,116,35,30,23,253,29,27,15,102,26,8*68
$GPGSV,2,2,08,26,13,044,26,11,10,295,25,03,09,174,24,08,06,132,21,8*6C
$GLGSV,2,1,07,67,64,141,27,68,60,320,33,77,60,044,19,78,53,213,29,1*7B
$GLGSV,2,2,07,76,14,039,30,69,11,320,23,85,10,004,26,1*41
$GAGSV,3,1,10,05,83,306,41,24,56,146,41,31,42,060,37,09,40,115,40,7*77
$GAGSV,3,2,10,03,29,297,36,06,17,116,35,25,17,192,37,15,14,295,29,7*79
$GAGSV,3,3,10,13,07,344,28,34,04,248,31,7*71
$GAGSV,3,1,10,05,83,306,32,24,56,146,34,31,42,060,30,09,40,115,30,1*77
$GAGSV,3,2,10,03,29,297,26,25,17,192,21,06,17,116,24,15,14,295,25,1*75
$GAGSV,3,3,10,13,07,344,19,34,04,248,16,1*70
$GBGSV,3,1,11,46,70,204,,19,69,274,39,20,48,161,36,37,48,060,35,1*7E
$GBGSV,3,2,11,22,20,314,29,36,19,226,31,38,16,331,24,57,08,046,,1*72
$GBGSV,3,3,11,08,07,341,21,11,03,015,21,43,02,035,,1*4B
$GBGSV,2,1,06,19,69,274,32,20,48,161,33,37,48,060,32,22,20,314,24,5*75
$GBGSV,2,2,06,36,19,226,26,38,16,331,20,5*74
$GNGLL,4910.429002,N,12304.401642,W,230159.000,A,D*5C
$GNRMC,230200.000,A,4910.428984,N,12304.401696,W,0.01,114.98,091024,,,D,V*1B
$GNGGA,230200.000,4910.428984,N,12304.401696,W,2,56,0.45,4.029,M,-16.816,M,,*47
$GNVTG,114.98,T,,M,0.01,N,0.01,K,D*23
$GNGSA,A,3,09,04,07,16,30,20,27,26,11,03,08,,0.74,0.45,0.59,1*09
$GNGSA,A,3,67,68,77,78,76,69,85,,,,,,0.74,0.45,0.59,2*0F
$GNGSA,A,3,05,24,31,09,03,06,25,15,13,,,,0.74,0.45,0.59,3*01
$GNGSA,A,3,19,20,37,22,36,38,08,,,,,,0.74,0.45,0.59,4*02
$GPGSV,4,1,13,09,88,278,46,04,56,116,41,07,55,257,43,16,42,062,42,1*62
$GPGSV,4,2,13,30,23,253,38,20,20,317,34,27,15,102,36,26,13,044,35,1*68
$GPGSV,4,3,13,11,10,295,34,03,09,174,34,08,06,132,33,06,03,256,27,1*69
$GPGSV,4,4,13,195,03,290,26,1*67
$GPGSV,2,1,08,09,88,278,35,04,56,116,35,30,23,253,29,27,15,102,26,8*68
$GPGSV,2,2,08,26,13,044,27,11,10,295,26,03,09,174,25,08,06,132,21,8*6F
$GLGSV,2,1,08,67,64,141,27,68,60,320,33,77,60,044,19,78,53,213,29,1*74
$GLGSV,2,2,08,76,14,039,30,69,11,320,23,85,10,004,26,84,07,314,,1*73
$GAGSV,3,1,10,05,83,306,41,24,56,146,41,31,42,060,37,09,40,115,40,7*77
$GAGSV,3,2,10,03,29,297,36,06,17,116,35,25,17,192,37,15,14,295,29,7*79
$GAGSV,3,3,10,13,07,344,28,34,04,248,31,7*71
$GAGSV,3,1,10,05,83,306,32,24,56,146,34,31,42,060,30,09,40,115,30,1*77
$GAGSV,3,2,10,03,29,297,27,25,17,192,21,06,17,116,25,15,14,295,25,1*75
$GAGSV,3,3,10,13,07,344,20,34,04,248,16,1*7A
$GBGSV,3,1,10,46,70,204,,19,69,274,39,20,48,161,36,37,48,060,35,1*7F
$GBGSV,3,2,10,22,20,314,29,36,19,226,31,38,16,331,24,08,07,341,21,1*71
$GBGSV,3,3,10,11,03,015,21,43,02,035,,1*70
$GBGSV,2,1,06,19,69,274,32,20,48,161,33,37,48,060,32,22,20,314,24,5*75
$GBGSV,2,2,06,36,19,226,26,38,16,331,20,5*74
$GNGLL,4910.428984,N,12304.401696,W,230200.000,A,D*5C
$GNRMC,230201.000,A,4910.428972,N,12304.401714,W,0.01,114.98,091024,,,D,V*18
$GNGGA,230201.000,4910.428972,N,12304.401714,W,2,56,0.45,4.060,M,-16.816,M,,*49
$GNVTG,114.98,T,,M,0.01,N,0.01,K,D*23
$GNGSA,A,3,09,04,07,16,30,20,27,26,11,03,08,,0.74,0.45,0.59,1*09
$GNGSA,A,3,67,68,77,78,76,69,85,,,,,,0.74,0.45,0.59,2*0F
$GNGSA,A,3,05,24,31,09,03,06,25,15,13,,,,0.74,0.45,0.59,3*01
$GNGSA,A,3,19,20,37,22,36,38,08,,,,,,0.74,0.45,0.59,4*02
$GPGSV,4,1,13,09,88,278,46,04,56,116,41,07,55,257,43,16,42,062,42,1*62
$GPGSV,4,2,13,30,23,253,38,20,20,317,34,27,15,102,36,26,13,044,35,1*68
$GPGSV,4,3,13,11,10,295,34,03,09,174,34,08,06,132,33,06,03,256,28,1*66
$GPGSV,4,4,13,195,03,290,26,1*67
$GPGSV,2,1,08,09,88,278,35,04,56,116,35,30,23,253,29,27,15,102,26,8*68
$GPGSV,2,2,08,26,13,044,27,11,10,295,26,03,09,174,25,08,06,132,21,8*6F
$GLGSV,2,1,08,67,64,141,28,68,60,320,33,77,60,044,19,78,53,213,29,1*7B
$GLGSV,2,2,08,76,14,039,30,69,11,320,22,85,10,004,26,84,07,314,,1*72
$GAGSV,3,1,10,05,83,306,41,24,56,146,41,31,42,060,37,09,40,115,40,7*77
$GAGSV,3,2,10,03,29,297,36,06,17,116,35,25,17,192,37,15,14,295,29,7*79
$GAGSV,3,3,10,13,07,344,28,34,04,248,31,7*71
$GAGSV,3,1,10,05,83,306,32,24,56,146,34,31,42,060,30,09,40,115,30,1*77
$GAGSV,3,2,10,03,29,297,26,25,17,192,21,06,17,116,25,15,14,295,25,1*74
$GAGSV,3,3,10,13,07,344,20,34,04,248,15,1*79
$GBGSV,3,1,10,46,70,204,,19,69,274,39,20,48,161,36,37,48,060,35,1*7F
$GBGSV,3,2,10,22,20,314,29,36,19,226,31,38,16,331,24,08,07,341,21,1*71
$GBGSV,3,3,10,11,03,015,21,43,02,035,,1*70
$GBGSV,2,1,06,19,69,274,32,20,48,161,33,37,48,060,32,22,20,314,24,5*75
$GBGSV,2,2,06,36,19,226,26,38,16,331,20,5*74
$GNGLL,4910.428972,N,12304.401714,W,230201.000,A,D*5F
$PAIR010,0,1,2335,342139*33
$GNRMC,230202.000,A,4910.428948,N,12304.401714,W,0.01,114.98,091024,,,D,V*12
$GNGGA,230202.000,4910.428948,N,12304.401714,W,2,56,0.45,4.091,M,-16.816,M,,*4D
$GNVTG,114.98,T,,M,0.01,N,0.01,K,D*23
$GNGSA,A,3,09,04,07,16,30,20,27,26,11,03,08,,0.74,0.45,0.59,1*09
$GNGSA,A,3,67,68,77,78,76,69,85,,,,,,0.74,0.45,0.59,2*0F
$GNGSA,A,3,05,24,31,09,03,06,25,15,13,,,,0.74,0.45,0.59,3*01
$GNGSA,A,3,19,37,20,22,36,38,08,,,,,,0.74,0.45,0.59,4*02
$GPGSV,4,1,13,09,88,278,46,04,56,116,41,07,55,257,43,16,42,062,42,1*62
$GPGSV,4,2,13,30,23,253,38,20,20,317,34,27,15,102,36,26,13,044,35,1*68
$GPGSV,4,3,13,11,10,295,34,03,09,174,34,08,06,132,33,06,03,256,28,1*66
$GPGSV,4,4,13,195,03,290,25,1*64
$GPGSV,2,1,08,09,88,278,35,04,56,116,35,30,23,253,29,27,15,102,26,8*68
$GPGSV,2,2,08,26,13,044,27,11,10,295,26,03,09,174,25,08,06,132,21,8*6F
$GLGSV,2,1,08,67,64,141,28,68,60,320,33,77,60,044,19,78,53,213,29,1*7B
$GLGSV,2,2,08,76,14,039,30,69,11,320,22,85,10,004,26,84,07,314,,1*72
$GAGSV,3,1,10,05,83,306,41,24,56,146,41,31,42,060,37,09,40,115,40,7*77
$GAGSV,3,2,10,03,29,297,36,06,17,116,35,25,17,192,37,15,14,295,29,7*79
$GAGSV,3,3,10,13,07,344,28,34,04,248,31,7*71
$GAGSV,3,1,10,05,83,306,32,24,56,146,34,31,42,060,30,09,40,115,30,1*77
$GAGSV,3,2,10,03,29,297,26,25,17,192,20,06,17,116,24,15,14,295,25,1*74
$GAGSV,3,3,10,13,07,344,19,34,04,248,15,1*73
$GBGSV,3,1,11,46,70,204,,19,69,274,39,37,48,060,35,20,48,161,36,1*7E
$GBGSV,3,2,11,22,20,314,29,36,19,226,31,38,16,331,24,08,07,341,21,1*70
$GBGSV,3,3,11,11,03,015,21,43,02,035,,04,01,261,,1*41
$GBGSV,2,1,06,19,69,274,32,20,48,161,33,37,48,060,32,22,20,314,24,5*75
$GBGSV,2,2,06,36,19,226,25,38,16,331,20,5*77
$GNGLL,4910.428948,N,12304.401714,W,230202.000,A,D*55
$GNRMC,230203.000,A,4910.428924,N,12304.401714,W,0.01,114.98,091024,,,D,V*19
$GNGGA,230203.000,4910.428924,N,12304.401714,W,2,56,0.45,4.080,M,-16.816,M,,*46
$GNVTG,114.98,T,,M,0.01,N,0.01,K,D*23
$GNGSA,A,3,09,04,07,16,30,20,27,26,11,03,08,,0.74,0.45,0.59,1*09
$GNGSA,A,3,67,68,77,78,76,69,85,,,,,,0.74,0.45,0.59,2*0F
$GNGSA,A,3,05,24,31,09,03,06,25,15,13,,,,0.74,0.45,0.59,3*01
$GNGSA,A,3,19,20,37,22,36,38,08,,,,,,0.74,0.45,0.59,4*02
$GPGSV,4,1,13,09,88,278,46,04,56,116,41,07,55,257,43,16,42,062,42,1*62
$GPGSV,4,2,13,30,23,253,38,20,20,317,34,27,15,102,36,26,13,044,35,1*68
$GPGSV,4,3,13,11,10,295,34,03,09,174,34,08,06,132,33,195,03,290,25,1*5A
$GPGSV,4,4,13,06,03,256,28,1*58
$GPGSV,2,1,08,09,88,278,35,04,56,116,35,30,23,253,29,27,15,102,27,8*69
$GPGSV,2,2,08,26,13,044,27,11,10,295,26,03,09,174,25,08,06,132,21,8*6F
$GLGSV,2,1,07,67,64,141,27,68,60,320,33,77,60,044,19,78,53,213,29,1*7B
$GLGSV,2,2,07,76,14,039,30,69,11,320,20,85,10,004,26,1*42
$GAGSV,3,1,10,05,83,306,41,24,56,146,41,31,42,060,37,09,40,115,40,7*77
$GAGSV,3,2,10,03,29,297,36,06,17,116,34,25,17,192,37,15,14,295,29,7*78
$GAGSV,3,3,10,13,07,344,28,34,04,248,31,7*71
$GAGSV,3,1,10,05,83,306,32,24,56,146,34,31,42,060,30,09,40,115,30,1*77
$GAGSV,3,2,10,03,29,297,26,25,17,192,20,06,17,116,24,15,14,295,25,1*74
$GAGSV,3,3,10,13,07,344,19,34,04,248,16,1*70
$GBGSV,3,1,10,46,70,204,,19,69,274,39,20,48,161,36,37,48,060,35,1*7F
$GBGSV,3,2,10,22,20,314,29,36,19,226,31,38,16,331,24,08,07,341,21,1*71
$GBGSV,3,3,10,11,03,015,20,43,02,035,,1*71
$GBGSV,2,1,06,19,69,274,32,20,48,161,33,37,48,060,33,22,20,314,24,5*74
$GBGSV,2,2,06,36,19,226,26,38,16,331,20,5*74
$GNGLL,4910.428924,N,12304.401714,W,230203.000,A,D*5E
$GNRMC,230204.000,A,4910.428930,N,12304.401714,W,0.01,114.98,091024,,,D,V*1B
$GNGGA,230204.000,4910.428930,N,12304.401714,W,2,56,0.45,4.073,M,-16.816,M,,*48
$GNVTG,114.98,T,,M,0.01,N,0.01,K,D*23
$GNGSA,A,3,09,04,07,16,30,20,27,26,11,03,08,,0.74,0.45,0.59,1*09
$GNGSA,A,3,67,68,77,78,76,69,85,,,,,,0.74,0.45,0.59,2*0F
$GNGSA,A,3,05,24,31,09,03,06,25,15,13,,,,0.74,0.45,0.59,3*01
$GNGSA,A,3,19,20,37,22,36,38,08,,,,,,0.74,0.45,0.59,4*02
$GPGSV,4,1,13,09,88,278,46,04,56,116,41,07,55,257,43,16,42,062,42,1*62
$GPGSV,4,2,13,30,23,253,38,20,20,317,34,27,15,102,36,26,13,044,35,1*68
$GPGSV,4,3,13,11,10,295,33,03,09,174,34,08,06,132,33,195,03,290,25,1*5D
$GPGSV,4,4,13,06,03,256,28,1*58
$GPGSV,2,1,08,09,88,278,35,04,56,116,35,30,23,253,29,27,15,102,27,8*69
$GPGSV,2,2,08,26,13,044,27,11,10,295,26,03,09,174,25,08,06,132,21,8*6F
$GLGSV,2,1,07,67,64,141,27,68,60,320,33,77,60,044,18,78,53,213,29,1*7A
$GLGSV,2,2,07,76,14,039,30,69,11,320,22,85,10,004,26,1*40
$GAGSV,3,1,10,05,83,306,41,24,56,146,41,31,42,060,37,09,40,115,40,7*77
$GAGSV,3,2,10,03,29,297,36,06,17,116,34,25,17,192,37,15,14,295,29,7*78
$GAGSV,3,3,10,13,07,344,28,34,04,248,31,7*71
$GAGSV,3,1,10,05,83,306,32,24,56,146,34,31,42,060,30,09,40,115,30,1*77
$GAGSV,3,2,10,03,29,297,26,25,17,192,20,06,17,116,24,15,14,295,25,1*74
$GAGSV,3,3,10,13,07,344,19,34,04,248,16,1*70
$GBGSV,3,1,10,46,70,204,,19,69,274,38,20,48,161,35,37,48,060,35,1*7D
$GBGSV,3,2,10,22,20,314,29,36,19,226,30,38,16,331,23,08,07,341,21,1*77
$GBGSV,3,3,10,11,03,015,19,43,02,035,,1*7B
$GBGSV,2,1,06,19,69,274,32,20,48,161,33,37,48,060,33,22,20,314,24,5*74
$GBGSV,2,2,06,36,19,226,27,38,16,331,20,5*75
$GNGLL,4910.428930,N,12304.401714,W,230204.000,A,D*5C
$GNRMC,230205.000,A,4910.428942,N,12304.401720,W,0.01,114.98,091024,,,D,V*18
$GNGGA,230205.000,4910.428942,N,12304.401720,W,2,56,0.45,4.055,M,-16.816,M,,*4F
$GNVTG,114.98,T,,M,0.01,N,0.01,K,D*23
$GNGSA,A,3,09,04,07,16,30,20,27,26,11,03,08,,0.74,0.45,0.59,1*09
$GNGSA,A,3,67,68,77,78,76,69,85,,,,,,0.74,0.45,0.59,2*0F
$GNGSA,A,3,05,24,31,09,03,06,25,15,13,,,,0.74,0.45,0.59,3*01
$GNGSA,A,3,19,20,37,22,36,38,08,,,,,,0.74,0.45,0.59,4*02
$GPGSV,4,1,13,09,88,278,46,04,56,116,41,07,55,257,43,16,42,062,42,1*62
$GPGSV,4,2,13,30,23,253,38,20,20,317,34,27,15,102,36,26,13,044,35,1*68
$GPGSV,4,3,13,11,10,295,33,03,09,174,33,08,06,132,33,195,03,290,25,1*5A
$GPGSV,4,4,13,06,03,256,27,1*57
$GPGSV,2,1,08,09,88,278,35,04,56,116,36,30,23,253,30,27,15,102,27,8*62
$GPGSV,2,2,08,26,13,044,27,11,10,295,26,03,09,174,26,08,06,132,21,8*6C
$GLGSV,2,1,07,67,64,141,27,68,60,320,33,77,60,044,18,78,53,213,29,1*7A
$GLGSV,2,2,07,76,14,039,30,69,11,320,23,85,10,004,26,1*41
$GAGSV,3,1,10,05,83,306,41,24,56,146,41,31,42,060,37,09,40,115,40,7*77
$GAGSV,3,2,10,03,29,297,36,06,17,116,34,25,17,192,37,15,14,295,29,7*78
$GAGSV,3,3,10,13,07,344,28,34,04,248,31,7*71
$GAGSV,3,1,10,05,83,306,32,24,56,146,34,31,42,060,30,09,40,115,31,1*76
$GAGSV,3,2,10,03,29,297,26,25,17,192,20,06,17,116,24,15,14,295,25,1*74
$GAGSV,3,3,10,13,07,344,19,34,04,248,16,1*70
$GBGSV,3,1,10,46,70,204,,19,69,274,38,20,48,161,35,37,48,060,35,1*7D
$GBGSV,3,2,10,22,20,314,29,36,19,226,30,38,16,331,22,08,07,341,20,1*77
$GBGSV,3,3,10,11,03,015,19,43,02,035,,1*7B
$GBGSV,2,1,06,19,69,274,32,20,48,161,33,37,48,060,33,22,20,314,24,5*74
$GBGSV,2,2,06,36,19,226,27,38,16,331,20,5*75
$GNGLL,4910.428942,N,12304.401720,W,230205.000,A,D*5F
$GNRMC,230206.000,A,4910.428900,N,12304.401702,W,0.01,114.98,091024,,,D,V*1D
$GNGGA,230206.000,4910.428900,N,12304.401702,W,2,57,0.45,4.100,M,-16.817,M,,*4B
$GNVTG,114.98,T,,M,0.01,N,0.01,K,D*23
$GNGSA,A,3,09,04,07,16,30,20,27,26,11,03,08,,0.74,0.45,0.59,1*09
$GNGSA,A,3,67,68,77,78,76,69,85,,,,,,0.74,0.45,0.59,2*0F
$GNGSA,A,3,05,24,31,09,03,25,06,15,13,,,,0.74,0.45,0.59,3*01
$GNGSA,A,3,19,20,37,22,36,38,08,,,,,,0.74,0.45,0.59,4*02
$GPGSV,4,1,13,09,88,278,46,04,56,116,41,07,55,257,43,16,42,062,42,1*62
$GPGSV,4,2,13,30,23,253,38,20,20,317,34,27,15,102,36,26,13,044,35,1*68
$GPGSV,4,3,13,11,10,295,33,03,09,174,33,08,06,132,33,06,03,256,27,1*69
$GPGSV,4,4,13,195,03,290,25,1*64
$GPGSV,2,1,08,09,88,278,35,04,56,116,36,30,23,253,30,27,15,102,27,8*62
$GPGSV,2,2,08,26,13,044,27,11,10,295,26,03,09,174,25,08,06,132,21,8*6F
$GLGSV,2,1,08,67,64,141,27,68,60,320,33,77,60,044,18,78,53,213,29,1*75
$GLGSV,2,2,08,76,14,039,29,66,11,139,,69,11,320,20,85,10,003,26,1*79
$GAGSV,3,1,10,05,83,306,41,24,56,146,41,31,42,060,37,09,40,115,40,7*77
$GAGSV,3,2,10,03,29,297,36,25,17,192,37,06,17,116,34,15,14,295,29,7*78
$GAGSV,3,3,10,13,07,344,28,34,04,248,31,7*71
$GAGSV,3,1,10,05,83,306,32,24,56,146,34,31,42,060,30,09,40,115,31,1*76
$GAGSV,3,2,10,03,29,297,26,25,17,192,20,06,17,116,24,15,14,295,25,1*74
$GAGSV,3,3,10,13,07,344,19,34,04,248,15,1*73
$GBGSV,3,1,11,46,70,204,,19,69,274,38,20,48,161,35,37,48,060,35,1*7C
$GBGSV,3,2,11,22,20,314,29,36,19,226,30,38,16,331,21,57,08,046,,1*76
$GBGSV,3,3,11,08,07,341,20,11,03,015,19,43,02,035,,1*41
$GBGSV,2,1,06,19,69,274,32,20,48,161,33,37,48,060,32,22,20,314,24,5*75
$GBGSV,2,2,06,36,19,226,26,38,16,331,20,5*74
$GNGLL,4910.428900,N,12304.401702,W,230206.000,A,D*5A
$GNRMC,230207.000,A,4910.428870,N,12304.401696,W,0.01,114.98,091024,,,D,V*16
$GNGGA,230207.000,4910.428870,N,12304.401696,W,2,57,0.45,4.099,M,-16.816,M,,*40
$GNVTG,114.98,T,,M,0.01,N,0.01,K,D*23
$GNGSA,A,3,09,04,07,16,30,20,27,26,11,03,08,,0.74,0.45,0.59,1*09
$GNGSA,A,3,67,68,77,78,76,69,85,,,,,,0.74,0.45,0.59,2*0F
$GNGSA,A,3,05,24,31,09,03,25,06,15,13,,,,0.74,0.45,0.59,3*01
$GNGSA,A,3,19,37,20,22,36,38,08,,,,,,0.74,0.45,0.59,4*02
$GPGSV,4,1,13,09,88,278,46,04,56,116,41,07,55,257,43,16,42,062,42,1*62
$GPGSV,4,2,13,30,23,253,38,20,20,317,34,27,15,102,36,26,13,044,35,1*68
$GPGSV,4,3,13,11,10,295,33,03,09,174,33,08,06,132,33,195,03,290,25,1*5A
$GPGSV,4,4,13,06,03,256,27,1*57
$GPGSV,2,1,08,09,88,278,35,04,56,116,36,30,23,253,30,27,15,102,27,8*62
$GPGSV,2,2,08,26,13,044,27,11,10,295,26,03,09,174,25,08,06,132,20,8*6E
$GLGSV,3,1,09,67,64,141,27,68,60,320,32,77,60,044,17,78,53,213,29,1*7B
$GLGSV,3,2,09,76,14,039,29,66,11,139,,69,11,320,20,85,10,003,26,1*79
$GLGSV,3,3,09,79,03,216,,1*49
$GAGSV,3,1,10,05,83,306,41,24,56,146,41,31,42,060,37,09,40,115,40,7*77
$GAGSV,3,2,10,03,29,297,36,25,17,192,37,06,17,116,34,15,14,295,29,7*78
$GAGSV,3,3,10,13,07,344,28,34,04,248,31,7*71
$GAGSV,3,1,10,05,83,306,32,24,56,146,34,31,42,060,30,09,40,115,31,1*76
$GAGSV,3,2,10,03,29,297,26,25,17,192,20,06,17,116,24,15,14,295,25,1*74
$GAGSV,3,3,10,13,07,344,19,34,04,248,15,1*73
$GBGSV,3,1,10,46,70,204,,19,69,274,38,37,48,060,35,20,48,161,35,1*7D
$GBGSV,3,2,10,22,20,314,29,36,19,226,30,38,16,331,21,57,08,046,,1*77
$GBGSV,3,3,10,08,07,341,20,11,03,015,19,1*73
$GBGSV,2,1,06,19,69,274,32,20,48,161,33,37,48,060,32,22,20,314,23,5*72
$GBGSV,2,2,06,36,19,226,26,38,16,331,20,5*74
$GNGLL,4910.428870,N,12304.401696,W,230207.000,A,D*51
$GNRMC,230208.000,A,4910.428828,N,12304.401684,W,0.01,114.98,091024,,,D,V*17
$GNGGA,230208.000,4910.428828,N,12304.401684,W,2,57,0.45,4.120,M,-16.816,M,,*42
$GNVTG,114.98,T,,M,0.01,N,0.01,K,D*23
$GNGSA,A,3,09,04,07,16,30,20,27,26,11,03,08,,0.74,0.45,0.59,1*09
$GNGSA,A,3,67,68,77,78,76,69,85,,,,,,0.74,0.45,0.59,2*0F
$GNGSA,A,3,05,24,31,09,03,25,06,15,13,,,,0.74,0.45,0.59,3*01
$GNGSA,A,3,19,37,20,22,36,38,08,,,,,,0.74,0.45,0.59,4*02
$GPGSV,4,1,13,09,88,278,46,04,56,116,41,07,55,257,43,16,42,062,42,1*62
$GPGSV,4,2,13,30,23,253,38,20,20,317,34,27,15,102,36,26,13,044,35,1*68
$GPGSV,4,3,13,11,10,295,33,03,09,174,33,08,06,132,33,06,03,256,27,1*69
$GPGSV,4,4,13,195,03,290,25,1*64
$GPGSV,2,1,08,09,88,278,35,04,56,116,36,30,23,253,30,27,15,102,27,8*62
$GPGSV,2,2,08,26,13,044,27,11,10,295,26,03,09,174,25,08,06,132,20,8*6E
$GLGSV,3,1,09,67,64,141,27,68,60,320,31,77,60,044,17,78,53,213,29,1*78
$GLGSV,3,2,09,76,14,039,29,69,11,320,20,85,10,003,25,84,07,313,,1*7B
$GLGSV,3,3,09,79,03,216,,1*49
$GAGSV,3,1,10,05,83,306,41,24,56,146,41,31,42,060,37,09,40,115,40,7*77
$GAGSV,3,2,10,03,29,297,36,25,17,192,37,06,17,116,34,15,14,295,29,7*78
$GAGSV,3,3,10,13,07,344,28,34,04,248,31,7*71
$GAGSV,3,1,10,05,83,306,32,24,56,146,34,31,42,060,30,09,40,115,31,1*76
$GAGSV,3,2,10,03,29,297,26,25,17,192,20,06,17,116,24,15,14,295,25,1*74
$GAGSV,3,3,10,13,07,344,19,34,04,248,15,1*73
$GBGSV,3,1,11,46,70,204,,19,69,274,38,37,48,060,35,20,48,161,35,1*7C
$GBGSV,3,2,11,22,20,314,30,36,19,226,30,38,16,331,21,57,08,046,,1*7E
$GBGSV,3,3,11,08,07,341,20,11,03,015,19,43,02,035,,1*41
$GBGSV,2,1,06,19,69,274,32,20,48,161,33,37,48,060,32,22,20,314,23,5*72
$GBGSV,2,2,06,36,19,226,26,38,16,331,20,5*74
$GNGLL,4910.428828,N,12304.401684,W,230208.000,A,D*50
$GNRMC,230209.000,A,4910.428756,N,12304.401666,W,0.00,114.98,091024,,,D,V*1D
$GNGGA,230209.000,4910.428756,N,12304.401666,W,2,56,0.45,4.161,M,-16.817,M,,*4C
$GNVTG,114.98,T,,M,0.00,N,0.01,K,D*22
$GNGSA,A,3,09,04,07,16,30,20,27,26,11,03,08,,0.74,0.45,0.59,1*09
$GNGSA,A,3,67,68,77,78,76,69,85,,,,,,0.74,0.45,0.59,2*0F
$GNGSA,A,3,05,24,31,09,03,25,06,15,13,,,,0.74,0.45,0.59,3*01
$GNGSA,A,3,19,37,20,22,36,38,08,,,,,,0.74,0.45,0.59,4*02
$GPGSV,4,1,13,09,88,278,46,04,56,116,41,07,55,257,43,16,42,062,42,1*62
$GPGSV,4,2,13,30,23,253,38,20,20,317,35,27,15,102,36,26,13,044,35,1*69
$GPGSV,4,3,13,11,10,295,33,03,09,174,33,08,06,132,33,06,03,256,27,1*69
$GPGSV,4,4,13,195,03,290,25,1*64
$GPGSV,2,1,08,09,88,278,35,04,56,116,36,30,23,253,30,27,15,102,27,8*62
$GPGSV,2,2,08,26,13,044,27,11,10,295,26,03,09,174,25,08,06,132,20,8*6E
$GLGSV,3,1,09,67,64,141,27,68,60,320,31,77,60,044,17,78,53,213,29,1*78
$GLGSV,3,2,09,76,14,039,29,69,11,320,20,85,10,003,25,84,07,313,,1*7B
$GLGSV,3,3,09,79,03,216,,1*49
$GAGSV,3,1,10,05,83,306,41,24,56,146,41,31,42,060,37,09,40,115,40,7*77
$GAGSV,3,2,10,03,29,297,36,25,17,192,37,06,17,116,34,15,14,295,29,7*78
$GAGSV,3,3,10,13,07,344,29,34,04,248,31,7*70
$GAGSV,3,1,10,05,83,306,32,24,56,146,34,31,42,060,30,09,40,115,31,1*76
$GAGSV,3,2,10,03,29,297,26,25,17,192,20,06,17,116,24,15,14,295,25,1*74
$GAGSV,3,3,10,13,07,344,19,34,04,248,15,1*73
$GBGSV,3,1,11,46,70,204,,19,69,274,38,37,48,060,35,20,48,161,35,1*7C
$GBGSV,3,2,11,22,20,314,30,36,19,226,30,38,16,331,21,57,08,046,,1*7E
$GBGSV,3,3,11,08,07,341,20,11,03,015,19,43,02,035,,1*41
$GBGSV,2,1,06,19,69,274,32,20,48,161,33,37,48,060,32,22,20,314,23,5*72
$GBGSV,2,2,06,36,19,226,26,38,16,331,20,5*74
$GNGLL,4910.428756,N,12304.401666,W,230209.000,A,D*5B
$GNRMC,230210.000,A,4910.428708,N,12304.401600,W,0.00,114.98,091024,,,D,V*1E
$GNGGA,230210.000,4910.428708,N,12304.401600,W,2,55,0.45,4.222,M,-16.816,M,,*49
$GNVTG,114.98,T,,M,0.00,N,0.01,K,D*22
$GNGSA,A,3,09,04,07,16,30,20,27,26,11,03,08,,0.74,0.45,0.59,1*09
$GNGSA,A,3,67,68,77,78,76,69,85,,,,,,0.74,0.45,0.59,2*0F
$GNGSA,A,3,05,24,31,09,03,25,06,15,13,,,,0.74,0.45,0.59,3*01
$GNGSA,A,3,19,37,20,22,36,38,08,,,,,,0.74,0.45,0.59,4*02
$GPGSV,4,1,13,09,88,278,46,04,56,116,41,07,55,257,43,16,42,062,42,1*62
$GPGSV,4,2,13,30,23,253,38,20,20,317,35,27,15,102,36,26,13,044,35,1*69
$GPGSV,4,3,13,11,10,295,33,03,09,174,33,08,06,132,33,06,03,256,27,1*69
$GPGSV,4,4,13,195,03,290,25,1*64
$GPGSV,2,1,07,09,88,278,35,04,56,116,36,30,23,253,30,27,15,102,27,8*6D
$GPGSV,2,2,07,26,13,044,27,03,09,174,25,08,06,132,20,8*5A
$GLGSV,3,1,09,67,64,141,26,68,60,320,31,77,60,044,17,78,53,213,29,1*79
$GLGSV,3,2,09,76,14,039,29,66,11,139,,69,11,320,21,85,10,003,24,1*7A
$GLGSV,3,3,09,79,03,216,,1*49
$GAGSV,3,1,10,05,83,306,41,24,56,146,41,31,42,060,37,09,40,115,40,7*77
$GAGSV,3,2,10,03,29,297,36,25,17,192,37,06,17,116,34,15,14,295,29,7*78
$GAGSV,3,3,10,13,07,344,29,34,04,248,31,7*70
$GAGSV,3,1,10,05,83,306,32,24,56,146,34,31,42,060,30,09,40,115,31,1*76
$GAGSV,3,2,10,03,29,297,26,25,17,192,20,06,17,116,24,15,14,295,25,1*74
$GAGSV,3,3,10,13,07,344,19,34,04,248,14,1*72
$GBGSV,3,1,11,46,70,204,,19,69,274,38,37,48,060,35,20,48,161,35,1*7C
$GBGSV,3,2,11,22,20,314,30,36,19,226,30,38,16,331,20,57,08,046,,1*7F
$GBGSV,3,3,11,08,07,341,20,11,03,015,19,43,02,035,,1*41
$GBGSV,2,1,06,19,69,274,32,20,48,161,33,37,48,060,32,22,20,314,23,5*72
$GBGSV,2,2,06,36,19,226,26,38,16,331,21,5*75
$GNGLL,4910.428708,N,12304.401600,W,230210.000,A,D*58
$GNRMC,230211.000,A,4910.428654,N,12304.401522,W,0.01,114.98,091024,,,D,V*15
$GNGGA,230211.000,4910.428654,N,12304.401522,W,2,56,0.45,4.278,M,-16.816,M,,*4F
$GNVTG,114.98,T,,M,0.01,N,0.01,K,D*23
$GNGSA,A,3,09,04,07,16,30,20,27,26,11,03,08,,0.74,0.45,0.59,1*09
$GNGSA,A,3,67,68,77,78,76,69,85,,,,,,0.74,0.45,0.59,2*0F
